rosbagTimestamp,header,seq,stamp,secs,nsecs,frame_id,orientation,x,y,z,w,orientation_covariance,angular_velocity,x,y,z,angular_velocity_covariance,linear_acceleration,x,y,z,linear_acceleration_covariance
1569255195415392109,,54722,,1569255195,349889039,"""knife_link""",,0.144909335663,0.98581472321,-0.0846794133293,-0.000113569908578,"[0.0, 0.0, 0.0, 0.0, 0.0, 0.0, 0.0, 0.0, 0.0]",,1.66208782818,-0.308930723482,1.4506081061,"[0.0, 0.0, 0.0, 0.0, 0.0, 0.0, 0.0, 0.0, 0.0]",,-2.4933783,-2.52282765,-9.21764655,"[0.0, 0.0, 0.0, 0.0, 0.0, 0.0, 0.0, 0.0, 0.0]"
1569255195456898390,,54723,,1569255195,413961887,"""knife_link""",,0.142194620876,0.982818214304,-0.117228780486,0.0103179674136,"[0.0, 0.0, 0.0, 0.0, 0.0, 0.0, 0.0, 0.0, 0.0]",,0.943012176353,-0.387470539822,0.178263081393,"[0.0, 0.0, 0.0, 0.0, 0.0, 0.0, 0.0, 0.0, 0.0]",,-3.28851075,-3.99529515,-8.9133366,"[0.0, 0.0, 0.0, 0.0, 0.0, 0.0, 0.0, 0.0, 0.0]"
1569255195499190580,,54724,,1569255195,456103086,"""knife_link""",,0.132800530941,0.988133142942,-0.0769849977893,0.00549735537577,"[0.0, 0.0, 0.0, 0.0, 0.0, 0.0, 0.0, 0.0, 0.0]",,-1.86522259012,0.514864683462,-0.130660196211,"[0.0, 0.0, 0.0, 0.0, 0.0, 0.0, 0.0, 0.0, 0.0]",,-0.6675186,-1.26632205,-1.85530905,"[0.0, 0.0, 0.0, 0.0, 0.0, 0.0, 0.0, 0.0, 0.0]"
1569255195570141931,,54725,,1569255195,498459100,"""knife_link""",,0.130173266558,0.991192526662,0.0174218536791,0.0169933744988,"[0.0, 0.0, 0.0, 0.0, 0.0, 0.0, 0.0, 0.0, 0.0]",,-4.50066976064,0.0628244071937,0.204443020173,"[0.0, 0.0, 0.0, 0.0, 0.0, 0.0, 0.0, 0.0, 0.0]",,-0.85403115,0.55953765,1.7865939,"[0.0, 0.0, 0.0, 0.0, 0.0, 0.0, 0.0, 0.0, 0.0]"
1569255195608304376,,54726,,1569255195,569152116,"""knife_link""",,0.127369039393,0.991351697397,0.0128433408729,0.0288788584808,"[0.0, 0.0, 0.0, 0.0, 0.0, 0.0, 0.0, 0.0, 0.0]",,0.0878008428727,-0.352563954782,0.0194381194609,"[0.0, 0.0, 0.0, 0.0, 0.0, 0.0, 0.0, 0.0, 0.0]",,0.73623375,-4.05419385,-1.766961,"[0.0, 0.0, 0.0, 0.0, 0.0, 0.0, 0.0, 0.0, 0.0]"
1569255195669380292,,54727,,1569255195,605640888,"""knife_link""",,0.122350878058,0.991825005696,0.00997861259678,0.0348403215386,"[0.0, 0.0, 0.0, 0.0, 0.0, 0.0, 0.0, 0.0, 0.0]",,0.241389817049,-0.352563954782,-0.0503750506191,"[0.0, 0.0, 0.0, 0.0, 0.0, 0.0, 0.0, 0.0, 0.0]",,-0.32394285,4.2996051,-7.5979323,"[0.0, 0.0, 0.0, 0.0, 0.0, 0.0, 0.0, 0.0, 0.0]"
1569255195712020514,,54728,,1569255195,668692111,"""knife_link""",,0.122712087014,0.990160540072,0.0592707767873,0.0317934522161,"[0.0, 0.0, 0.0, 0.0, 0.0, 0.0, 0.0, 0.0, 0.0]",,-1.54408200775,0.289717209954,0.0194381194609,"[0.0, 0.0, 0.0, 0.0, 0.0, 0.0, 0.0, 0.0, 0.0]",,0.0,-3.1019982,-12.2116638,"[0.0, 0.0, 0.0, 0.0, 0.0, 0.0, 0.0, 0.0, 0.0]"
1569255195754749822,,54729,,1569255195,711205959,"""knife_link""",,0.118753908612,0.992438087153,0.0134206433554,0.0280006908779,"[0.0, 0.0, 0.0, 0.0, 0.0, 0.0, 0.0, 0.0, 0.0]",,2.10540145818,-0.0925098962343,-0.0538657091231,"[0.0, 0.0, 0.0, 0.0, 0.0, 0.0, 0.0, 0.0, 0.0]",,-0.392658,-3.11181465,-10.47415215,"[0.0, 0.0, 0.0, 0.0, 0.0, 0.0, 0.0, 0.0, 0.0]"
1569255195818896395,,54730,,1569255195,753825902,"""knife_link""",,0.113637297165,0.993173350855,0.000947721059137,0.0263127662769,"[0.0, 0.0, 0.0, 0.0, 0.0, 0.0, 0.0, 0.0, 0.0]",,0.632343569497,0.00348321262574,-0.0172137948311,"[0.0, 0.0, 0.0, 0.0, 0.0, 0.0, 0.0, 0.0, 0.0]",,-0.30430995,1.54118265,-9.64957035,"[0.0, 0.0, 0.0, 0.0, 0.0, 0.0, 0.0, 0.0, 0.0]"
1569255195860727719,,54731,,1569255195,818053007,"""knife_link""",,0.108270680902,0.993783299982,-0.00360156829593,0.0256756896495,"[0.0, 0.0, 0.0, 0.0, 0.0, 0.0, 0.0, 0.0, 0.0]",,0.162850000709,0.00173788337374,-0.00325116081513,"[0.0, 0.0, 0.0, 0.0, 0.0, 0.0, 0.0, 0.0, 0.0]",,-0.38284155,0.95219565,-9.78700065,"[0.0, 0.0, 0.0, 0.0, 0.0, 0.0, 0.0, 0.0, 0.0]"
1569255195903998270,,54732,,1569255195,859977960,"""knife_link""",,0.102704314546,0.994370187888,-0.00621191417499,0.0253212427694,"[0.0, 0.0, 0.0, 0.0, 0.0, 0.0, 0.0, 0.0, 0.0]",,0.117471440157,0.00173788337374,-0.00674181931913,"[0.0, 0.0, 0.0, 0.0, 0.0, 0.0, 0.0, 0.0, 0.0]",,-0.4122909,-0.6871515,-9.98332965,"[0.0, 0.0, 0.0, 0.0, 0.0, 0.0, 0.0, 0.0, 0.0]"
1569255195966686133,,54733,,1569255195,903114080,"""knife_link""",,0.0971483453505,0.994930990829,-0.00616180169054,0.0252300353307,"[0.0, 0.0, 0.0, 0.0, 0.0, 0.0, 0.0, 0.0, 0.0]",,0.00227970952471,0.00348321262574,-0.00150583156313,"[0.0, 0.0, 0.0, 0.0, 0.0, 0.0, 0.0, 0.0, 0.0]",,-0.4319238,-0.1766961,-9.9538803,"[0.0, 0.0, 0.0, 0.0, 0.0, 0.0, 0.0, 0.0, 0.0]"
1569255196011369344,,54734,,1569255195,965993881,"""knife_link""",,0.0917380497121,0.995447809237,-0.00606480938918,0.0251198608281,"[0.0, 0.0, 0.0, 0.0, 0.0, 0.0, 0.0, 0.0, 0.0]",,0.000534380272707,0.00348321262574,0.000239497688873,"[0.0, 0.0, 0.0, 0.0, 0.0, 0.0, 0.0, 0.0, 0.0]",,-0.4515567,-0.14724675,-9.96369675,"[0.0, 0.0, 0.0, 0.0, 0.0, 0.0, 0.0, 0.0, 0.0]"
1569255196051803397,,54735,,1569255196,9999990,"""knife_link""",,0.0862854441538,0.995936180373,-0.00582830061887,0.0251391659371,"[0.0, 0.0, 0.0, 0.0, 0.0, 0.0, 0.0, 0.0, 0.0]",,-0.00470160748329,-7.44587825836e-06,-0.00150583156313,"[0.0, 0.0, 0.0, 0.0, 0.0, 0.0, 0.0, 0.0, 0.0]",,-0.4515567,-0.0785316,-9.64957035,"[0.0, 0.0, 0.0, 0.0, 0.0, 0.0, 0.0, 0.0, 0.0]"
1569255196116219149,,54736,,1569255196,51101922,"""knife_link""",,0.080905743973,0.996394332393,-0.00556122940405,0.0249332648278,"[0.0, 0.0, 0.0, 0.0, 0.0, 0.0, 0.0, 0.0, 0.0]",,-0.00638246736794,0.00863200837792,0.000237102711984,"[0.0, 0.0, 0.0, 0.0, 0.0, 0.0, 0.0, 0.0, 0.0]",,-0.36320865,-0.10798095,-9.8557158,"[0.0, 0.0, 0.0, 0.0, 0.0, 0.0, 0.0, 0.0, 0.0]"
1569255196159343798,,54737,,1569255196,114828109,"""knife_link""",,0.0756527384638,0.996807190851,-0.00574648191129,0.0248810244302,"[0.0, 0.0, 0.0, 0.0, 0.0, 0.0, 0.0, 0.0, 0.0]",,0.00758016664806,-9.46378820758e-05,0.000237102711984,"[0.0, 0.0, 0.0, 0.0, 0.0, 0.0, 0.0, 0.0, 0.0]",,-0.38284155,-0.2355948,-9.9146145,"[0.0, 0.0, 0.0, 0.0, 0.0, 0.0, 0.0, 0.0, 0.0]"
1569255196200931989,,54738,,1569255196,157680988,"""knife_link""",,0.0703762661697,0.997195465074,-0.00562044003614,0.0248353830009,"[0.0, 0.0, 0.0, 0.0, 0.0, 0.0, 0.0, 0.0, 0.0]",,-0.00114647961194,0.00165069136992,0.000237102711984,"[0.0, 0.0, 0.0, 0.0, 0.0, 0.0, 0.0, 0.0, 0.0]",,-0.42210735,-0.14724675,-9.9342474,"[0.0, 0.0, 0.0, 0.0, 0.0, 0.0, 0.0, 0.0, 0.0]"
1569255196264631070,,54739,,1569255196,199894905,"""knife_link""",,0.065244102609,0.997546125164,-0.00558113896366,0.0247747075403,"[0.0, 0.0, 0.0, 0.0, 0.0, 0.0, 0.0, 0.0, 0.0]",,0.00234417889206,0.00165069136992,0.000237102711984,"[0.0, 0.0, 0.0, 0.0, 0.0, 0.0, 0.0, 0.0, 0.0]",,-0.40247445,-0.16687965,-9.9146145,"[0.0, 0.0, 0.0, 0.0, 0.0, 0.0, 0.0, 0.0, 0.0]"
1569255196328587578,,54740,,1569255196,263511896,"""knife_link""",,0.0600828914543,0.99787279638,-0.00544075517021,0.0247047886686,"[0.0, 0.0, 0.0, 0.0, 0.0, 0.0, 0.0, 0.0, 0.0]",,-0.00113501481582,0.00163418445622,0.000234731684864,"[0.0, 0.0, 0.0, 0.0, 0.0, 0.0, 0.0, 0.0, 0.0]",,-0.40247445,-0.1374303,-9.8949816,"[0.0, 0.0, 0.0, 0.0, 0.0, 0.0, 0.0, 0.0, 0.0]"
1569255196349030409,,54741,,1569255196,327765941,"""knife_link""",,0.0549559430356,0.99816914074,-0.00530537536128,0.0246994694551,"[0.0, 0.0, 0.0, 0.0, 0.0, 0.0, 0.0, 0.0, 0.0]",,-0.00113501481582,-0.000111144795775,0.000234731684864,"[0.0, 0.0, 0.0, 0.0, 0.0, 0.0, 0.0, 0.0, 0.0]",,-0.42210735,-0.1374303,-9.90479805,"[0.0, 0.0, 0.0, 0.0, 0.0, 0.0, 0.0, 0.0, 0.0]"
1569255196414838585,,54742,,1569255196,348337888,"""knife_link""",,0.0498056026814,0.998442037237,-0.00525002113273,0.0246036074154,"[0.0, 0.0, 0.0, 0.0, 0.0, 0.0, 0.0, 0.0, 0.0]",,0.00235564368818,0.00512484296022,0.000234731684864,"[0.0, 0.0, 0.0, 0.0, 0.0, 0.0, 0.0, 0.0, 0.0]",,-0.36320865,-0.18651255,-9.94406385,"[0.0, 0.0, 0.0, 0.0, 0.0, 0.0, 0.0, 0.0, 0.0]"
1569255196455768234,,54743,,1569255196,413764953,"""knife_link""",,0.0447928206444,0.998678375747,-0.00524678025871,0.024649063487,"[0.0, 0.0, 0.0, 0.0, 0.0, 0.0, 0.0, 0.0, 0.0]",,0.0023320872513,-0.0018379093073,0.000232384368015,"[0.0, 0.0, 0.0, 0.0, 0.0, 0.0, 0.0, 0.0, 0.0]",,-0.42210735,-0.16687965,-9.8753487,"[0.0, 0.0, 0.0, 0.0, 0.0, 0.0, 0.0, 0.0, 0.0]"
1569255196498560638,,54744,,1569255196,454905986,"""knife_link""",,0.0398074940643,0.998883918528,-0.00465346798525,0.0249925180394,"[0.0, 0.0, 0.0, 0.0, 0.0, 0.0, 0.0, 0.0, 0.0]",,-0.0186118637727,-0.0105645555673,0.000232384368015,"[0.0, 0.0, 0.0, 0.0, 0.0, 0.0, 0.0, 0.0, 0.0]",,-0.6282528,0.1177974,-9.4434249,"[0.0, 0.0, 0.0, 0.0, 0.0, 0.0, 0.0, 0.0, 0.0]"
1569255196562232150,,54745,,1569255196,497539997,"""knife_link""",,0.0347697355483,0.999082400109,-0.00460605567085,0.0245806333003,"[0.0, 0.0, 0.0, 0.0, 0.0, 0.0, 0.0, 0.0, 0.0]",,0.0023320872513,0.0156153832127,-0.00151294488398,"[0.0, 0.0, 0.0, 0.0, 0.0, 0.0, 0.0, 0.0, 0.0]",,-0.2944935,-0.1570632,-9.86553225,"[0.0, 0.0, 0.0, 0.0, 0.0, 0.0, 0.0, 0.0, 0.0]"
1569255196604641960,,54746,,1569255196,561284065,"""knife_link""",,0.0298606395009,0.99923885207,-0.00388605857698,0.0247983320326,"[0.0, 0.0, 0.0, 0.0, 0.0, 0.0, 0.0, 0.0, 0.0]",,-0.0168665345207,-0.0053285678113,0.000232384368015,"[0.0, 0.0, 0.0, 0.0, 0.0, 0.0, 0.0, 0.0, 0.0]",,-0.50063895,0.06871515,-9.74773485,"[0.0, 0.0, 0.0, 0.0, 0.0, 0.0, 0.0, 0.0, 0.0]"
1569255196689739840,,54747,,1569255196,603677034,"""knife_link""",,0.025047866185,0.999369936519,-0.00389608645783,0.0248426023722,"[0.0, 0.0, 0.0, 0.0, 0.0, 0.0, 0.0, 0.0, 0.0]",,0.0023320872513,-0.0035832385593,0.000232384368015,"[0.0, 0.0, 0.0, 0.0, 0.0, 0.0, 0.0, 0.0, 0.0]",,-0.392658,-0.2159619,-9.66920325,"[0.0, 0.0, 0.0, 0.0, 0.0, 0.0, 0.0, 0.0, 0.0]"
1569255196717878517,,54748,,1569255196,688524007,"""knife_link""",,0.0202763137187,0.99946166982,-0.00312471760335,0.0256023007335,"[0.0, 0.0, 0.0, 0.0, 0.0, 0.0, 0.0, 0.0, 0.0]",,-0.0151212052687,-0.0158005433233,0.000232384368015,"[0.0, 0.0, 0.0, 0.0, 0.0, 0.0, 0.0, 0.0, 0.0]",,-0.61843635,0.0,-9.8360829,"[0.0, 0.0, 0.0, 0.0, 0.0, 0.0, 0.0, 0.0, 0.0]"
1569255196754277140,,54749,,1569255196,716897964,"""knife_link""",,0.0156475614568,0.999542075883,-0.00292132459062,0.0257343782269,"[0.0, 0.0, 0.0, 0.0, 0.0, 0.0, 0.0, 0.0, 0.0]",,-0.0081398882607,-0.0053285678113,0.000232384368015,"[0.0, 0.0, 0.0, 0.0, 0.0, 0.0, 0.0, 0.0, 0.0]",,-0.59880345,-0.10798095,-10.02259545,"[0.0, 0.0, 0.0, 0.0, 0.0, 0.0, 0.0, 0.0, 0.0]"
1569255196816734736,,54750,,1569255196,753273963,"""knife_link""",,0.0110477865204,0.999596133423,-0.00283854202044,0.0260280452204,"[0.0, 0.0, 0.0, 0.0, 0.0, 0.0, 0.0, 0.0, 0.0]",,-0.0011585712527,-0.0140552140713,0.000232384368015,"[0.0, 0.0, 0.0, 0.0, 0.0, 0.0, 0.0, 0.0, 0.0]",,-0.5693541,-0.1570632,-9.9538803,"[0.0, 0.0, 0.0, 0.0, 0.0, 0.0, 0.0, 0.0, 0.0]"
1569255196859756273,,54751,,1569255196,815656900,"""knife_link""",,0.00634795637494,0.999629611607,-0.0027942150536,0.0263160675295,"[0.0, 0.0, 0.0, 0.0, 0.0, 0.0, 0.0, 0.0, 0.0]",,0.000580890419304,-0.0104589100116,0.000230060524335,"[0.0, 0.0, 0.0, 0.0, 0.0, 0.0, 0.0, 0.0, 0.0]",,-0.42210735,-0.16687965,-9.8949816,"[0.0, 0.0, 0.0, 0.0, 0.0, 0.0, 0.0, 0.0, 0.0]"
1569255196903538682,,54752,,1569255196,858438968,"""knife_link""",,0.00177308185373,0.999645169357,-0.00263518627647,0.0264470670306,"[0.0, 0.0, 0.0, 0.0, 0.0, 0.0, 0.0, 0.0, 0.0]",,-0.0029097680847,-0.00522292225562,0.000230060524335,"[0.0, 0.0, 0.0, 0.0, 0.0, 0.0, 0.0, 0.0, 0.0]",,-0.53990475,-0.0981645,-9.94406385,"[0.0, 0.0, 0.0, 0.0, 0.0, 0.0, 0.0, 0.0, 0.0]"
1569255196968484887,,54753,,1569255196,902698040,"""knife_link""",,-0.00263073933584,0.999639857932,-0.00249358770957,0.0265897661755,"[0.0, 0.0, 0.0, 0.0, 0.0, 0.0, 0.0, 0.0, 0.0]",,-0.00288067040385,-0.00517069303307,0.000227759919092,"[0.0, 0.0, 0.0, 0.0, 0.0, 0.0, 0.0, 0.0, 0.0]",,-0.55953765,-0.12761385,-9.88516515,"[0.0, 0.0, 0.0, 0.0, 0.0, 0.0, 0.0, 0.0, 0.0]"
1569255197010817842,,54754,,1569255196,966799974,"""knife_link""",,-0.00713533042077,0.999615618576,-0.00236601740548,0.02668527911,"[0.0, 0.0, 0.0, 0.0, 0.0, 0.0, 0.0, 0.0, 0.0]",,-0.00112398774033,-0.00339111014326,0.000225482319901,"[0.0, 0.0, 0.0, 0.0, 0.0, 0.0, 0.0, 0.0, 0.0]",,-0.48100605,-0.10798095,-9.8949816,"[0.0, 0.0, 0.0, 0.0, 0.0, 0.0, 0.0, 0.0, 0.0]"
1569255197050902640,,54755,,1569255197,7656097,"""knife_link""",,-0.0115500823442,0.999572480929,-0.00215370371171,0.0267733547981,"[0.0, 0.0, 0.0, 0.0, 0.0, 0.0, 0.0, 0.0, 0.0]",,-0.00629637574137,-0.0050850750013,0.000223227496702,"[0.0, 0.0, 0.0, 0.0, 0.0, 0.0, 0.0, 0.0, 0.0]",,-0.48100605,-0.1177974,-9.8949816,"[0.0, 0.0, 0.0, 0.0, 0.0, 0.0, 0.0, 0.0, 0.0]"
1569255197135578962,,54756,,1569255197,49820899,"""knife_link""",,-0.0158547135769,0.999512664982,-0.00209657880642,0.0268079270962,"[0.0, 0.0, 0.0, 0.0, 0.0, 0.0, 0.0, 0.0, 0.0]",,0.000684941266633,-0.0033397457493,0.000223227496702,"[0.0, 0.0, 0.0, 0.0, 0.0, 0.0, 0.0, 0.0, 0.0]",,-0.44174025,-0.1374303,-9.92443095,"[0.0, 0.0, 0.0, 0.0, 0.0, 0.0, 0.0, 0.0, 0.0]"
1569255197157063689,,54757,,1569255197,134877920,"""knife_link""",,-0.0199041230948,0.999446704465,-0.00226520866825,0.0265514528302,"[0.0, 0.0, 0.0, 0.0, 0.0, 0.0, 0.0, 0.0, 0.0]",,0.00592092902263,0.0053869005107,0.0072045445047,"[0.0, 0.0, 0.0, 0.0, 0.0, 0.0, 0.0, 0.0, 0.0]",,-0.44174025,-0.12761385,-9.9146145,"[0.0, 0.0, 0.0, 0.0, 0.0, 0.0, 0.0, 0.0, 0.0]"
1569255197199506782,,54758,,1569255197,156245946,"""knife_link""",,-0.0229040685867,0.999384074763,-0.00238553554402,0.0264798786279,"[0.0, 0.0, 0.0, 0.0, 0.0, 0.0, 0.0, 0.0, 0.0]",,0.0146475752826,0.000150912754695,0.125886933641,"[0.0, 0.0, 0.0, 0.0, 0.0, 0.0, 0.0, 0.0, 0.0]",,-0.3533922,-0.28467705,-10.02259545,"[0.0, 0.0, 0.0, 0.0, 0.0, 0.0, 0.0, 0.0, 0.0]"
1569255197263371241,,54759,,1569255197,198605060,"""knife_link""",,-0.0276434974471,0.999249932936,0.000624198067111,0.0271112329678,"[0.0, 0.0, 0.0, 0.0, 0.0, 0.0, 0.0, 0.0, 0.0]",,-0.142432057397,-0.0347556722853,-0.0277020405353,"[0.0, 0.0, 0.0, 0.0, 0.0, 0.0, 0.0, 0.0, 0.0]",,-0.46137315,-0.22577835,-9.70846905,"[0.0, 0.0, 0.0, 0.0, 0.0, 0.0, 0.0, 0.0, 0.0]"
1569255197305811965,,54760,,1569255197,262520074,"""knife_link""",,-0.0319331324005,0.999119388208,0.000745688766789,0.0272060124005,"[0.0, 0.0, 0.0, 0.0, 0.0, 0.0, 0.0, 0.0, 0.0]",,-0.00280571723737,-0.0050850750013,-0.0050127602593,"[0.0, 0.0, 0.0, 0.0, 0.0, 0.0, 0.0, 0.0, 0.0]",,-0.4122909,-0.1570632,-9.8949816,"[0.0, 0.0, 0.0, 0.0, 0.0, 0.0, 0.0, 0.0, 0.0]"
1569255197369263704,,54761,,1569255197,304838895,"""knife_link""",,-0.0360809889504,0.998977231375,0.000270030461753,0.027250330541,"[0.0, 0.0, 0.0, 0.0, 0.0, 0.0, 0.0, 0.0, 0.0]",,0.0303555385506,-0.0033397457493,-0.0050127602593,"[0.0, 0.0, 0.0, 0.0, 0.0, 0.0, 0.0, 0.0, 0.0]",,-0.4515567,0.0981645,-9.86553225,"[0.0, 0.0, 0.0, 0.0, 0.0, 0.0, 0.0, 0.0, 0.0]"
1569255197415691861,,54762,,1569255197,368541955,"""knife_link""",,-0.0495911955804,0.99839145642,0.00270615685945,0.0273475736446,"[0.0, 0.0, 0.0, 0.0, 0.0, 0.0, 0.0, 0.0, 0.0]",,-0.0918175090894,-0.0085757335053,-0.305209391603,"[0.0, 0.0, 0.0, 0.0, 0.0, 0.0, 0.0, 0.0, 0.0]",,-0.392658,-0.61843635,-9.88516515,"[0.0, 0.0, 0.0, 0.0, 0.0, 0.0, 0.0, 0.0, 0.0]"
1569255197454585217,,54763,,1569255197,414063930,"""knife_link""",,-0.0496304538783,0.997918766999,0.032199803659,0.0256539502528,"[0.0, 0.0, 0.0, 0.0, 0.0, 0.0, 0.0, 0.0, 0.0]",,-1.30831199773,0.0036415712587,0.0927256778527,"[0.0, 0.0, 0.0, 0.0, 0.0, 0.0, 0.0, 0.0, 0.0]",,-0.3730251,0.00981645,-10.10112705,"[0.0, 0.0, 0.0, 0.0, 0.0, 0.0, 0.0, 0.0, 0.0]"
1569255197524759851,,54764,,1569255197,453641891,"""knife_link""",,-0.051352247274,0.997841252165,0.031908367876,0.0256444582208,"[0.0, 0.0, 0.0, 0.0, 0.0, 0.0, 0.0, 0.0, 0.0]",,0.00941158752663,-0.0015944164973,0.000223227496702,"[0.0, 0.0, 0.0, 0.0, 0.0, 0.0, 0.0, 0.0, 0.0]",,-0.5300883,0.30430995,-9.7968171,"[0.0, 0.0, 0.0, 0.0, 0.0, 0.0, 0.0, 0.0, 0.0]"
1569255197561140421,,54765,,1569255197,523855924,"""knife_link""",,-0.051898690058,0.997563781274,0.0392623185469,0.0251296359501,"[0.0, 0.0, 0.0, 0.0, 0.0, 0.0, 0.0, 0.0, 0.0]",,-0.212245227477,0.0018962420067,0.0072045445047,"[0.0, 0.0, 0.0, 0.0, 0.0, 0.0, 0.0, 0.0, 0.0]",,-0.46137315,0.55953765,-9.8557158,"[0.0, 0.0, 0.0, 0.0, 0.0, 0.0, 0.0, 0.0, 0.0]"
1569255197603557728,,54766,,1569255197,559967994,"""knife_link""",,-0.054082327245,0.99792998558,0.0231312938162,0.0259959420985,"[0.0, 0.0, 0.0, 0.0, 0.0, 0.0, 0.0, 0.0, 0.0]",,0.920473457071,-0.0068304042533,-0.0242113820313,"[0.0, 0.0, 0.0, 0.0, 0.0, 0.0, 0.0, 0.0, 0.0]",,-0.40247445,1.177974,-9.5023236,"[0.0, 0.0, 0.0, 0.0, 0.0, 0.0, 0.0, 0.0, 0.0]"
1569255197667488959,,54767,,1569255197,602533102,"""knife_link""",,-0.0553819932662,0.997649327529,0.0316278075715,0.0250666290164,"[0.0, 0.0, 0.0, 0.0, 0.0, 0.0, 0.0, 0.0, 0.0]",,-0.444374017993,0.0193495345267,0.0054592152527,"[0.0, 0.0, 0.0, 0.0, 0.0, 0.0, 0.0, 0.0, 0.0]",,-0.5104554,-1.32522075,-10.27782315,"[0.0, 0.0, 0.0, 0.0, 0.0, 0.0, 0.0, 0.0, 0.0]"
1569255197709733849,,54768,,1569255197,666217088,"""knife_link""",,-0.0548495782267,0.997329976179,0.0417652811013,0.0240853415468,"[0.0, 0.0, 0.0, 0.0, 0.0, 0.0, 0.0, 0.0, 0.0]",,-0.322200970353,0.0123682175187,0.0124405322607,"[0.0, 0.0, 0.0, 0.0, 0.0, 0.0, 0.0, 0.0, 0.0]",,-0.46137315,0.6478857,-9.7379184,"[0.0, 0.0, 0.0, 0.0, 0.0, 0.0, 0.0, 0.0, 0.0]"
1569255197752184996,,54769,,1569255197,708625078,"""knife_link""",,-0.0546130195022,0.997349454568,0.0416025266937,0.0240979946551,"[0.0, 0.0, 0.0, 0.0, 0.0, 0.0, 0.0, 0.0, 0.0]",,-0.0150230220014,0.000150912754695,-0.0032674310073,"[0.0, 0.0, 0.0, 0.0, 0.0, 0.0, 0.0, 0.0, 0.0]",,-0.50063895,-0.12761385,-9.84589935,"[0.0, 0.0, 0.0, 0.0, 0.0, 0.0, 0.0, 0.0, 0.0]"
1569255197815689225,,54770,,1569255197,751285076,"""knife_link""",,-0.0542965699539,0.997416239315,0.0404420116678,0.0240243987201,"[0.0, 0.0, 0.0, 0.0, 0.0, 0.0, 0.0, 0.0, 0.0]",,0.0286102092986,0.0036415712587,0.000223227496702,"[0.0, 0.0, 0.0, 0.0, 0.0, 0.0, 0.0, 0.0, 0.0]",,-0.38284155,-0.28467705,-10.0324119,"[0.0, 0.0, 0.0, 0.0, 0.0, 0.0, 0.0, 0.0, 0.0]"
1569255197858572997,,54771,,1569255197,814784049,"""knife_link""",,-0.053730908886,0.997382330236,0.0418868907862,0.0242273635267,"[0.0, 0.0, 0.0, 0.0, 0.0, 0.0, 0.0, 0.0, 0.0]",,-0.0656375703094,-0.0068304042533,0.000223227496702,"[0.0, 0.0, 0.0, 0.0, 0.0, 0.0, 0.0, 0.0, 0.0]",,-0.59880345,-0.44174025,-9.86553225,"[0.0, 0.0, 0.0, 0.0, 0.0, 0.0, 0.0, 0.0, 0.0]"
1569255197910460556,,54772,,1569255197,857176065,"""knife_link""",,-0.0529919987206,0.997288866197,0.0449935409084,0.0241318608364,"[0.0, 0.0, 0.0, 0.0, 0.0, 0.0, 0.0, 0.0, 0.0]",,-0.168611996177,-0.0033397457493,0.000223227496702,"[0.0, 0.0, 0.0, 0.0, 0.0, 0.0, 0.0, 0.0, 0.0]",,-0.4515567,0.0,-9.80663355,"[0.0, 0.0, 0.0, 0.0, 0.0, 0.0, 0.0, 0.0, 0.0]"
1569255197964852534,,54773,,1569255197,906516075,"""knife_link""",,-0.0533186857649,0.99679554164,0.0543250416464,0.0245877157319,"[0.0, 0.0, 0.0, 0.0, 0.0, 0.0, 0.0, 0.0, 0.0]",,-0.383287494173,-0.0103210627573,-0.0887885643553,"[0.0, 0.0, 0.0, 0.0, 0.0, 0.0, 0.0, 0.0, 0.0]",,-1.60008135,1.0405437,-10.3858041,"[0.0, 0.0, 0.0, 0.0, 0.0, 0.0, 0.0, 0.0, 0.0]"
1569255198008021040,,54774,,1569255197,964145898,"""knife_link""",,-0.0521594781612,0.988657377101,0.137921513595,0.0285242989288,"[0.0, 0.0, 0.0, 0.0, 0.0, 0.0, 0.0, 0.0, 0.0]",,-2.95415748237,-0.268629792053,-0.111477844631,"[0.0, 0.0, 0.0, 0.0, 0.0, 0.0, 0.0, 0.0, 0.0]",,-0.2944935,0.5497212,-10.9551582,"[0.0, 0.0, 0.0, 0.0, 0.0, 0.0, 0.0, 0.0, 0.0]"
1569255198049225476,,54775,,1569255198,6345987,"""knife_link""",,-0.0628265711318,0.964289605339,0.255688985493,0.0286621997294,"[0.0, 0.0, 0.0, 0.0, 0.0, 0.0, 0.0, 0.0, 0.0]",,-5.75890159033,-0.139475427405,-0.701399131807,"[0.0, 0.0, 0.0, 0.0, 0.0, 0.0, 0.0, 0.0, 0.0]",,-1.9043913,3.56337135,-11.12203785,"[0.0, 0.0, 0.0, 0.0, 0.0, 0.0, 0.0, 0.0, 0.0]"
1569255198113504709,,54776,,1569255198,48603057,"""knife_link""",,-0.0908926815006,0.926137259849,0.365722081936,0.0159892199095,"[0.0, 0.0, 0.0, 0.0, 0.0, 0.0, 0.0, 0.0, 0.0]",,-5.66290848147,0.743661174107,-1.37509622308,"[0.0, 0.0, 0.0, 0.0, 0.0, 0.0, 0.0, 0.0, 0.0]",,-0.87366405,5.4579462,-7.72554615,"[0.0, 0.0, 0.0, 0.0, 0.0, 0.0, 0.0, 0.0, 0.0]"
1569255198155376134,,54777,,1569255198,112474918,"""knife_link""",,-0.0919754210834,0.85331849895,0.511914849426,-0.0364862741902,"[0.0, 0.0, 0.0, 0.0, 0.0, 0.0, 0.0, 0.0, 0.0]",,-5.31733328958,1.29169455923,0.291693212581,"[0.0, 0.0, 0.0, 0.0, 0.0, 0.0, 0.0, 0.0, 0.0]",,-0.46137315,9.031134,-8.1083877,"[0.0, 0.0, 0.0, 0.0, 0.0, 0.0, 0.0, 0.0, 0.0]"
1569255198219521938,,54778,,1569255198,154587984,"""knife_link""",,-0.0621683651334,0.754482480427,0.648546332239,-0.0792397377875,"[0.0, 0.0, 0.0, 0.0, 0.0, 0.0, 0.0, 0.0, 0.0]",,-8.3489702003,0.953100684347,1.49771572571,"[0.0, 0.0, 0.0, 0.0, 0.0, 0.0, 0.0, 0.0, 0.0]",,-0.3730251,10.2287409,-4.2407064,"[0.0, 0.0, 0.0, 0.0, 0.0, 0.0, 0.0, 0.0, 0.0]"
1569255198284144105,,54779,,1569255198,218781948,"""knife_link""",,-0.00967259396972,0.600366121012,0.781321218257,-0.170305946954,"[0.0, 0.0, 0.0, 0.0, 0.0, 0.0, 0.0, 0.0, 0.0]",,-6.6874167524,1.48717143546,2.5309506429,"[0.0, 0.0, 0.0, 0.0, 0.0, 0.0, 0.0, 0.0, 0.0]",,0.4515567,6.1843635,0.93256275,"[0.0, 0.0, 0.0, 0.0, 0.0, 0.0, 0.0, 0.0, 0.0]"
1569255198304304022,,54780,,1569255198,283129930,"""knife_link""",,0.0823365935547,0.464120502126,0.838713548899,-0.272713086891,"[0.0, 0.0, 0.0, 0.0, 0.0, 0.0, 0.0, 0.0, 0.0]",,-4.90369025685,0.607525492451,4.00575386084,"[0.0, 0.0, 0.0, 0.0, 0.0, 0.0, 0.0, 0.0, 0.0]",,5.11437045,4.7315289,5.4383133,"[0.0, 0.0, 0.0, 0.0, 0.0, 0.0, 0.0, 0.0, 0.0]"
1569255198368539694,,54781,,1569255198,303519010,"""knife_link""",,0.123712825599,0.347815473545,0.886501890263,-0.278987332519,"[0.0, 0.0, 0.0, 0.0, 0.0, 0.0, 0.0, 0.0, 0.0]",,-12.862391646,0.869324880251,2.62694375176,"[0.0, 0.0, 0.0, 0.0, 0.0, 0.0, 0.0, 0.0, 0.0]",,2.66025795,7.84334355,3.2786943,"[0.0, 0.0, 0.0, 0.0, 0.0, 0.0, 0.0, 0.0, 0.0]"
1569255198412290082,,54782,,1569255198,367528915,"""knife_link""",,0.223674812445,-0.041298153068,0.941970770243,-0.246890884478,"[0.0, 0.0, 0.0, 0.0, 0.0, 0.0, 0.0, 0.0, 0.0]",,-13.4697662257,0.542948310127,1.37379734882,"[0.0, 0.0, 0.0, 0.0, 0.0, 0.0, 0.0, 0.0, 0.0]",,7.96114095,-2.9253021,19.4758368,"[0.0, 0.0, 0.0, 0.0, 0.0, 0.0, 0.0, 0.0, 0.0]"
1569255198453603644,,54783,,1569255198,410850048,"""knife_link""",,0.168096419952,0.0693867123557,0.945117550036,-0.271444090674,"[0.0, 0.0, 0.0, 0.0, 0.0, 0.0, 0.0, 0.0, 0.0]",,5.82310332594,1.13636025581,0.166029506437,"[0.0, 0.0, 0.0, 0.0, 0.0, 0.0, 0.0, 0.0, 0.0]",,2.30686575,3.7498839,12.73193565,"[0.0, 0.0, 0.0, 0.0, 0.0, 0.0, 0.0, 0.0, 0.0]"
1569255198517129630,,54784,,1569255198,452675104,"""knife_link""",,0.137495580737,0.0421793314458,0.961164705596,-0.235538272883,"[0.0, 0.0, 0.0, 0.0, 0.0, 0.0, 0.0, 0.0, 0.0]",,-0.905140940521,1.81703866409,-1.6072250136,"[0.0, 0.0, 0.0, 0.0, 0.0, 0.0, 0.0, 0.0, 0.0]",,4.319238,-8.3636154,4.908225,"[0.0, 0.0, 0.0, 0.0, 0.0, 0.0, 0.0, 0.0, 0.0]"
1569255198559571936,,54785,,1569255198,516410112,"""knife_link""",,0.136617515947,0.0630599523874,0.960057718214,-0.235898864855,"[0.0, 0.0, 0.0, 0.0, 0.0, 0.0, 0.0, 0.0, 0.0]",,0.677872691043,-0.139475427405,0.0595644220647,"[0.0, 0.0, 0.0, 0.0, 0.0, 0.0, 0.0, 0.0, 0.0]",,2.30686575,0.6871515,10.35635475,"[0.0, 0.0, 0.0, 0.0, 0.0, 0.0, 0.0, 0.0, 0.0]"
1569255198602143151,,54786,,1569255198,558705091,"""knife_link""",,0.135586029559,0.0850789681058,0.960047746494,-0.229535013074,"[0.0, 0.0, 0.0, 0.0, 0.0, 0.0, 0.0, 0.0, 0.0]",,1.01123057817,-0.172636683193,-0.207470953491,"[0.0, 0.0, 0.0, 0.0, 0.0, 0.0, 0.0, 0.0, 0.0]",,4.0051116,2.16943545,8.92315305,"[0.0, 0.0, 0.0, 0.0, 0.0, 0.0, 0.0, 0.0, 0.0]"
1569255198665686418,,54787,,1569255198,601279020,"""knife_link""",,0.124100645885,0.135969742531,0.957989027487,-0.219927901872,"[0.0, 0.0, 0.0, 0.0, 0.0, 0.0, 0.0, 0.0, 0.0]",,2.42494727229,-0.0190477090173,-0.526866206607,"[0.0, 0.0, 0.0, 0.0, 0.0, 0.0, 0.0, 0.0, 0.0]",,3.36704235,2.7093402,7.6371981,"[0.0, 0.0, 0.0, 0.0, 0.0, 0.0, 0.0, 0.0, 0.0]"
1569255198709309611,,54788,,1569255198,665045976,"""knife_link""",,0.140240112445,0.197144288263,0.945218158368,-0.219156276567,"[0.0, 0.0, 0.0, 0.0, 0.0, 0.0, 0.0, 0.0, 0.0]",,1.84375263138,-0.912656286041,0.0682910683247,"[0.0, 0.0, 0.0, 0.0, 0.0, 0.0, 0.0, 0.0, 0.0]",,2.4933783,2.05163805,5.7328068,"[0.0, 0.0, 0.0, 0.0, 0.0, 0.0, 0.0, 0.0, 0.0]"
1569255198751458135,,54789,,1569255198,707936048,"""knife_link""",,0.155179201016,0.242560479762,0.930058814565,-0.228198226723,"[0.0, 0.0, 0.0, 0.0, 0.0, 0.0, 0.0, 0.0, 0.0]",,2.17711051851,-1.08544388199,0.651231038493,"[0.0, 0.0, 0.0, 0.0, 0.0, 0.0, 0.0, 0.0, 0.0]",,2.159619,3.2786943,9.23727945,"[0.0, 0.0, 0.0, 0.0, 0.0, 0.0, 0.0, 0.0, 0.0]"
1569255198814679849,,54790,,1569255198,750062942,"""knife_link""",,0.118678699524,0.334950006518,0.913570983148,-0.197767333406,"[0.0, 0.0, 0.0, 0.0, 0.0, 0.0, 0.0, 0.0, 0.0]",,4.58566488627,0.291620897839,-2.02435870482,"[0.0, 0.0, 0.0, 0.0, 0.0, 0.0, 0.0, 0.0, 0.0]",,4.515567,9.23727945,9.00168465,"[0.0, 0.0, 0.0, 0.0, 0.0, 0.0, 0.0, 0.0, 0.0]"
1569255198856629593,,54791,,1569255198,813724994,"""knife_link""",,0.0754180542152,0.397124132985,0.907268520594,-0.116053313772,"[0.0, 0.0, 0.0, 0.0, 0.0, 0.0, 0.0, 0.0, 0.0]",,1.89087652118,0.115342643387,-2.85862608728,"[0.0, 0.0, 0.0, 0.0, 0.0, 0.0, 0.0, 0.0, 0.0]",,3.48483975,5.07510465,5.09473755,"[0.0, 0.0, 0.0, 0.0, 0.0, 0.0, 0.0, 0.0, 0.0]"
1569255198906630671,,54792,,1569255198,855891942,"""knife_link""",,0.071503103065,0.436992187362,0.889863809836,-0.109852329885,"[0.0, 0.0, 0.0, 0.0, 0.0, 0.0, 0.0, 0.0, 0.0]",,2.10380668993,0.0263308515347,-0.179545685459,"[0.0, 0.0, 0.0, 0.0, 0.0, 0.0, 0.0, 0.0, 0.0]",,2.58172635,7.5586665,5.15363625,"[0.0, 0.0, 0.0, 0.0, 0.0, 0.0, 0.0, 0.0, 0.0]"
1569255198965627565,,54793,,1569255198,905761957,"""knife_link""",,0.0675051717765,0.474929738448,0.87288489622,-0.089200634926,"[0.0, 0.0, 0.0, 0.0, 0.0, 0.0, 0.0, 0.0, 0.0]",,1.63954910889,-0.202307280477,-0.680455180783,"[0.0, 0.0, 0.0, 0.0, 0.0, 0.0, 0.0, 0.0, 0.0]",,2.159619,8.41269765,3.7106181,"[0.0, 0.0, 0.0, 0.0, 0.0, 0.0, 0.0, 0.0, 0.0]"
1569255199005591729,,54794,,1569255198,962646961,"""knife_link""",,0.0552300856514,0.506370128712,0.856526186797,-0.0830772033616,"[0.0, 0.0, 0.0, 0.0, 0.0, 0.0, 0.0, 0.0, 0.0]",,1.26779397822,0.356198080163,-0.286010769831,"[0.0, 0.0, 0.0, 0.0, 0.0, 0.0, 0.0, 0.0, 0.0]",,1.7865939,9.00168465,2.38539735,"[0.0, 0.0, 0.0, 0.0, 0.0, 0.0, 0.0, 0.0, 0.0]"
1569255199048509308,,54795,,1569255199,4815101,"""knife_link""",,0.0496222849242,0.527062187419,0.844952101702,-0.0761513313172,"[0.0, 0.0, 0.0, 0.0, 0.0, 0.0, 0.0, 0.0, 0.0]",,1.15958356459,0.246242337287,-0.259830831051,"[0.0, 0.0, 0.0, 0.0, 0.0, 0.0, 0.0, 0.0, 0.0]",,1.44301815,9.9538803,3.8480484,"[0.0, 0.0, 0.0, 0.0, 0.0, 0.0, 0.0, 0.0, 0.0]"
1569255199112773383,,54796,,1569255199,47564029,"""knife_link""",,0.0439949245287,0.532818759074,0.84223437727,-0.069353228749,"[0.0, 0.0, 0.0, 0.0, 0.0, 0.0, 0.0, 0.0, 0.0]",,0.318334865131,0.330018141383,-0.258085501799,"[0.0, 0.0, 0.0, 0.0, 0.0, 0.0, 0.0, 0.0, 0.0]",,1.2761385,9.53177295,2.99401725,"[0.0, 0.0, 0.0, 0.0, 0.0, 0.0, 0.0, 0.0, 0.0]"
1569255199156913254,,54797,,1569255199,111907005,"""knife_link""",,0.0376019052863,0.557756802036,0.82555789265,-0.0771207649405,"[0.0, 0.0, 0.0, 0.0, 0.0, 0.0, 0.0, 0.0, 0.0]",,0.974578663883,0.426011250243,0.193954774469,"[0.0, 0.0, 0.0, 0.0, 0.0, 0.0, 0.0, 0.0, 0.0]",,1.3154043,9.3648933,2.93511855,"[0.0, 0.0, 0.0, 0.0, 0.0, 0.0, 0.0, 0.0, 0.0]"
1569255199218823977,,54798,,1569255199,156188964,"""knife_link""",,0.0295733824361,0.572859259085,0.81590561644,-0.0724962715829,"[0.0, 0.0, 0.0, 0.0, 0.0, 0.0, 0.0, 0.0, 0.0]",,0.850660286991,0.417284603983,-0.231905563019,"[0.0, 0.0, 0.0, 0.0, 0.0, 0.0, 0.0, 0.0, 0.0]",,0.6086199,9.45324135,2.44429605,"[0.0, 0.0, 0.0, 0.0, 0.0, 0.0, 0.0, 0.0, 0.0]"
1569255199262979578,,54799,,1569255199,217741966,"""knife_link""",,0.0209565054052,0.577297756561,0.813801862573,-0.063361294361,"[0.0, 0.0, 0.0, 0.0, 0.0, 0.0, 0.0, 0.0, 0.0]",,0.176963195719,0.268931617563,-0.313936037863,"[0.0, 0.0, 0.0, 0.0, 0.0, 0.0, 0.0, 0.0, 0.0]",,0.59880345,9.02131755,2.0025558,"[0.0, 0.0, 0.0, 0.0, 0.0, 0.0, 0.0, 0.0, 0.0]"
1569255199303333687,,54800,,1569255199,261787891,"""knife_link""",,0.0215925504746,0.585713297839,0.808190886929,-0.0574559377542,"[0.0, 0.0, 0.0, 0.0, 0.0, 0.0, 0.0, 0.0, 0.0]",,0.457961205291,0.106615997127,-0.0800619180953,"[0.0, 0.0, 0.0, 0.0, 0.0, 0.0, 0.0, 0.0, 0.0]",,0.73623375,9.0703998,1.8258597,"[0.0, 0.0, 0.0, 0.0, 0.0, 0.0, 0.0, 0.0, 0.0]"
1569255199388346236,,54801,,1569255199,302531003,"""knife_link""",,0.0225245372712,0.593767532318,0.802551163889,-0.0533328428414,"[0.0, 0.0, 0.0, 0.0, 0.0, 0.0, 0.0, 0.0, 0.0]",,0.482395814819,0.155485216183,-0.0102487480153,"[0.0, 0.0, 0.0, 0.0, 0.0, 0.0, 0.0, 0.0, 0.0]",,0.5693541,9.39434265,1.7473281,"[0.0, 0.0, 0.0, 0.0, 0.0, 0.0, 0.0, 0.0, 0.0]"
1569255199413572187,,54802,,1569255199,387572050,"""knife_link""",,0.0123566637895,0.598903635215,0.799724680186,-0.0400272967937,"[0.0, 0.0, 0.0, 0.0, 0.0, 0.0, 0.0, 0.0, 0.0]",,0.143801939931,0.162466533191,-0.340115976643,"[0.0, 0.0, 0.0, 0.0, 0.0, 0.0, 0.0, 0.0, 0.0]",,0.4515567,9.53177295,1.7276952,"[0.0, 0.0, 0.0, 0.0, 0.0, 0.0, 0.0, 0.0, 0.0]"
1569255199452750887,,54803,,1569255199,412565946,"""knife_link""",,0.0159037445856,0.604774064222,0.795429491202,-0.0358793349993,"[0.0, 0.0, 0.0, 0.0, 0.0, 0.0, 0.0, 0.0, 0.0]",,0.541737009387,0.0978893508667,0.125886933641,"[0.0, 0.0, 0.0, 0.0, 0.0, 0.0, 0.0, 0.0, 0.0]",,-0.6675186,10.04222835,1.1387082,"[0.0, 0.0, 0.0, 0.0, 0.0, 0.0, 0.0, 0.0, 0.0]"
1569255199515269030,,54804,,1569255199,451280117,"""knife_link""",,0.0175067732824,0.608041435853,0.793147873803,-0.0299261667512,"[0.0, 0.0, 0.0, 0.0, 0.0, 0.0, 0.0, 0.0, 0.0]",,0.194416488239,0.101380009371,-0.0905338936073,"[0.0, 0.0, 0.0, 0.0, 0.0, 0.0, 0.0, 0.0, 0.0]",,0.5104554,9.78700065,1.5313662,"[0.0, 0.0, 0.0, 0.0, 0.0, 0.0, 0.0, 0.0, 0.0]"
1569255199558949096,,54805,,1569255199,514657020,"""knife_link""",,0.0172105113631,0.609383520377,0.792330746615,-0.0238224969173,"[0.0, 0.0, 0.0, 0.0, 0.0, 0.0, 0.0, 0.0, 0.0]",,0.0338461970546,0.108361326379,-0.0940245521113,"[0.0, 0.0, 0.0, 0.0, 0.0, 0.0, 0.0, 0.0, 0.0]",,0.2159619,9.4826907,0.91292985,"[0.0, 0.0, 0.0, 0.0, 0.0, 0.0, 0.0, 0.0, 0.0]"
1569255199601164325,,54806,,1569255199,557773113,"""knife_link""",,0.0219412979765,0.615196947301,0.787929457712,-0.0147805664079,"[0.0, 0.0, 0.0, 0.0, 0.0, 0.0, 0.0, 0.0, 0.0]",,0.323570852887,-0.122022134885,-0.0992605398673,"[0.0, 0.0, 0.0, 0.0, 0.0, 0.0, 0.0, 0.0, 0.0]",,-0.18651255,9.7379184,1.56081555,"[0.0, 0.0, 0.0, 0.0, 0.0, 0.0, 0.0, 0.0, 0.0]"
1569255199664479498,,54807,,1569255199,599965095,"""knife_link""",,0.026082346077,0.617190747918,0.786367341456,-0.00465791796548,"[0.0, 0.0, 0.0, 0.0, 0.0, 0.0, 0.0, 0.0, 0.0]",,0.0879514038666,-0.132494110397,-0.146384429671,"[0.0, 0.0, 0.0, 0.0, 0.0, 0.0, 0.0, 0.0, 0.0]",,-0.8442147,9.6397539,0.8834805,"[0.0, 0.0, 0.0, 0.0, 0.0, 0.0, 0.0, 0.0, 0.0]"
1569255199706954691,,54808,,1569255199,663647890,"""knife_link""",,0.0308952301258,0.621267072583,0.782962278603,0.00654060884455,"[0.0, 0.0, 0.0, 0.0, 0.0, 0.0, 0.0, 0.0, 0.0]",,0.150783256939,-0.125512793389,-0.130676466403,"[0.0, 0.0, 0.0, 0.0, 0.0, 0.0, 0.0, 0.0, 0.0]",,0.1177974,9.84589935,1.28595495,"[0.0, 0.0, 0.0, 0.0, 0.0, 0.0, 0.0, 0.0, 0.0]"
1569255199749494056,,54809,,1569255199,706091880,"""knife_link""",,0.0335997824776,0.629033116815,0.776495281972,0.0156035138185,"[0.0, 0.0, 0.0, 0.0, 0.0, 0.0, 0.0, 0.0, 0.0]",,0.445743900527,-0.0522089648053,-0.196998977979,"[0.0, 0.0, 0.0, 0.0, 0.0, 0.0, 0.0, 0.0, 0.0]",,0.2944935,9.90479805,0.8245818,"[0.0, 0.0, 0.0, 0.0, 0.0, 0.0, 0.0, 0.0, 0.0]"
1569255199813572751,,54810,,1569255199,748583078,"""knife_link""",,0.0384499315823,0.639880145232,0.767043145673,0.0268293714911,"[0.0, 0.0, 0.0, 0.0, 0.0, 0.0, 0.0, 0.0, 0.0]",,0.644711435255,-0.202307280477,-0.207470953491,"[0.0, 0.0, 0.0, 0.0, 0.0, 0.0, 0.0, 0.0, 0.0]",,-0.67733505,10.27782315,0.6871515,"[0.0, 0.0, 0.0, 0.0, 0.0, 0.0, 0.0, 0.0, 0.0]"
1569255199856034040,,54811,,1569255199,812602043,"""knife_link""",,0.0349925453656,0.672378486505,0.737860105291,0.0473830948074,"[0.0, 0.0, 0.0, 0.0, 0.0, 0.0, 0.0, 0.0, 0.0]",,1.33237116054,-0.125512793389,-0.598424705939,"[0.0, 0.0, 0.0, 0.0, 0.0, 0.0, 0.0, 0.0, 0.0]",,-0.02944935,9.43360845,0.57917055,"[0.0, 0.0, 0.0, 0.0, 0.0, 0.0, 0.0, 0.0, 0.0]"
1569255199898942459,,54812,,1569255199,854758977,"""knife_link""",,0.0356638723983,0.673415321446,0.7362070159,0.0569132918265,"[0.0, 0.0, 0.0, 0.0, 0.0, 0.0, 0.0, 0.0, 0.0]",,0.0460635018186,-0.0085757335053,-0.296482745343,"[0.0, 0.0, 0.0, 0.0, 0.0, 0.0, 0.0, 0.0, 0.0]",,0.30430995,8.3832483,-0.63806925,"[0.0, 0.0, 0.0, 0.0, 0.0, 0.0, 0.0, 0.0, 0.0]"
1569255199962701898,,54813,,1569255199,898008108,"""knife_link""",,0.0390800912185,0.668653179101,0.739896342336,0.0626823351984,"[0.0, 0.0, 0.0, 0.0, 0.0, 0.0, 0.0, 0.0, 0.0]",,-0.299511690077,0.0053869005107,-0.0364286867953,"[0.0, 0.0, 0.0, 0.0, 0.0, 0.0, 0.0, 0.0, 0.0]",,-0.5104554,9.7771842,0.4122909,"[0.0, 0.0, 0.0, 0.0, 0.0, 0.0, 0.0, 0.0, 0.0]"
1569255200004749810,,54814,,1569255199,961580038,"""knife_link""",,0.040304584293,0.667811257825,0.739782102012,0.0715968291846,"[0.0, 0.0, 0.0, 0.0, 0.0, 0.0, 0.0, 0.0, 0.0]",,-0.0429482900334,-0.0103210627573,-0.155111075931,"[0.0, 0.0, 0.0, 0.0, 0.0, 0.0, 0.0, 0.0, 0.0]",,-0.61843635,9.94406385,0.3730251,"[0.0, 0.0, 0.0, 0.0, 0.0, 0.0, 0.0, 0.0, 0.0]"
1569255200046767251,,54815,,1569255200,3648042,"""knife_link""",,0.0425343297614,0.666151263113,0.740266973396,0.080237980675,"[0.0, 0.0, 0.0, 0.0, 0.0, 0.0, 0.0, 0.0, 0.0]",,-0.111016130861,-0.0469729770493,-0.184781673215,"[0.0, 0.0, 0.0, 0.0, 0.0, 0.0, 0.0, 0.0, 0.0]",,-0.85403115,9.9146145,0.4319238,"[0.0, 0.0, 0.0, 0.0, 0.0, 0.0, 0.0, 0.0, 0.0]"
1569255200112088004,,54816,,1569255200,45938014,"""knife_link""",,0.0457522683807,0.663385822485,0.741395588945,0.0903247538495,"[0.0, 0.0, 0.0, 0.0, 0.0, 0.0, 0.0, 0.0, 0.0]",,-0.173847983933,-0.134239439649,-0.191762990223,"[0.0, 0.0, 0.0, 0.0, 0.0, 0.0, 0.0, 0.0, 0.0]",,-1.1583411,9.80663355,0.3730251,"[0.0, 0.0, 0.0, 0.0, 0.0, 0.0, 0.0, 0.0, 0.0]"
1569255200153458237,,54817,,1569255200,110560894,"""knife_link""",,0.0394705575061,0.663932251995,0.738154378769,0.112978550868,"[0.0, 0.0, 0.0, 0.0, 0.0, 0.0, 0.0, 0.0, 0.0]",,0.00766625827463,-0.130748781145,-0.603660693695,"[0.0, 0.0, 0.0, 0.0, 0.0, 0.0, 0.0, 0.0, 0.0]",,-3.2786943,10.29745605,0.67733505,"[0.0, 0.0, 0.0, 0.0, 0.0, 0.0, 0.0, 0.0, 0.0]"
1569255200218210371,,54818,,1569255200,152610063,"""knife_link""",,0.0357497205929,0.661781781562,0.737645405225,0.129019716405,"[0.0, 0.0, 0.0, 0.0, 0.0, 0.0, 0.0, 0.0, 0.0]",,-0.165121337673,-0.0906062083493,-0.645548595743,"[0.0, 0.0, 0.0, 0.0, 0.0, 0.0, 0.0, 0.0, 0.0]",,-0.95219565,8.6581089,0.0785316,"[0.0, 0.0, 0.0, 0.0, 0.0, 0.0, 0.0, 0.0, 0.0]"
1569255200259996086,,54819,,1569255200,217500925,"""knife_link""",,0.0339328298692,0.65600620404,0.739664388336,0.146290860772,"[0.0, 0.0, 0.0, 0.0, 0.0, 0.0, 0.0, 0.0, 0.0]",,-0.219226544485,-0.137730098153,-0.402947829715,"[0.0, 0.0, 0.0, 0.0, 0.0, 0.0, 0.0, 0.0, 0.0]",,-0.5104554,8.6777418,1.4921004,"[0.0, 0.0, 0.0, 0.0, 0.0, 0.0, 0.0, 0.0, 0.0]"
1569255200303526834,,54820,,1569255200,258801937,"""knife_link""",,0.0400209778803,0.656748068822,0.737807964405,0.15073056455,"[0.0, 0.0, 0.0, 0.0, 0.0, 0.0, 0.0, 0.0, 0.0]",,0.0687527820946,-0.0574449525613,0.0421111295447,"[0.0, 0.0, 0.0, 0.0, 0.0, 0.0, 0.0, 0.0, 0.0]",,-0.55953765,9.09984915,0.8638476,"[0.0, 0.0, 0.0, 0.0, 0.0, 0.0, 0.0, 0.0, 0.0]"
1569255200366028811,,54821,,1569255200,301517009,"""knife_link""",,0.0399074694202,0.650677386569,0.740394300197,0.163837153077,"[0.0, 0.0, 0.0, 0.0, 0.0, 0.0, 0.0, 0.0, 0.0]",,-0.357107555393,-0.153438061421,-0.385494537195,"[0.0, 0.0, 0.0, 0.0, 0.0, 0.0, 0.0, 0.0, 0.0]",,1.6687965,5.2419843,0.0785316,"[0.0, 0.0, 0.0, 0.0, 0.0, 0.0, 0.0, 0.0, 0.0]"
1569255200409318002,,54822,,1569255200,364871025,"""knife_link""",,0.0396229931778,0.637141773716,0.750022575032,0.173050615543,"[0.0, 0.0, 0.0, 0.0, 0.0, 0.0, 0.0, 0.0, 0.0]",,-0.557820419373,-0.0522089648053,-0.121949820143,"[0.0, 0.0, 0.0, 0.0, 0.0, 0.0, 0.0, 0.0, 0.0]",,1.2957714,5.56592715,0.12761385,"[0.0, 0.0, 0.0, 0.0, 0.0, 0.0, 0.0, 0.0, 0.0]"
1569255200451049570,,54823,,1569255200,407449007,"""knife_link""",,0.0265749198151,0.631378049666,0.751966458922,0.187621898222,"[0.0, 0.0, 0.0, 0.0, 0.0, 0.0, 0.0, 0.0, 0.0]",,-0.446119347245,0.258459642051,-0.821826850195,"[0.0, 0.0, 0.0, 0.0, 0.0, 0.0, 0.0, 0.0, 0.0]",,-2.93511855,6.03711675,-0.4908225,"[0.0, 0.0, 0.0, 0.0, 0.0, 0.0, 0.0, 0.0, 0.0]"
1569255200535840249,,54824,,1569255200,449712038,"""knife_link""",,0.0828379731836,0.64488630241,0.745772979372,0.145197074355,"[0.0, 0.0, 0.0, 0.0, 0.0, 0.0, 0.0, 0.0, 0.0]",,1.18401817412,-0.341933620637,3.17846779539,"[0.0, 0.0, 0.0, 0.0, 0.0, 0.0, 0.0, 0.0, 0.0]",,-11.8190058,19.60345065,3.38667525,"[0.0, 0.0, 0.0, 0.0, 0.0, 0.0, 0.0, 0.0, 0.0]"
1569255200557229494,,54825,,1569255200,535029888,"""knife_link""",,0.095238602533,0.656015595466,0.73427155227,0.146350383058,"[0.0, 0.0, 0.0, 0.0, 0.0, 0.0, 0.0, 0.0, 0.0]",,0.400365339975,-0.0801342328373,0.125886933641,"[0.0, 0.0, 0.0, 0.0, 0.0, 0.0, 0.0, 0.0, 0.0]",,-1.24668915,7.45068555,0.2355948,"[0.0, 0.0, 0.0, 0.0, 0.0, 0.0, 0.0, 0.0, 0.0]"
1569255200600196116,,54826,,1569255200,556251049,"""knife_link""",,0.103273793083,0.659014323921,0.730076410055,0.148401752045,"[0.0, 0.0, 0.0, 0.0, 0.0, 0.0, 0.0, 0.0, 0.0]",,0.515557070607,-0.129003451893,0.337071773133,"[0.0, 0.0, 0.0, 0.0, 0.0, 0.0, 0.0, 0.0, 0.0]",,-0.69696795,11.387082,0.1570632,"[0.0, 0.0, 0.0, 0.0, 0.0, 0.0, 0.0, 0.0, 0.0]"
1569255200663728312,,54827,,1569255200,599164962,"""knife_link""",,0.10618445508,0.659134595356,0.728390597871,0.153992154469,"[0.0, 0.0, 0.0, 0.0, 0.0, 0.0, 0.0, 0.0, 0.0]",,0.00243027051863,-0.0103210627573,-0.0713352718353,"[0.0, 0.0, 0.0, 0.0, 0.0, 0.0, 0.0, 0.0, 0.0]",,-0.9423792,9.43360845,-0.34357575,"[0.0, 0.0, 0.0, 0.0, 0.0, 0.0, 0.0, 0.0, 0.0]"
1569255200707257057,,54828,,1569255200,662457942,"""knife_link""",,0.112150823882,0.656121404438,0.728315662922,0.162736567752,"[0.0, 0.0, 0.0, 0.0, 0.0, 0.0, 0.0, 0.0, 0.0]",,-0.102289484601,-0.155183390673,-0.0416646745513,"[0.0, 0.0, 0.0, 0.0, 0.0, 0.0, 0.0, 0.0, 0.0]",,-0.8442147,9.94406385,-0.44174025,"[0.0, 0.0, 0.0, 0.0, 0.0, 0.0, 0.0, 0.0, 0.0]"
1569255200751284915,,54829,,1569255200,705291032,"""knife_link""",,0.117241574418,0.659238296912,0.721053109431,0.17816198947,"[0.0, 0.0, 0.0, 0.0, 0.0, 0.0, 0.0, 0.0, 0.0]",,0.271210975327,-0.399529485953,-0.411674475975,"[0.0, 0.0, 0.0, 0.0, 0.0, 0.0, 0.0, 0.0, 0.0]",,-0.1374303,12.172398,-5.13400335,"[0.0, 0.0, 0.0, 0.0, 0.0, 0.0, 0.0, 0.0, 0.0]"
1569255200834406855,,54830,,1569255200,750422954,"""knife_link""",,0.130138442603,0.678298811915,0.695067370871,0.199639819329,"[0.0, 0.0, 0.0, 0.0, 0.0, 0.0, 0.0, 0.0, 0.0]",,1.34982445306,-0.786992579897,-0.570499437907,"[0.0, 0.0, 0.0, 0.0, 0.0, 0.0, 0.0, 0.0, 0.0]",,-7.8138942,8.0298561,2.99401725,"[0.0, 0.0, 0.0, 0.0, 0.0, 0.0, 0.0, 0.0, 0.0]"
1569255200862408183,,54831,,1569255200,832809925,"""knife_link""",,0.155977689695,0.688467594539,0.67696587356,0.208327956893,"[0.0, 0.0, 0.0, 0.0, 0.0, 0.0, 0.0, 0.0, 0.0]",,0.534755692379,-0.462361339025,0.159048189429,"[0.0, 0.0, 0.0, 0.0, 0.0, 0.0, 0.0, 0.0, 0.0]",,-0.42210735,8.5010457,-1.8062268,"[0.0, 0.0, 0.0, 0.0, 0.0, 0.0, 0.0, 0.0, 0.0]"
1569255200897504901,,54832,,1569255200,861720085,"""knife_link""",,0.163569277929,0.69043309132,0.672510570086,0.210420462054,"[0.0, 0.0, 0.0, 0.0, 0.0, 0.0, 0.0, 0.0, 0.0]",,0.412582644739,-0.115040817877,0.169520164941,"[0.0, 0.0, 0.0, 0.0, 0.0, 0.0, 0.0, 0.0, 0.0]",,-0.392658,10.88644305,2.1399861,"[0.0, 0.0, 0.0, 0.0, 0.0, 0.0, 0.0, 0.0, 0.0]"
1569255200961242176,,54833,,1569255200,896538972,"""knife_link""",,0.168092965843,0.695122224311,0.666528878302,0.210449762396,"[0.0, 0.0, 0.0, 0.0, 0.0, 0.0, 0.0, 0.0, 0.0]",,0.426545278755,0.117087972639,0.0839990315927,"[0.0, 0.0, 0.0, 0.0, 0.0, 0.0, 0.0, 0.0, 0.0]",,-1.4528346,8.56976085,-1.0405437,"[0.0, 0.0, 0.0, 0.0, 0.0, 0.0, 0.0, 0.0, 0.0]"
1569255201024775480,,54834,,1569255200,960376977,"""knife_link""",,0.181927386065,0.699828336526,0.658388966382,0.208965773611,"[0.0, 0.0, 0.0, 0.0, 0.0, 0.0, 0.0, 0.0, 0.0]",,0.349750791667,-0.111550159373,0.265513273801,"[0.0, 0.0, 0.0, 0.0, 0.0, 0.0, 0.0, 0.0, 0.0]",,-1.4921004,9.1096656,-1.3154043,"[0.0, 0.0, 0.0, 0.0, 0.0, 0.0, 0.0, 0.0, 0.0]"
1569255201067256550,,54835,,1569255201,23714065,"""knife_link""",,0.19127984233,0.699444014362,0.654825699068,0.213057261157,"[0.0, 0.0, 0.0, 0.0, 0.0, 0.0, 0.0, 0.0, 0.0]",,0.0949327208746,-0.151692732169,0.0962163363567,"[0.0, 0.0, 0.0, 0.0, 0.0, 0.0, 0.0, 0.0, 0.0]",,-0.9227463,11.04350625,-1.2565056,"[0.0, 0.0, 0.0, 0.0, 0.0, 0.0, 0.0, 0.0, 0.0]"
1569255201115182718,,54836,,1569255201,66104888,"""knife_link""",,0.195534991207,0.700277775216,0.650766604202,0.218814834069,"[0.0, 0.0, 0.0, 0.0, 0.0, 0.0, 0.0, 0.0, 0.0]",,0.115876671899,-0.120276805633,-0.0887885643553,"[0.0, 0.0, 0.0, 0.0, 0.0, 0.0, 0.0, 0.0, 0.0]",,-0.97182855,10.4250699,-1.6295307,"[0.0, 0.0, 0.0, 0.0, 0.0, 0.0, 0.0, 0.0, 0.0]"
1569255201578676694,,54837,,1569255201,113714933,"""knife_link""",,0.199543091787,0.702037477383,0.643890045048,0.229633500948,"[0.0, 0.0, 0.0, 0.0, 0.0, 0.0, 0.0, 0.0, 0.0]",,0.164745890955,-0.266884462801,-0.224924246011,"[0.0, 0.0, 0.0, 0.0, 0.0, 0.0, 0.0, 0.0, 0.0]",,-2.8075047,10.0716777,-1.73751165,"[0.0, 0.0, 0.0, 0.0, 0.0, 0.0, 0.0, 0.0, 0.0]"
1569255201599236031,,54838,,1569255201,577132940,"""knife_link""",,0.174551605465,0.746777296242,0.550365866219,0.330080020826,"[0.0, 0.0, 0.0, 0.0, 0.0, 0.0, 0.0, 0.0, 0.0]",,0.295645584855,-0.258157816541,-0.495450280071,"[0.0, 0.0, 0.0, 0.0, 0.0, 0.0, 0.0, 0.0, 0.0]",,-1.63934715,8.245818,-2.0418216,"[0.0, 0.0, 0.0, 0.0, 0.0, 0.0, 0.0, 0.0, 0.0]"
1569255201617608707,,54839,,1569255201,598149061,"""knife_link""",,0.178903235205,0.741513266958,0.552737482235,0.335608377563,"[0.0, 0.0, 0.0, 0.0, 0.0, 0.0, 0.0, 0.0, 0.0]",,-0.507205871065,-0.410001461465,0.120650945885,"[0.0, 0.0, 0.0, 0.0, 0.0, 0.0, 0.0, 0.0, 0.0]",,-1.0405437,7.1071098,-1.766961,"[0.0, 0.0, 0.0, 0.0, 0.0, 0.0, 0.0, 0.0, 0.0]"
1569255201646933093,,54840,,1569255201,613794088,"""knife_link""",,0.18190102918,0.738611392296,0.552748207662,0.34034489225,"[0.0, 0.0, 0.0, 0.0, 0.0, 0.0, 0.0, 0.0, 0.0]",,-0.283803726809,-0.329716315873,-0.101005869119,"[0.0, 0.0, 0.0, 0.0, 0.0, 0.0, 0.0, 0.0, 0.0]",,-2.22833415,10.96497465,-0.4122909,"[0.0, 0.0, 0.0, 0.0, 0.0, 0.0, 0.0, 0.0, 0.0]"
1569255201684609340,,54841,,1569255201,645598888,"""knife_link""",,0.192971558234,0.737191026933,0.548087730465,0.344835043515,"[0.0, 0.0, 0.0, 0.0, 0.0, 0.0, 0.0, 0.0, 0.0]",,0.306117560367,-0.462361339025,0.204426749981,"[0.0, 0.0, 0.0, 0.0, 0.0, 0.0, 0.0, 0.0, 0.0]",,-1.67861295,8.5992102,-0.83439825,"[0.0, 0.0, 0.0, 0.0, 0.0, 0.0, 0.0, 0.0, 0.0]"
1569255201714317008,,54842,,1569255201,683623075,"""knife_link""",,0.20089757546,0.731440244303,0.549692546033,0.349962052262,"[0.0, 0.0, 0.0, 0.0, 0.0, 0.0, 0.0, 0.0, 0.0]",,-0.166866666925,-0.340188291385,0.169520164941,"[0.0, 0.0, 0.0, 0.0, 0.0, 0.0, 0.0, 0.0, 0.0]",,-1.16815755,10.25819025,-0.65770215,"[0.0, 0.0, 0.0, 0.0, 0.0, 0.0, 0.0, 0.0, 0.0]"
1569255201747866367,,54843,,1569255201,713177919,"""knife_link""",,0.207512097133,0.726255891625,0.552061872483,0.353155487534,"[0.0, 0.0, 0.0, 0.0, 0.0, 0.0, 0.0, 0.0, 0.0]",,-0.248897141769,-0.280847096817,0.228861359509,"[0.0, 0.0, 0.0, 0.0, 0.0, 0.0, 0.0, 0.0, 0.0]",,-0.7067844,9.39434265,-0.97182855,"[0.0, 0.0, 0.0, 0.0, 0.0, 0.0, 0.0, 0.0, 0.0]"
1569255201780365501,,54844,,1569255201,746233940,"""knife_link""",,0.212767417896,0.71889495009,0.556603931351,0.357927562813,"[0.0, 0.0, 0.0, 0.0, 0.0, 0.0, 0.0, 0.0, 0.0]",,-0.400740786693,-0.287828413825,0.146830884665,"[0.0, 0.0, 0.0, 0.0, 0.0, 0.0, 0.0, 0.0, 0.0]",,0.0392658,9.620121,0.36320865,"[0.0, 0.0, 0.0, 0.0, 0.0, 0.0, 0.0, 0.0, 0.0]"
1569255203107220193,,54845,,1569255201,779429912,"""knife_link""",,0.213652871788,0.71191891112,0.562575252337,0.361984806069,"[0.0, 0.0, 0.0, 0.0, 0.0, 0.0, 0.0, 0.0, 0.0]",,-0.552584431617,-0.0888608790973,0.000223227496702,"[0.0, 0.0, 0.0, 0.0, 0.0, 0.0, 0.0, 0.0, 0.0]",,0.38284155,9.17838075,-0.10798095,"[0.0, 0.0, 0.0, 0.0, 0.0, 0.0, 0.0, 0.0, 0.0]"
1569255203149847476,,54846,,1569255203,106086969,"""knife_link""",,0.230681092318,0.618883424632,0.622759137978,0.419452734438,"[0.0, 0.0, 0.0, 0.0, 0.0, 0.0, 0.0, 0.0, 0.0]",,-0.151158703657,-0.102823513113,0.0316391540327,"[0.0, 0.0, 0.0, 0.0, 0.0, 0.0, 0.0, 0.0, 0.0]",,-0.3533922,7.3034388,5.6150094,"[0.0, 0.0, 0.0, 0.0, 0.0, 0.0, 0.0, 0.0, 0.0]"
1569255203216874003,,54847,,1569255203,148817062,"""knife_link""",,0.232562951444,0.614476246335,0.624806743241,0.421841142975,"[0.0, 0.0, 0.0, 0.0, 0.0, 0.0, 0.0, 0.0, 0.0]",,-0.0778548750734,-0.0155570505133,0.0473471173007,"[0.0, 0.0, 0.0, 0.0, 0.0, 0.0, 0.0, 0.0, 0.0]",,0.04908225,7.27398945,6.31197735,"[0.0, 0.0, 0.0, 0.0, 0.0, 0.0, 0.0, 0.0, 0.0]"
1569255203256591435,,54848,,1569255203,213030099,"""knife_link""",,0.23433133432,0.606419231715,0.631645366245,0.422337154964,"[0.0, 0.0, 0.0, 0.0, 0.0, 0.0, 0.0, 0.0, 0.0]",,-0.203518581217,0.0141135467707,0.157302860177,"[0.0, 0.0, 0.0, 0.0, 0.0, 0.0, 0.0, 0.0, 0.0]",,0.10798095,7.21509075,6.3217938,"[0.0, 0.0, 0.0, 0.0, 0.0, 0.0, 0.0, 0.0, 0.0]"
1569255203299211072,,54849,,1569255203,254940032,"""knife_link""",,0.233787549368,0.599852337978,0.637105473104,0.423812659702,"[0.0, 0.0, 0.0, 0.0, 0.0, 0.0, 0.0, 0.0, 0.0]",,-0.278567739053,0.0769453998427,0.106688311869,"[0.0, 0.0, 0.0, 0.0, 0.0, 0.0, 0.0, 0.0, 0.0]",,0.02944935,7.25435655,6.84206565,"[0.0, 0.0, 0.0, 0.0, 0.0, 0.0, 0.0, 0.0, 0.0]"
1569255203467996225,,54850,,1569255203,297569990,"""knife_link""",,0.238393093922,0.599496410126,0.635481760094,0.424188306775,"[0.0, 0.0, 0.0, 0.0, 0.0, 0.0, 0.0, 0.0, 0.0]",,0.220596427019,-0.0068304042533,0.0857443608447,"[0.0, 0.0, 0.0, 0.0, 0.0, 0.0, 0.0, 0.0, 0.0]",,-0.42210735,7.52921715,6.68500245,"[0.0, 0.0, 0.0, 0.0, 0.0, 0.0, 0.0, 0.0, 0.0]"
1569255203494880537,,54851,,1569255203,467278003,"""knife_link""",,0.25877019585,0.597230826769,0.625677046427,0.429978556292,"[0.0, 0.0, 0.0, 0.0, 0.0, 0.0, 0.0, 0.0, 0.0]",,0.164745890955,-0.193580634217,0.0578190928127,"[0.0, 0.0, 0.0, 0.0, 0.0, 0.0, 0.0, 0.0, 0.0]",,-0.4711896,7.50958425,6.72426825,"[0.0, 0.0, 0.0, 0.0, 0.0, 0.0, 0.0, 0.0, 0.0]"
1569255203503572875,,54852,,1569255203,490025997,"""knife_link""",,0.26210854265,0.593959547353,0.625839071215,0.4322460236,"[0.0, 0.0, 0.0, 0.0, 0.0, 0.0, 0.0, 0.0, 0.0]",,0.0809700868586,-0.135984768901,0.120650945885,"[0.0, 0.0, 0.0, 0.0, 0.0, 0.0, 0.0, 0.0, 0.0]",,-0.3730251,7.58811585,6.60647085,"[0.0, 0.0, 0.0, 0.0, 0.0, 0.0, 0.0, 0.0, 0.0]"
1569255203536761207,,54853,,1569255203,502382040,"""knife_link""",,0.264215579958,0.590059556954,0.626815933845,0.434881169554,"[0.0, 0.0, 0.0, 0.0, 0.0, 0.0, 0.0, 0.0, 0.0]",,-0.0778548750734,-0.169146024689,0.0909803486007,"[0.0, 0.0, 0.0, 0.0, 0.0, 0.0, 0.0, 0.0, 0.0]",,0.38284155,7.15619205,6.50830635,"[0.0, 0.0, 0.0, 0.0, 0.0, 0.0, 0.0, 0.0, 0.0]"
1569255203570306625,,54854,,1569255203,536134004,"""knife_link""",,0.266067864208,0.583029044707,0.629666847294,0.439095304099,"[0.0, 0.0, 0.0, 0.0, 0.0, 0.0, 0.0, 0.0, 0.0]",,-0.236679837005,-0.163910036933,0.0630550805687,"[0.0, 0.0, 0.0, 0.0, 0.0, 0.0, 0.0, 0.0, 0.0]",,0.4711896,6.8911479,6.5966544,"[0.0, 0.0, 0.0, 0.0, 0.0, 0.0, 0.0, 0.0, 0.0]"
1569255203618847594,,54855,,1569255203,569521903,"""knife_link""",,0.267437211576,0.579163988104,0.629379098119,0.443766113621,"[0.0, 0.0, 0.0, 0.0, 0.0, 0.0, 0.0, 0.0, 0.0]",,-0.0359669730254,-0.135984768901,-0.0887885643553,"[0.0, 0.0, 0.0, 0.0, 0.0, 0.0, 0.0, 0.0, 0.0]",,0.04908225,7.47031845,6.9500466,"[0.0, 0.0, 0.0, 0.0, 0.0, 0.0, 0.0, 0.0, 0.0]"
1569255203660710820,,54856,,1569255203,617053031,"""knife_link""",,0.271096660065,0.573760655213,0.626522897693,0.452520021763,"[0.0, 0.0, 0.0, 0.0, 0.0, 0.0, 0.0, 0.0, 0.0]",,-0.0150230220014,-0.320989669613,-0.139403112663,"[0.0, 0.0, 0.0, 0.0, 0.0, 0.0, 0.0, 0.0, 0.0]",,-0.2748606,7.9120587,6.84206565,"[0.0, 0.0, 0.0, 0.0, 0.0, 0.0, 0.0, 0.0, 0.0]"
1569255203787015029,,54857,,1569255203,659101963,"""knife_link""",,0.273331341086,0.567191634439,0.62707814418,0.458646518459,"[0.0, 0.0, 0.0, 0.0, 0.0, 0.0, 0.0, 0.0, 0.0]",,-0.147668045153,-0.235468536265,-0.0242113820313,"[0.0, 0.0, 0.0, 0.0, 0.0, 0.0, 0.0, 0.0, 0.0]",,-0.48100605,7.56848295,6.35124315,"[0.0, 0.0, 0.0, 0.0, 0.0, 0.0, 0.0, 0.0, 0.0]"
1569255203788502179,,54858,,1569255203,786025047,"""knife_link""",,0.27650623569,0.558114831192,0.63121378348,0.462191839362,"[0.0, 0.0, 0.0, 0.0, 0.0, 0.0, 0.0, 0.0, 0.0]",,-0.0865815213334,-0.0679169280733,0.0630550805687,"[0.0, 0.0, 0.0, 0.0, 0.0, 0.0, 0.0, 0.0, 0.0]",,-0.3730251,7.0285782,6.23344575,"[0.0, 0.0, 0.0, 0.0, 0.0, 0.0, 0.0, 0.0, 0.0]"
1569255203825710001,,54859,,1569255203,787940025,"""knife_link""",,0.27721514965,0.555310626548,0.631888655245,0.464218263556,"[0.0, 0.0, 0.0, 0.0, 0.0, 0.0, 0.0, 0.0, 0.0]",,-0.0359669730254,0.0996346801187,0.0997069948607,"[0.0, 0.0, 0.0, 0.0, 0.0, 0.0, 0.0, 0.0, 0.0]",,0.00981645,6.5377557,6.54757215,"[0.0, 0.0, 0.0, 0.0, 0.0, 0.0, 0.0, 0.0, 0.0]"
1569255203855688303,,54860,,1569255203,824273109,"""knife_link""",,0.277305103159,0.553049676473,0.635103803684,0.462472803158,"[0.0, 0.0, 0.0, 0.0, 0.0, 0.0, 0.0, 0.0, 0.0]",,-0.0150230220014,0.195627788979,0.179992140453,"[0.0, 0.0, 0.0, 0.0, 0.0, 0.0, 0.0, 0.0, 0.0]",,-0.10798095,6.58683795,6.86169855,"[0.0, 0.0, 0.0, 0.0, 0.0, 0.0, 0.0, 0.0, 0.0]"
1569255203936341940,,54861,,1569255203,854721069,"""knife_link""",,0.278339086081,0.550630844912,0.637246543858,0.461789852782,"[0.0, 0.0, 0.0, 0.0, 0.0, 0.0, 0.0, 0.0, 0.0]",,0.0146475752826,0.125814618899,0.185228128209,"[0.0, 0.0, 0.0, 0.0, 0.0, 0.0, 0.0, 0.0, 0.0]",,-0.3730251,7.0089453,6.9107808,"[0.0, 0.0, 0.0, 0.0, 0.0, 0.0, 0.0, 0.0, 0.0]"
1569255203959272904,,54862,,1569255203,935260057,"""knife_link""",,0.275561287993,0.545156171425,0.647858317744,0.455137699435,"[0.0, 0.0, 0.0, 0.0, 0.0, 0.0, 0.0, 0.0, 0.0]",,-0.161630679169,0.214826410751,0.230606688761,"[0.0, 0.0, 0.0, 0.0, 0.0, 0.0, 0.0, 0.0, 0.0]",,-0.20614545,6.88133145,6.90096435,"[0.0, 0.0, 0.0, 0.0, 0.0, 0.0, 0.0, 0.0, 0.0]"
1569255204000352926,,54863,,1569255203,957954883,"""knife_link""",,0.274504058254,0.540993451398,0.65229696394,0.454403211236,"[0.0, 0.0, 0.0, 0.0, 0.0, 0.0, 0.0, 0.0, 0.0]",,-0.273331751297,0.289875568587,0.263767944549,"[0.0, 0.0, 0.0, 0.0, 0.0, 0.0, 0.0, 0.0, 0.0]",,0.38284155,6.675186,6.86169855,"[0.0, 0.0, 0.0, 0.0, 0.0, 0.0, 0.0, 0.0, 0.0]"
1569255204063631147,,54864,,1569255203,999259948,"""knife_link""",,0.272755403629,0.538369304928,0.658433257891,0.449698372474,"[0.0, 0.0, 0.0, 0.0, 0.0, 0.0, 0.0, 0.0, 0.0]",,-0.104034813853,0.349216763155,0.258531956793,"[0.0, 0.0, 0.0, 0.0, 0.0, 0.0, 0.0, 0.0, 0.0]",,0.9620121,6.5573886,7.11692625,"[0.0, 0.0, 0.0, 0.0, 0.0, 0.0, 0.0, 0.0, 0.0]"
1569255204107001367,,54865,,1569255204,62755107,"""knife_link""",,0.271205701934,0.532640536396,0.669387634008,0.441204852266,"[0.0, 0.0, 0.0, 0.0, 0.0, 0.0, 0.0, 0.0, 0.0]",,-0.175593313185,0.286384910083,0.347543748645,"[0.0, 0.0, 0.0, 0.0, 0.0, 0.0, 0.0, 0.0, 0.0]",,1.0601766,6.4592241,7.4212362,"[0.0, 0.0, 0.0, 0.0, 0.0, 0.0, 0.0, 0.0, 0.0]"
1569255204169601328,,54866,,1569255204,105209112,"""knife_link""",,0.272693471367,0.527743858012,0.674369558033,0.438577690042,"[0.0, 0.0, 0.0, 0.0, 0.0, 0.0, 0.0, 0.0, 0.0]",,-0.104034813853,0.120578631143,0.289947883329,"[0.0, 0.0, 0.0, 0.0, 0.0, 0.0, 0.0, 0.0, 0.0]",,0.6675186,6.7537176,7.3427046,"[0.0, 0.0, 0.0, 0.0, 0.0, 0.0, 0.0, 0.0, 0.0]"
1569255204213416444,,54867,,1569255204,168801069,"""knife_link""",,0.279288166428,0.526230043711,0.672336954998,0.439366680727,"[0.0, 0.0, 0.0, 0.0, 0.0, 0.0, 0.0, 0.0, 0.0]",,0.161255232451,-0.102823513113,0.0857443608447,"[0.0, 0.0, 0.0, 0.0, 0.0, 0.0, 0.0, 0.0, 0.0]",,0.3730251,6.8322492,7.37215395,"[0.0, 0.0, 0.0, 0.0, 0.0, 0.0, 0.0, 0.0, 0.0]"
1569255204255105914,,54868,,1569255204,211994886,"""knife_link""",,0.282692101236,0.523417822743,0.671288204575,0.442143760706,"[0.0, 0.0, 0.0, 0.0, 0.0, 0.0, 0.0, 0.0, 0.0]",,0.0722434405986,-0.120276805633,0.0281484955287,"[0.0, 0.0, 0.0, 0.0, 0.0, 0.0, 0.0, 0.0, 0.0]",,0.1177974,7.11692625,6.9893124,"[0.0, 0.0, 0.0, 0.0, 0.0, 0.0, 0.0, 0.0, 0.0]"
1569255204325308421,,54869,,1569255204,253882884,"""knife_link""",,0.285689642582,0.520223835232,0.670659512234,0.444931913925,"[0.0, 0.0, 0.0, 0.0, 0.0, 0.0, 0.0, 0.0, 0.0]",,0.0390821848106,-0.116786147129,0.0264031662767,"[0.0, 0.0, 0.0, 0.0, 0.0, 0.0, 0.0, 0.0, 0.0]",,0.34357575,6.9696795,6.6162873,"[0.0, 0.0, 0.0, 0.0, 0.0, 0.0, 0.0, 0.0, 0.0]"
1569255204382675576,,54870,,1569255204,323899984,"""knife_link""",,0.288902259134,0.522908030119,0.667957587191,0.443773972219,"[0.0, 0.0, 0.0, 0.0, 0.0, 0.0, 0.0, 0.0, 0.0]",,0.204888463751,0.0437841440547,0.0194218492687,"[0.0, 0.0, 0.0, 0.0, 0.0, 0.0, 0.0, 0.0, 0.0]",,0.4122909,6.95986305,6.7733505,"[0.0, 0.0, 0.0, 0.0, 0.0, 0.0, 0.0, 0.0, 0.0]"
1569255204403510730,,54871,,1569255204,381802082,"""knife_link""",,0.29352804754,0.522523734162,0.665309300351,0.445167123013,"[0.0, 0.0, 0.0, 0.0, 0.0, 0.0, 0.0, 0.0, 0.0]",,0.178708524971,-0.0731529158293,0.0141858615127,"[0.0, 0.0, 0.0, 0.0, 0.0, 0.0, 0.0, 0.0, 0.0]",,0.785316,6.60647085,6.84206565,"[0.0, 0.0, 0.0, 0.0, 0.0, 0.0, 0.0, 0.0, 0.0]"
1569255204511081392,,54872,,1569255204,402534008,"""knife_link""",,0.29488460182,0.519790263658,0.664805126568,0.448213450384,"[0.0, 0.0, 0.0, 0.0, 0.0, 0.0, 0.0, 0.0, 0.0]",,0.0547901480786,-0.122022134885,-0.0730806010873,"[0.0, 0.0, 0.0, 0.0, 0.0, 0.0, 0.0, 0.0, 0.0]",,0.75586665,6.41014185,6.72426825,"[0.0, 0.0, 0.0, 0.0, 0.0, 0.0, 0.0, 0.0, 0.0]"
1569255204512895224,,54873,,1569255204,509053945,"""knife_link""",,0.303251054205,0.52150044499,0.649892629247,0.462293904837,"[0.0, 0.0, 0.0, 0.0, 0.0, 0.0, 0.0, 0.0, 0.0]",,0.204888463751,-0.265139133549,-0.230160233767,"[0.0, 0.0, 0.0, 0.0, 0.0, 0.0, 0.0, 0.0, 0.0]",,0.6478857,6.42977475,6.54757215,"[0.0, 0.0, 0.0, 0.0, 0.0, 0.0, 0.0, 0.0, 0.0]"
1569255204552629360,,54874,,1569255204,511698007,"""knife_link""",,0.304112246526,0.519073766895,0.649879183253,0.464473048959,"[0.0, 0.0, 0.0, 0.0, 0.0, 0.0, 0.0, 0.0, 0.0]",,0.218851097767,-0.322734998865,-0.272048135815,"[0.0, 0.0, 0.0, 0.0, 0.0, 0.0, 0.0, 0.0, 0.0]",,0.6675186,6.7929834,6.23344575,"[0.0, 0.0, 0.0, 0.0, 0.0, 0.0, 0.0, 0.0, 0.0]"
1569255204616022857,,54875,,1569255204,551770925,"""knife_link""",,0.308169859166,0.517547418535,0.645302946537,0.469851162242,"[0.0, 0.0, 0.0, 0.0, 0.0, 0.0, 0.0, 0.0, 0.0]",,0.187435171231,-0.263393804297,-0.156856405183,"[0.0, 0.0, 0.0, 0.0, 0.0, 0.0, 0.0, 0.0, 0.0]",,0.588987,7.2052743,6.54757215,"[0.0, 0.0, 0.0, 0.0, 0.0, 0.0, 0.0, 0.0, 0.0]"
1569255204663847307,,54876,,1569255204,614871025,"""knife_link""",,0.309293118219,0.511875651798,0.644459401722,0.476437995599,"[0.0, 0.0, 0.0, 0.0, 0.0, 0.0, 0.0, 0.0, 0.0]",,-0.0848361920814,-0.155183390673,-0.0748259303393,"[0.0, 0.0, 0.0, 0.0, 0.0, 0.0, 0.0, 0.0, 0.0]",,0.4711896,7.43105265,6.68500245,"[0.0, 0.0, 0.0, 0.0, 0.0, 0.0, 0.0, 0.0, 0.0]"
1569255204748484006,,54877,,1569255204,662295103,"""knife_link""",,0.312926172206,0.505893484726,0.642642300283,0.48286630318,"[0.0, 0.0, 0.0, 0.0, 0.0, 0.0, 0.0, 0.0, 0.0]",,-0.0499296070414,-0.294809730833,-0.0573726378193,"[0.0, 0.0, 0.0, 0.0, 0.0, 0.0, 0.0, 0.0, 0.0]",,0.5104554,7.460502,6.64573665,"[0.0, 0.0, 0.0, 0.0, 0.0, 0.0, 0.0, 0.0, 0.0]"
1569255204764642955,,54878,,1569255204,742958068,"""knife_link""",,0.316063468515,0.493910423428,0.642105656706,0.493818492086,"[0.0, 0.0, 0.0, 0.0, 0.0, 0.0, 0.0, 0.0, 0.0]",,-0.182574630193,-0.287828413825,-0.0521366500633,"[0.0, 0.0, 0.0, 0.0, 0.0, 0.0, 0.0, 0.0, 0.0]",,0.6675186,7.21509075,6.58683795,"[0.0, 0.0, 0.0, 0.0, 0.0, 0.0, 0.0, 0.0, 0.0]"
1569255204829367519,,54879,,1569255204,763735055,"""knife_link""",,0.317945574925,0.491080172019,0.640751645687,0.497180253615,"[0.0, 0.0, 0.0, 0.0, 0.0, 0.0, 0.0, 0.0, 0.0]",,0.0652621235906,-0.275611109061,-0.109732515379,"[0.0, 0.0, 0.0, 0.0, 0.0, 0.0, 0.0, 0.0, 0.0]",,0.6282528,7.21509075,6.56720505,"[0.0, 0.0, 0.0, 0.0, 0.0, 0.0, 0.0, 0.0, 0.0]"
1569255204849947700,,54880,,1569255204,827920913,"""knife_link""",,0.322708157825,0.48607850805,0.635324921789,0.5059143926,"[0.0, 0.0, 0.0, 0.0, 0.0, 0.0, 0.0, 0.0, 0.0]",,0.0338461970546,-0.307027035597,-0.141148441915,"[0.0, 0.0, 0.0, 0.0, 0.0, 0.0, 0.0, 0.0, 0.0]",,0.63806925,7.13655915,6.70463535,"[0.0, 0.0, 0.0, 0.0, 0.0, 0.0, 0.0, 0.0, 0.0]"
1569255205024646461,,54881,,1569255204,849064111,"""knife_link""",,0.322979472425,0.483668349635,0.634549815306,0.50901445937,"[0.0, 0.0, 0.0, 0.0, 0.0, 0.0, 0.0, 0.0, 0.0]",,-0.0150230220014,-0.141220756657,-0.156856405183,"[0.0, 0.0, 0.0, 0.0, 0.0, 0.0, 0.0, 0.0, 0.0]",,0.6282528,7.09729335,6.27271155,"[0.0, 0.0, 0.0, 0.0, 0.0, 0.0, 0.0, 0.0, 0.0]"
1569255205027731109,,54882,,1569255205,23633003,"""knife_link""",,0.334865273628,0.481261902796,0.619741859515,0.521701310139,"[0.0, 0.0, 0.0, 0.0, 0.0, 0.0, 0.0, 0.0, 0.0]",,0.108895354891,-0.209288597485,-0.106241856875,"[0.0, 0.0, 0.0, 0.0, 0.0, 0.0, 0.0, 0.0, 0.0]",,0.52027185,7.2052743,6.29234445,"[0.0, 0.0, 0.0, 0.0, 0.0, 0.0, 0.0, 0.0, 0.0]"
1569255205084828855,,54883,,1569255205,26120901,"""knife_link""",,0.3350188237,0.479337382546,0.62005857052,0.522996587546,"[0.0, 0.0, 0.0, 0.0, 0.0, 0.0, 0.0, 0.0, 0.0]",,0.250267024303,-0.162164707681,-0.158601734435,"[0.0, 0.0, 0.0, 0.0, 0.0, 0.0, 0.0, 0.0, 0.0]",,0.588987,7.3034388,6.7144518,"[0.0, 0.0, 0.0, 0.0, 0.0, 0.0, 0.0, 0.0, 0.0]"
1569255205096771058,,54884,,1569255205,83976030,"""knife_link""",,0.332363504539,0.472770820664,0.620910542675,0.529615284876,"[0.0, 0.0, 0.0, 0.0, 0.0, 0.0, 0.0, 0.0, 0.0]",,-0.215735885981,-0.113295488625,-0.107987186127,"[0.0, 0.0, 0.0, 0.0, 0.0, 0.0, 0.0, 0.0, 0.0]",,0.7656831,7.0874769,6.29234445,"[0.0, 0.0, 0.0, 0.0, 0.0, 0.0, 0.0, 0.0, 0.0]"
1569255205149236628,,54885,,1569255205,93079090,"""knife_link""",,0.332888389622,0.471186927439,0.620720455735,0.530918369711,"[0.0, 0.0, 0.0, 0.0, 0.0, 0.0, 0.0, 0.0, 0.0]",,0.142056610679,-0.0975875253573,-0.121949820143,"[0.0, 0.0, 0.0, 0.0, 0.0, 0.0, 0.0, 0.0, 0.0]",,0.83439825,7.31325525,6.1450977,"[0.0, 0.0, 0.0, 0.0, 0.0, 0.0, 0.0, 0.0, 0.0]"
1569255205168700489,,54886,,1569255205,147953033,"""knife_link""",,0.338114198776,0.47410609813,0.615466575277,0.531133778834,"[0.0, 0.0, 0.0, 0.0, 0.0, 0.0, 0.0, 0.0, 0.0]",,0.320080194383,-0.0801342328373,-0.0713352718353,"[0.0, 0.0, 0.0, 0.0, 0.0, 0.0, 0.0, 0.0, 0.0]",,0.981645,7.2838059,6.17454705,"[0.0, 0.0, 0.0, 0.0, 0.0, 0.0, 0.0, 0.0, 0.0]"
1569255205254273730,,54887,,1569255205,167615890,"""knife_link""",,0.33946812674,0.472305901064,0.615535918782,0.53179324877,"[0.0, 0.0, 0.0, 0.0, 0.0, 0.0, 0.0, 0.0, 0.0]",,0.110640684143,-0.0783889035853,0.0386204710407,"[0.0, 0.0, 0.0, 0.0, 0.0, 0.0, 0.0, 0.0, 0.0]",,0.91292985,7.264173,6.0273003,"[0.0, 0.0, 0.0, 0.0, 0.0, 0.0, 0.0, 0.0, 0.0]"
1569255205255946388,,54888,,1569255205,252899885,"""knife_link""",,0.343007235691,0.473558777879,0.613626600706,0.530613338566,"[0.0, 0.0, 0.0, 0.0, 0.0, 0.0, 0.0, 0.0, 0.0]",,0.136820622923,-0.0085757335053,0.0141858615127,"[0.0, 0.0, 0.0, 0.0, 0.0, 0.0, 0.0, 0.0, 0.0]",,0.6478857,7.3427046,6.35124315,"[0.0, 0.0, 0.0, 0.0, 0.0, 0.0, 0.0, 0.0, 0.0]"
