rosbagTimestamp,header,seq,stamp,secs,nsecs,frame_id,orientation,x,y,z,w,orientation_covariance,angular_velocity,x,y,z,angular_velocity_covariance,linear_acceleration,x,y,z,linear_acceleration_covariance
1555424570068573622,,20824,,1555424570,66937923,"""knife_link""",,0.49147107704,-0.513997602077,-0.702728657542,-0.0208585560644,"[0.0, 0.0, 0.0, 0.0, 0.0, 0.0, 0.0, 0.0, 0.0]",,0.0882354260773,0.0536603657614,-0.0894649251258,"[0.0, 0.0, 0.0, 0.0, 0.0, 0.0, 0.0, 0.0, 0.0]",,-4.2407064,8.86425435,-0.85403115,"[0.0, 0.0, 0.0, 0.0, 0.0, 0.0, 0.0, 0.0, 0.0]"
1555424570069310619,,20825,,1555424570,68094968,"""knife_link""",,0.490671616152,-0.514963374949,-0.702623677861,-0.0193404982547,"[0.0, 0.0, 0.0, 0.0, 0.0, 0.0, 0.0, 0.0, 0.0]",,0.320364216593,0.0257350977294,-0.00917977953382,"[0.0, 0.0, 0.0, 0.0, 0.0, 0.0, 0.0, 0.0, 0.0]",,-3.77933325,8.98205175,-0.2355948,"[0.0, 0.0, 0.0, 0.0, 0.0, 0.0, 0.0, 0.0, 0.0]"
1555424570600351442,,20826,,1555424570,68970918,"""knife_link""",,0.489949901315,-0.515665722274,-0.70265262104,-0.0178115473508,"[0.0, 0.0, 0.0, 0.0, 0.0, 0.0, 0.0, 0.0, 0.0]",,-0.196253241999,0.0152631222174,-0.0161610965418,"[0.0, 0.0, 0.0, 0.0, 0.0, 0.0, 0.0, 0.0, 0.0]",,-4.19162415,9.227463,-0.2552277,"[0.0, 0.0, 0.0, 0.0, 0.0, 0.0, 0.0, 0.0, 0.0]"
1555424570683724850,,20827,,1555424570,599620103,"""knife_link""",,0.497104919678,-0.499055977225,-0.70953590991,-0.0197135226698,"[0.0, 0.0, 0.0, 0.0, 0.0, 0.0, 0.0, 0.0, 0.0]",,-0.0548815725867,-0.000444841050566,-0.0563036693378,"[0.0, 0.0, 0.0, 0.0, 0.0, 0.0, 0.0, 0.0, 0.0]",,-4.07382675,8.834805,-0.75586665,"[0.0, 0.0, 0.0, 0.0, 0.0, 0.0, 0.0, 0.0, 0.0]"
1555424570853685651,,20828,,1555424570,683180093,"""knife_link""",,0.495353334618,-0.503244300292,-0.707735965016,-0.0219100873975,"[0.0, 0.0, 0.0, 0.0, 0.0, 0.0, 0.0, 0.0, 0.0]",,0.124887340369,-0.0370967553426,-0.0126704380378,"[0.0, 0.0, 0.0, 0.0, 0.0, 0.0, 0.0, 0.0, 0.0]",,-4.1818077,9.0703998,0.0392658,"[0.0, 0.0, 0.0, 0.0, 0.0, 0.0, 0.0, 0.0, 0.0]"
1555424570854571597,,20829,,1555424570,853018045,"""knife_link""",,0.497569384534,-0.474862326635,-0.725899041619,0.00102941398725,"[0.0, 0.0, 0.0, 0.0, 0.0, 0.0, 0.0, 0.0, 0.0]",,-0.484232568579,0.0362070732414,-0.00568912102982,"[0.0, 0.0, 0.0, 0.0, 0.0, 0.0, 0.0, 0.0, 0.0]",,-4.01492805,9.0703998,-0.5693541,"[0.0, 0.0, 0.0, 0.0, 0.0, 0.0, 0.0, 0.0, 0.0]"
1555424571300403874,,20830,,1555424570,854146003,"""knife_link""",,0.496692151385,-0.475837081722,-0.725858245352,0.00240542390523,"[0.0, 0.0, 0.0, 0.0, 0.0, 0.0, 0.0, 0.0, 0.0]",,-0.187526595739,0.0274804269814,0.0187454884982,"[0.0, 0.0, 0.0, 0.0, 0.0, 0.0, 0.0, 0.0, 0.0]",,-4.01492805,8.834805,0.26504415,"[0.0, 0.0, 0.0, 0.0, 0.0, 0.0, 0.0, 0.0, 0.0]"
1555424571385585440,,20831,,1555424571,299881935,"""knife_link""",,0.489792545261,-0.414753078576,-0.764458676771,0.0607130787174,"[0.0, 0.0, 0.0, 0.0, 0.0, 0.0, 0.0, 0.0, 0.0]",,-0.419655386255,0.0152631222174,0.0606333905462,"[0.0, 0.0, 0.0, 0.0, 0.0, 0.0, 0.0, 0.0, 0.0]",,-4.01492805,9.08021625,-0.5104554,"[0.0, 0.0, 0.0, 0.0, 0.0, 0.0, 0.0, 0.0, 0.0]"
1555424571513209553,,20832,,1555424571,385006904,"""knife_link""",,0.486160332727,-0.414453655604,-0.76664360697,0.0642952419058,"[0.0, 0.0, 0.0, 0.0, 0.0, 0.0, 0.0, 0.0, 0.0]",,-0.102005462391,-0.0528047186106,0.0519067442862,"[0.0, 0.0, 0.0, 0.0, 0.0, 0.0, 0.0, 0.0, 0.0]",,-3.91676355,9.1489314,0.1570632,"[0.0, 0.0, 0.0, 0.0, 0.0, 0.0, 0.0, 0.0, 0.0]"
1555424571555349453,,20833,,1555424571,512449979,"""knife_link""",,0.481115767308,-0.413516358911,-0.769611655116,0.0723169390318,"[0.0, 0.0, 0.0, 0.0, 0.0, 0.0, 0.0, 0.0, 0.0]",,-0.117713425659,-0.0301154383346,0.0972853048382,"[0.0, 0.0, 0.0, 0.0, 0.0, 0.0, 0.0, 0.0, 0.0]",,-4.23088995,8.53049505,0.02944935,"[0.0, 0.0, 0.0, 0.0, 0.0, 0.0, 0.0, 0.0, 0.0]"
1555424572107781012,,20834,,1555424571,554754018,"""knife_link""",,0.479048053851,-0.41203922398,-0.771176956222,0.0776063283149,"[0.0, 0.0, 0.0, 0.0, 0.0, 0.0, 0.0, 0.0, 0.0]",,-0.278283716843,0.00304581745343,0.109502609602,"[0.0, 0.0, 0.0, 0.0, 0.0, 0.0, 0.0, 0.0, 0.0]",,-3.72043455,9.57103875,0.06871515,"[0.0, 0.0, 0.0, 0.0, 0.0, 0.0, 0.0, 0.0, 0.0]"
1555424572108345256,,20835,,1555424572,107161998,"""knife_link""",,0.481814857875,-0.41816712523,-0.76891997761,0.0418660499716,"[0.0, 0.0, 0.0, 0.0, 0.0, 0.0, 0.0, 0.0, 0.0]",,0.0795087798173,-0.0440780723506,-0.0981915713858,"[0.0, 0.0, 0.0, 0.0, 0.0, 0.0, 0.0, 0.0, 0.0]",,-4.44685185,8.35379895,0.0,"[0.0, 0.0, 0.0, 0.0, 0.0, 0.0, 0.0, 0.0, 0.0]"
1555424572171027627,,20836,,1555424572,108056068,"""knife_link""",,0.481031327935,-0.419533657709,-0.768621993456,0.042668522008,"[0.0, 0.0, 0.0, 0.0, 0.0, 0.0, 0.0, 0.0, 0.0]",,0.0847447675733,-0.0423327430986,-0.0336143890618,"[0.0, 0.0, 0.0, 0.0, 0.0, 0.0, 0.0, 0.0, 0.0]",,-4.4959341,9.19801365,1.03072725,"[0.0, 0.0, 0.0, 0.0, 0.0, 0.0, 0.0, 0.0, 0.0]"
1555424572213615655,,20837,,1555424572,170574903,"""knife_link""",,0.480630693264,-0.425328102186,-0.766024285063,0.0360130098413,"[0.0, 0.0, 0.0, 0.0, 0.0, 0.0, 0.0, 0.0, 0.0]",,0.252296375765,-0.0667673526266,-0.129607497922,"[0.0, 0.0, 0.0, 0.0, 0.0, 0.0, 0.0, 0.0, 0.0]",,-3.7891497,9.3256275,0.4711896,"[0.0, 0.0, 0.0, 0.0, 0.0, 0.0, 0.0, 0.0, 0.0]"
1555424572256443491,,20838,,1555424572,213192939,"""knife_link""",,0.482681281851,-0.422648036893,-0.766308118902,0.0340482593608,"[0.0, 0.0, 0.0, 0.0, 0.0, 0.0, 0.0, 0.0, 0.0]",,-0.0932788161307,0.0274804269814,-0.243053899302,"[0.0, 0.0, 0.0, 0.0, 0.0, 0.0, 0.0, 0.0, 0.0]",,-4.87877565,9.04095045,0.42210735,"[0.0, 0.0, 0.0, 0.0, 0.0, 0.0, 0.0, 0.0, 0.0]"
1555424572320501442,,20839,,1555424572,255755901,"""knife_link""",,0.485877334627,-0.42440973043,-0.763434404429,0.031104767248,"[0.0, 0.0, 0.0, 0.0, 0.0, 0.0, 0.0, 0.0, 0.0]",,0.151067279149,0.109510901825,-0.199420668002,"[0.0, 0.0, 0.0, 0.0, 0.0, 0.0, 0.0, 0.0, 0.0]",,-4.9671237,9.41397555,0.12761385,"[0.0, 0.0, 0.0, 0.0, 0.0, 0.0, 0.0, 0.0, 0.0]"
1555424572362645410,,20840,,1555424572,319878101,"""knife_link""",,0.485609268109,-0.419942505107,-0.765930032839,0.0343964522299,"[0.0, 0.0, 0.0, 0.0, 0.0, 0.0, 0.0, 0.0, 0.0]",,-0.203234559007,0.00304581745343,0.00303752523018,"[0.0, 0.0, 0.0, 0.0, 0.0, 0.0, 0.0, 0.0, 0.0]",,-5.07510465,6.52793925,0.24541125,"[0.0, 0.0, 0.0, 0.0, 0.0, 0.0, 0.0, 0.0, 0.0]"
1555424572426307351,,20841,,1555424572,362119913,"""knife_link""",,0.483691205985,-0.423897086581,-0.764752901304,0.038821092044,"[0.0, 0.0, 0.0, 0.0, 0.0, 0.0, 0.0, 0.0, 0.0]",,0.0201675852493,0.0327164147374,0.222949010982,"[0.0, 0.0, 0.0, 0.0, 0.0, 0.0, 0.0, 0.0, 0.0]",,-4.4959341,8.245818,0.2552277,"[0.0, 0.0, 0.0, 0.0, 0.0, 0.0, 0.0, 0.0, 0.0]"
1555424572448037450,,20842,,1555424572,425782918,"""knife_link""",,0.480648967646,-0.431590912817,-0.762318757705,0.0396984322831,"[0.0, 0.0, 0.0, 0.0, 0.0, 0.0, 0.0, 0.0, 0.0]",,0.194700510449,-0.0283701090826,0.182806438186,"[0.0, 0.0, 0.0, 0.0, 0.0, 0.0, 0.0, 0.0, 0.0]",,-4.3585038,-2.7682389,0.63806925,"[0.0, 0.0, 0.0, 0.0, 0.0, 0.0, 0.0, 0.0, 0.0]"
1555424572575103750,,20843,,1555424572,447429895,"""knife_link""",,0.476078724645,-0.435911875761,-0.762312334883,0.0470083885717,"[0.0, 0.0, 0.0, 0.0, 0.0, 0.0, 0.0, 0.0, 0.0]",,-0.0723348651067,-0.0109168165626,0.755274432842,"[0.0, 0.0, 0.0, 0.0, 0.0, 0.0, 0.0, 0.0, 0.0]",,-4.38795315,8.80535565,1.570632,"[0.0, 0.0, 0.0, 0.0, 0.0, 0.0, 0.0, 0.0, 0.0]"
1555424572576314593,,20844,,1555424572,574460029,"""knife_link""",,0.444550909175,-0.460252667405,-0.759478044257,0.117196721751,"[0.0, 0.0, 0.0, 0.0, 0.0, 0.0, 0.0, 0.0, 0.0]",,-0.245122461055,0.114746889581,1.24920261116,"[0.0, 0.0, 0.0, 0.0, 0.0, 0.0, 0.0, 0.0, 0.0]",,-3.48483975,4.85914275,-0.61843635,"[0.0, 0.0, 0.0, 0.0, 0.0, 0.0, 0.0, 0.0, 0.0]"
1555424572617662073,,20845,,1555424572,575869083,"""knife_link""",,0.443536780555,-0.461266136649,-0.75936107814,0.117810986258,"[0.0, 0.0, 0.0, 0.0, 0.0, 0.0, 0.0, 0.0, 0.0]",,0.0603101580453,-0.00219017030257,2.1602644807,"[0.0, 0.0, 0.0, 0.0, 0.0, 0.0, 0.0, 0.0, 0.0]",,-2.9842008,4.0051116,2.42466315,"[0.0, 0.0, 0.0, 0.0, 0.0, 0.0, 0.0, 0.0, 0.0]"
1555424572660487575,,20846,,1555424572,617183923,"""knife_link""",,0.420933657949,-0.466155462932,-0.762974019156,0.152920195125,"[0.0, 0.0, 0.0, 0.0, 0.0, 0.0, 0.0, 0.0, 0.0]",,-0.807118480199,-0.117381900935,1.88973844664,"[0.0, 0.0, 0.0, 0.0, 0.0, 0.0, 0.0, 0.0, 0.0]",,-0.83439825,19.60345065,-2.71915665,"[0.0, 0.0, 0.0, 0.0, 0.0, 0.0, 0.0, 0.0, 0.0]"
1555424572702958243,,20847,,1555424572,659948110,"""knife_link""",,0.410523806477,-0.486835296874,-0.754129585389,0.160468584073,"[0.0, 0.0, 0.0, 0.0, 0.0, 0.0, 0.0, 0.0, 0.0]",,0.721789944553,-0.113891242431,0.912354065522,"[0.0, 0.0, 0.0, 0.0, 0.0, 0.0, 0.0, 0.0, 0.0]",,-1.766961,9.92443095,4.03456095,"[0.0, 0.0, 0.0, 0.0, 0.0, 0.0, 0.0, 0.0, 0.0]"
1555424572808970989,,20848,,1555424572,702445983,"""knife_link""",,0.414992664233,-0.493169186483,-0.748043923374,0.15809974965,"[0.0, 0.0, 0.0, 0.0, 0.0, 0.0, 0.0, 0.0, 0.0]",,0.425083971713,0.208994669189,-0.0109251087858,"[0.0, 0.0, 0.0, 0.0, 0.0, 0.0, 0.0, 0.0, 0.0]",,-0.67733505,12.9184482,-1.0012779,"[0.0, 0.0, 0.0, 0.0, 0.0, 0.0, 0.0, 0.0, 0.0]"
1555424572872216672,,20849,,1555424572,808268070,"""knife_link""",,0.430319166091,-0.416376337094,-0.783396478255,0.166571663438,"[0.0, 0.0, 0.0, 0.0, 0.0, 0.0, 0.0, 0.0, 0.0]",,-1.46859826671,0.270081193009,-0.768398004154,"[0.0, 0.0, 0.0, 0.0, 0.0, 0.0, 0.0, 0.0, 0.0]",,-1.50191685,9.98332965,1.5902649,"[0.0, 0.0, 0.0, 0.0, 0.0, 0.0, 0.0, 0.0, 0.0]"
1555424573086232503,,20850,,1555424572,871678113,"""knife_link""",,0.433459857351,-0.368264707575,-0.804820960499,0.169578532726,"[0.0, 0.0, 0.0, 0.0, 0.0, 0.0, 0.0, 0.0, 0.0]",,-1.52095814427,0.113001560329,-0.719528785098,"[0.0, 0.0, 0.0, 0.0, 0.0, 0.0, 0.0, 0.0, 0.0]",,-1.8454926,12.51597375,0.57917055,"[0.0, 0.0, 0.0, 0.0, 0.0, 0.0, 0.0, 0.0, 0.0]"
1555424573087122436,,20851,,1555424573,85479974,"""knife_link""",,0.482877080367,-0.40050844575,-0.771497316537,0.105899011875,"[0.0, 0.0, 0.0, 0.0, 0.0, 0.0, 0.0, 0.0, 0.0]",,0.693864676521,0.247391912733,-0.46820137281,"[0.0, 0.0, 0.0, 0.0, 0.0, 0.0, 0.0, 0.0, 0.0]",,-3.17071335,6.3217938,3.9462129,"[0.0, 0.0, 0.0, 0.0, 0.0, 0.0, 0.0, 0.0, 0.0]"
1555424573120537461,,20852,,1555424573,86677074,"""knife_link""",,0.482708949917,-0.401579272041,-0.771115324548,0.105391243393,"[0.0, 0.0, 0.0, 0.0, 0.0, 0.0, 0.0, 0.0, 0.0]",,0.910285503769,0.769245359081,0.74480245733,"[0.0, 0.0, 0.0, 0.0, 0.0, 0.0, 0.0, 0.0, 0.0]",,-3.11181465,12.2705625,-0.2355948,"[0.0, 0.0, 0.0, 0.0, 0.0, 0.0, 0.0, 0.0, 0.0]"
1555424573153863281,,20853,,1555424573,120045900,"""knife_link""",,0.485616949719,-0.404714756832,-0.771570689439,0.0711394050199,"[0.0, 0.0, 0.0, 0.0, 0.0, 0.0, 0.0, 0.0, 0.0]",,1.11448902625,-0.684613907835,-1.58346676484,"[0.0, 0.0, 0.0, 0.0, 0.0, 0.0, 0.0, 0.0, 0.0]",,-1.77677745,7.52921715,2.1007203,"[0.0, 0.0, 0.0, 0.0, 0.0, 0.0, 0.0, 0.0, 0.0]"
1555424573187452542,,20854,,1555424573,153398990,"""knife_link""",,0.488522747597,-0.402980644395,-0.771829223648,0.0568487013652,"[0.0, 0.0, 0.0, 0.0, 0.0, 0.0, 0.0, 0.0, 0.0]",,0.257532363521,-0.220356326803,-0.867881771518,"[0.0, 0.0, 0.0, 0.0, 0.0, 0.0, 0.0, 0.0, 0.0]",,-1.97310645,7.9709574,-1.73751165,"[0.0, 0.0, 0.0, 0.0, 0.0, 0.0, 0.0, 0.0, 0.0]"
1555424573220625816,,20855,,1555424573,186907052,"""knife_link""",,0.48981783824,-0.410205851848,-0.768335554691,0.0383421419403,"[0.0, 0.0, 0.0, 0.0, 0.0, 0.0, 0.0, 0.0, 0.0]",,0.891086881997,-0.304132130899,-0.79981393069,"[0.0, 0.0, 0.0, 0.0, 0.0, 0.0, 0.0, 0.0, 0.0]",,-2.9645679,8.43233055,0.0981645,"[0.0, 0.0, 0.0, 0.0, 0.0, 0.0, 0.0, 0.0, 0.0]"
1555424573253997680,,20856,,1555424573,220160961,"""knife_link""",,0.493082690471,-0.407607847343,-0.767843591643,0.0337864161298,"[0.0, 0.0, 0.0, 0.0, 0.0, 0.0, 0.0, 0.0, 0.0]",,-0.0217203167987,0.0641323412734,-0.455984068046,"[0.0, 0.0, 0.0, 0.0, 0.0, 0.0, 0.0, 0.0, 0.0]",,-2.58172635,8.03967255,-0.1570632,"[0.0, 0.0, 0.0, 0.0, 0.0, 0.0, 0.0, 0.0, 0.0]"
1555424573287301068,,20857,,1555424573,253454923,"""knife_link""",,0.494109709407,-0.411845215581,-0.765032906755,0.0310445656164,"[0.0, 0.0, 0.0, 0.0, 0.0, 0.0, 0.0, 0.0, 0.0]",,0.280221643797,0.0519150365094,-0.147060790442,"[0.0, 0.0, 0.0, 0.0, 0.0, 0.0, 0.0, 0.0, 0.0]",,-4.0640103,9.74773485,0.02944935,"[0.0, 0.0, 0.0, 0.0, 0.0, 0.0, 0.0, 0.0, 0.0]"
1555424573320833152,,20858,,1555424573,286748886,"""knife_link""",,0.495654819764,-0.410373801027,-0.76495375226,0.0276658630653,"[0.0, 0.0, 0.0, 0.0, 0.0, 0.0, 0.0, 0.0, 0.0]",,-0.0374282800667,-0.0196434628226,-0.377444251706,"[0.0, 0.0, 0.0, 0.0, 0.0, 0.0, 0.0, 0.0, 0.0]",,-3.3572259,8.98205175,-0.3533922,"[0.0, 0.0, 0.0, 0.0, 0.0, 0.0, 0.0, 0.0, 0.0]"
1555424573468120411,,20859,,1555424573,320152997,"""knife_link""",,0.49478452553,-0.410718798212,-0.765379058006,0.0263294446783,"[0.0, 0.0, 0.0, 0.0, 0.0, 0.0, 0.0, 0.0, 0.0]",,-0.00950301203472,-0.0807299866426,-0.15404210745,"[0.0, 0.0, 0.0, 0.0, 0.0, 0.0, 0.0, 0.0, 0.0]",,-3.79896615,8.6777418,0.5300883,"[0.0, 0.0, 0.0, 0.0, 0.0, 0.0, 0.0, 0.0, 0.0]"
1555424573531240419,,20860,,1555424573,467425107,"""knife_link""",,0.495545976166,-0.379837678233,-0.78024366528,0.0371126190173,"[0.0, 0.0, 0.0, 0.0, 0.0, 0.0, 0.0, 0.0, 0.0]",,-0.499940531847,-0.0283701090826,-0.133098156426,"[0.0, 0.0, 0.0, 0.0, 0.0, 0.0, 0.0, 0.0, 0.0]",,-4.2996051,9.53177295,-0.9423792,"[0.0, 0.0, 0.0, 0.0, 0.0, 0.0, 0.0, 0.0, 0.0]"
1555424573531838026,,20861,,1555424573,530669927,"""knife_link""",,0.494201346957,-0.383699978075,-0.779421761694,0.0322656611332,"[0.0, 0.0, 0.0, 0.0, 0.0, 0.0, 0.0, 0.0, 0.0]",,0.149321949897,-0.0737486696346,-0.10168222989,"[0.0, 0.0, 0.0, 0.0, 0.0, 0.0, 0.0, 0.0, 0.0]",,-3.95602935,8.00040675,1.0994424,"[0.0, 0.0, 0.0, 0.0, 0.0, 0.0, 0.0, 0.0, 0.0]"
1555424573617005877,,20862,,1555424573,531538963,"""knife_link""",,0.493829464751,-0.385910769298,-0.778523633914,0.0332609278633,"[0.0, 0.0, 0.0, 0.0, 0.0, 0.0, 0.0, 0.0, 0.0]",,-0.187526595739,-0.0685126818786,-0.0440863645738,"[0.0, 0.0, 0.0, 0.0, 0.0, 0.0, 0.0, 0.0, 0.0]",,-4.2799722,9.41397555,-0.87366405,"[0.0, 0.0, 0.0, 0.0, 0.0, 0.0, 0.0, 0.0, 0.0]"
1555424573617933200,,20863,,1555424573,616332054,"""knife_link""",,0.49589182792,-0.391069845222,-0.775111883637,0.0189007673195,"[0.0, 0.0, 0.0, 0.0, 0.0, 0.0, 0.0, 0.0, 0.0]",,0.276730985293,-0.0510593893586,-0.265743179578,"[0.0, 0.0, 0.0, 0.0, 0.0, 0.0, 0.0, 0.0, 0.0]",,-4.56464925,9.1096656,1.28595495,"[0.0, 0.0, 0.0, 0.0, 0.0, 0.0, 0.0, 0.0, 0.0]"
1555424573618812603,,20864,,1555424573,617538928,"""knife_link""",,0.495428052744,-0.392931944043,-0.774435055272,0.0201463910245,"[0.0, 0.0, 0.0, 0.0, 0.0, 0.0, 0.0, 0.0, 0.0]",,-0.337624911411,0.113001560329,-0.122626180914,"[0.0, 0.0, 0.0, 0.0, 0.0, 0.0, 0.0, 0.0, 0.0]",,-4.122909,10.0324119,-0.53990475,"[0.0, 0.0, 0.0, 0.0, 0.0, 0.0, 0.0, 0.0, 0.0]"
1555424573635949529,,20865,,1555424573,618447065,"""knife_link""",,0.494919251291,-0.394748110873,-0.773811799821,0.0210751541426,"[0.0, 0.0, 0.0, 0.0, 0.0, 0.0, 0.0, 0.0, 0.0]",,0.152812608401,0.0536603657614,-0.108663546898,"[0.0, 0.0, 0.0, 0.0, 0.0, 0.0, 0.0, 0.0, 0.0]",,-4.25052285,8.23600155,0.1177974,"[0.0, 0.0, 0.0, 0.0, 0.0, 0.0, 0.0, 0.0, 0.0]"
1555424573680102882,,20866,,1555424573,635303020,"""knife_link""",,0.494835471411,-0.396182588209,-0.773092416997,0.0224794976679,"[0.0, 0.0, 0.0, 0.0, 0.0, 0.0, 0.0, 0.0, 0.0]",,-0.0810615113667,0.0362070732414,-0.00743445028182,"[0.0, 0.0, 0.0, 0.0, 0.0, 0.0, 0.0, 0.0, 0.0]",,-4.21125705,8.33416605,-0.6282528,"[0.0, 0.0, 0.0, 0.0, 0.0, 0.0, 0.0, 0.0, 0.0]"
1555424573743994972,,20867,,1555424573,679480075,"""knife_link""",,0.494275565505,-0.396109244348,-0.773407865519,0.0250879540961,"[0.0, 0.0, 0.0, 0.0, 0.0, 0.0, 0.0, 0.0, 0.0]",,-0.124694742667,0.00828180520943,0.00129219597818,"[0.0, 0.0, 0.0, 0.0, 0.0, 0.0, 0.0, 0.0, 0.0]",,-4.03456095,9.29617815,-0.18651255,"[0.0, 0.0, 0.0, 0.0, 0.0, 0.0, 0.0, 0.0, 0.0]"
1555424573807643899,,20868,,1555424573,743379116,"""knife_link""",,0.493303782233,-0.401716113751,-0.771116962735,0.0255767896641,"[0.0, 0.0, 0.0, 0.0, 0.0, 0.0, 0.0, 0.0, 0.0]",,0.128377998873,0.0135177929654,0.0623787197982,"[0.0, 0.0, 0.0, 0.0, 0.0, 0.0, 0.0, 0.0, 0.0]",,-4.5744657,8.049489,0.6282528,"[0.0, 0.0, 0.0, 0.0, 0.0, 0.0, 0.0, 0.0, 0.0]"
1555424573808447050,,20869,,1555424573,806957960,"""knife_link""",,0.492845684736,-0.404525310736,-0.769891508152,0.0270086964914,"[0.0, 0.0, 0.0, 0.0, 0.0, 0.0, 0.0, 0.0, 0.0]",,0.0184222559973,0.0117724637134,0.0152548299942,"[0.0, 0.0, 0.0, 0.0, 0.0, 0.0, 0.0, 0.0, 0.0]",,-3.7695168,9.25691235,-0.59880345,"[0.0, 0.0, 0.0, 0.0, 0.0, 0.0, 0.0, 0.0, 0.0]"
1555424573871582236,,20870,,1555424573,807948112,"""knife_link""",,0.492256272842,-0.406272567386,-0.769315262487,0.0279354567267,"[0.0, 0.0, 0.0, 0.0, 0.0, 0.0, 0.0, 0.0, 0.0]",,0.0795087798173,-0.00742615805857,-0.00917977953382,"[0.0, 0.0, 0.0, 0.0, 0.0, 0.0, 0.0, 0.0, 0.0]",,-4.52538345,9.09984915,0.1177974,"[0.0, 0.0, 0.0, 0.0, 0.0, 0.0, 0.0, 0.0, 0.0]"
1555424573935104516,,20871,,1555424573,870884895,"""knife_link""",,0.491524770204,-0.40602412129,-0.769863848407,0.0292825566316,"[0.0, 0.0, 0.0, 0.0, 0.0, 0.0, 0.0, 0.0, 0.0]",,-0.0705895358547,-0.0161528043186,-0.0179064257938,"[0.0, 0.0, 0.0, 0.0, 0.0, 0.0, 0.0, 0.0, 0.0]",,-4.2014406,8.1869193,-0.02944935,"[0.0, 0.0, 0.0, 0.0, 0.0, 0.0, 0.0, 0.0, 0.0]"
1555424573999067580,,20872,,1555424573,934497117,"""knife_link""",,0.490450421325,-0.414012993847,-0.766394015956,0.026302803191,"[0.0, 0.0, 0.0, 0.0, 0.0, 0.0, 0.0, 0.0, 0.0]",,0.254041705017,-0.0178981335706,0.00303752523018,"[0.0, 0.0, 0.0, 0.0, 0.0, 0.0, 0.0, 0.0, 0.0]",,-4.2210735,9.8360829,0.42210735,"[0.0, 0.0, 0.0, 0.0, 0.0, 0.0, 0.0, 0.0, 0.0]"
1555424573999928268,,20873,,1555424573,998349905,"""knife_link""",,0.491543486819,-0.415657394004,-0.764902574518,0.0231944577787,"[0.0, 0.0, 0.0, 0.0, 0.0, 0.0, 0.0, 0.0, 0.0]",,0.0742727920613,-0.000444841050566,-0.122626180914,"[0.0, 0.0, 0.0, 0.0, 0.0, 0.0, 0.0, 0.0, 0.0]",,-4.2603393,9.02131755,-0.16687965,"[0.0, 0.0, 0.0, 0.0, 0.0, 0.0, 0.0, 0.0, 0.0]"
1555424574084098965,,20874,,1555424573,999537944,"""knife_link""",,0.491103817276,-0.417198226966,-0.764323864301,0.0239104691139,"[0.0, 0.0, 0.0, 0.0, 0.0, 0.0, 0.0, 0.0, 0.0]",,0.177247217929,-0.0126621458146,-0.0720116326058,"[0.0, 0.0, 0.0, 0.0, 0.0, 0.0, 0.0, 0.0, 0.0]",,-4.64318085,8.2065522,0.04908225,"[0.0, 0.0, 0.0, 0.0, 0.0, 0.0, 0.0, 0.0, 0.0]"
1555424574126482341,,20875,,1555424574,83436012,"""knife_link""",,0.492186863667,-0.402111374838,-0.771382849613,0.0320473521939,"[0.0, 0.0, 0.0, 0.0, 0.0, 0.0, 0.0, 0.0, 0.0]",,-0.472015263815,0.0152631222174,-0.0842289373698,"[0.0, 0.0, 0.0, 0.0, 0.0, 0.0, 0.0, 0.0, 0.0]",,-4.2407064,10.0324119,-1.26632205,"[0.0, 0.0, 0.0, 0.0, 0.0, 0.0, 0.0, 0.0, 0.0]"
1555424574147423566,,20876,,1555424574,125894069,"""knife_link""",,0.493112468854,-0.402164462059,-0.770877656397,0.0291800854378,"[0.0, 0.0, 0.0, 0.0, 0.0, 0.0, 0.0, 0.0, 0.0]",,0.0341302192653,-0.00917148731057,-0.204656655758,"[0.0, 0.0, 0.0, 0.0, 0.0, 0.0, 0.0, 0.0, 0.0]",,-4.17199125,8.2261851,0.4908225,"[0.0, 0.0, 0.0, 0.0, 0.0, 0.0, 0.0, 0.0, 0.0]"
1555424574211591853,,20877,,1555424574,146831989,"""knife_link""",,0.49311636049,-0.402762530631,-0.770555390466,0.0293766771427,"[0.0, 0.0, 0.0, 0.0, 0.0, 0.0, 0.0, 0.0, 0.0]",,-0.0915334868787,-0.0318607675866,-0.131352827174,"[0.0, 0.0, 0.0, 0.0, 0.0, 0.0, 0.0, 0.0, 0.0]",,-3.7498839,7.88260935,-0.9423792,"[0.0, 0.0, 0.0, 0.0, 0.0, 0.0, 0.0, 0.0, 0.0]"
1555424574254001999,,20878,,1555424574,210978984,"""knife_link""",,0.492194667851,-0.39748721999,-0.773802649072,0.0312694607033,"[0.0, 0.0, 0.0, 0.0, 0.0, 0.0, 0.0, 0.0, 0.0]",,-0.232905156291,-0.0510593893586,-0.0772476203618,"[0.0, 0.0, 0.0, 0.0, 0.0, 0.0, 0.0, 0.0, 0.0]",,-5.2027185,9.2863617,0.08834805,"[0.0, 0.0, 0.0, 0.0, 0.0, 0.0, 0.0, 0.0, 0.0]"
1555424574324084258,,20879,,1555424574,253474950,"""knife_link""",,0.492746696419,-0.397244227817,-0.773637819945,0.0297025282635,"[0.0, 0.0, 0.0, 0.0, 0.0, 0.0, 0.0, 0.0, 0.0]",,-0.0147389997907,-0.00742615805857,-0.150551448946,"[0.0, 0.0, 0.0, 0.0, 0.0, 0.0, 0.0, 0.0, 0.0]",,-5.19290205,9.41397555,0.588987,"[0.0, 0.0, 0.0, 0.0, 0.0, 0.0, 0.0, 0.0, 0.0]"
1555424574359902224,,20880,,1555424574,323349952,"""knife_link""",,0.494904434438,-0.396415314168,-0.772470061321,0.0348497321301,"[0.0, 0.0, 0.0, 0.0, 0.0, 0.0, 0.0, 0.0, 0.0]",,-0.117713425659,0.107765572573,0.0327081225142,"[0.0, 0.0, 0.0, 0.0, 0.0, 0.0, 0.0, 0.0, 0.0]",,-4.5940986,8.245818,-0.77549955,"[0.0, 0.0, 0.0, 0.0, 0.0, 0.0, 0.0, 0.0, 0.0]"
1555424574402352224,,20881,,1555424574,359388113,"""knife_link""",,0.494331340249,-0.399744988203,-0.771203503492,0.0329488490853,"[0.0, 0.0, 0.0, 0.0, 0.0, 0.0, 0.0, 0.0, 0.0]",,0.166775242417,-0.0388420845946,-0.0755022911098,"[0.0, 0.0, 0.0, 0.0, 0.0, 0.0, 0.0, 0.0, 0.0]",,-4.56464925,9.8557158,0.38284155,"[0.0, 0.0, 0.0, 0.0, 0.0, 0.0, 0.0, 0.0, 0.0]"
1555424574487689351,,20882,,1555424574,401803970,"""knife_link""",,0.495600094176,-0.39971348671,-0.770437604194,0.0321803237947,"[0.0, 0.0, 0.0, 0.0, 0.0, 0.0, 0.0, 0.0, 0.0]",,0.00969560973728,0.0571510242654,-0.0720116326058,"[0.0, 0.0, 0.0, 0.0, 0.0, 0.0, 0.0, 0.0, 0.0]",,-4.74134535,6.74390115,0.75586665,"[0.0, 0.0, 0.0, 0.0, 0.0, 0.0, 0.0, 0.0, 0.0]"
1555424574530146876,,20883,,1555424574,487029075,"""knife_link""",,0.496084628947,-0.403264024376,-0.768355835233,0.0301243760153,"[0.0, 0.0, 0.0, 0.0, 0.0, 0.0, 0.0, 0.0, 0.0]",,0.0847447675733,0.00828180520943,-0.0371050475658,"[0.0, 0.0, 0.0, 0.0, 0.0, 0.0, 0.0, 0.0, 0.0]",,-4.6529973,9.9146145,-0.0588987,"[0.0, 0.0, 0.0, 0.0, 0.0, 0.0, 0.0, 0.0, 0.0]"
1555424574572718603,,20884,,1555424574,529444932,"""knife_link""",,0.497473071023,-0.40375955492,-0.767201585367,0.0300082126825,"[0.0, 0.0, 0.0, 0.0, 0.0, 0.0, 0.0, 0.0, 0.0]",,-0.0129936705387,0.0606416827694,-0.11040887615,"[0.0, 0.0, 0.0, 0.0, 0.0, 0.0, 0.0, 0.0, 0.0]",,-4.05419385,8.638476,-0.32394285,"[0.0, 0.0, 0.0, 0.0, 0.0, 0.0, 0.0, 0.0, 0.0]"
1555424574621690411,,20885,,1555424574,572150945,"""knife_link""",,0.498212680947,-0.404700115863,-0.766210695009,0.0303827519745,"[0.0, 0.0, 0.0, 0.0, 0.0, 0.0, 0.0, 0.0, 0.0]",,0.00271429272928,0.0501697072574,-0.0353597183138,"[0.0, 0.0, 0.0, 0.0, 0.0, 0.0, 0.0, 0.0, 0.0]",,-5.60519295,9.39434265,0.12761385,"[0.0, 0.0, 0.0, 0.0, 0.0, 0.0, 0.0, 0.0, 0.0]"
1555424574657787610,,20886,,1555424574,621104001,"""knife_link""",,0.498993062537,-0.392045696775,-0.772012064271,0.0361035704592,"[0.0, 0.0, 0.0, 0.0, 0.0, 0.0, 0.0, 0.0, 0.0]",,-0.650038847519,0.0100271344614,-0.14531546119,"[0.0, 0.0, 0.0, 0.0, 0.0, 0.0, 0.0, 0.0, 0.0]",,-3.7498839,7.56848295,-0.5497212,"[0.0, 0.0, 0.0, 0.0, 0.0, 0.0, 0.0, 0.0, 0.0]"
1555424574721454770,,20887,,1555424574,657094001,"""knife_link""",,0.500940201005,-0.38963930507,-0.772062700968,0.0340486818464,"[0.0, 0.0, 0.0, 0.0, 0.0, 0.0, 0.0, 0.0, 0.0]",,-0.0775708528627,0.0431883902494,-0.213383302018,"[0.0, 0.0, 0.0, 0.0, 0.0, 0.0, 0.0, 0.0, 0.0]",,-5.2223514,6.39050895,0.0588987,"[0.0, 0.0, 0.0, 0.0, 0.0, 0.0, 0.0, 0.0, 0.0]"
1555424574785223621,,20888,,1555424574,720995903,"""knife_link""",,0.499882733762,-0.391851828717,-0.771244258779,0.0418531972175,"[0.0, 0.0, 0.0, 0.0, 0.0, 0.0, 0.0, 0.0, 0.0]",,-0.110732108651,0.0571510242654,0.193278413698,"[0.0, 0.0, 0.0, 0.0, 0.0, 0.0, 0.0, 0.0, 0.0]",,-5.3990475,8.7955392,-1.3546701,"[0.0, 0.0, 0.0, 0.0, 0.0, 0.0, 0.0, 0.0, 0.0]"
1555424574891420871,,20889,,1555424574,784580945,"""knife_link""",,0.48731983067,-0.401381293515,-0.773209049923,0.059667453184,"[0.0, 0.0, 0.0, 0.0, 0.0, 0.0, 0.0, 0.0, 0.0]",,-0.102005462391,-0.117381900935,0.737821140322,"[0.0, 0.0, 0.0, 0.0, 0.0, 0.0, 0.0, 0.0, 0.0]",,-4.3585038,6.1254648,1.1976069,"[0.0, 0.0, 0.0, 0.0, 0.0, 0.0, 0.0, 0.0, 0.0]"
1555424574892308870,,20890,,1555424574,890733003,"""knife_link""",,0.466862346211,-0.429453725874,-0.766132842824,0.103196483324,"[0.0, 0.0, 0.0, 0.0, 0.0, 0.0, 0.0, 0.0, 0.0]",,0.0306395607613,0.0746043167854,1.05896172269,"[0.0, 0.0, 0.0, 0.0, 0.0, 0.0, 0.0, 0.0, 0.0]",,-3.7106181,3.87749775,-0.06871515,"[0.0, 0.0, 0.0, 0.0, 0.0, 0.0, 0.0, 0.0, 0.0]"
1555424574925626374,,20891,,1555424574,891896963,"""knife_link""",,0.46613636884,-0.432191105842,-0.764873417257,0.104385771298,"[0.0, 0.0, 0.0, 0.0, 0.0, 0.0, 0.0, 0.0, 0.0]",,0.0934714138333,0.133945511353,2.19691639499,"[0.0, 0.0, 0.0, 0.0, 0.0, 0.0, 0.0, 0.0, 0.0]",,-2.38539735,8.0298561,-1.9829229,"[0.0, 0.0, 0.0, 0.0, 0.0, 0.0, 0.0, 0.0, 0.0]"
1555424574976639146,,20892,,1555424574,925153017,"""knife_link""",,0.433697132634,-0.461462065184,-0.759921301789,0.146557751854,"[0.0, 0.0, 0.0, 0.0, 0.0, 0.0, 0.0, 0.0, 0.0]",,0.0568194995413,-0.396634581255,3.65252099116,"[0.0, 0.0, 0.0, 0.0, 0.0, 0.0, 0.0, 0.0, 0.0]",,-1.91420775,15.8633832,3.0627324,"[0.0, 0.0, 0.0, 0.0, 0.0, 0.0, 0.0, 0.0, 0.0]"
1555424574997662124,,20893,,1555424574,975980997,"""knife_link""",,0.429485317503,-0.46877503388,-0.757520852343,0.14817046914,"[0.0, 0.0, 0.0, 0.0, 0.0, 0.0, 0.0, 0.0, 0.0]",,0.161539254661,-0.0650220233746,0.188042425942,"[0.0, 0.0, 0.0, 0.0, 0.0, 0.0, 0.0, 0.0, 0.0]",,-1.10925885,9.0703998,0.50063895,"[0.0, 0.0, 0.0, 0.0, 0.0, 0.0, 0.0, 0.0, 0.0]"
1555424575125248075,,20894,,1555424574,997014999,"""knife_link""",,0.429040895219,-0.473838537918,-0.754540665454,0.14855751206,"[0.0, 0.0, 0.0, 0.0, 0.0, 0.0, 0.0, 0.0, 0.0]",,0.428574630217,0.113001560329,0.313706132086,"[0.0, 0.0, 0.0, 0.0, 0.0, 0.0, 0.0, 0.0, 0.0]",,-0.40247445,11.8190058,-0.6282528,"[0.0, 0.0, 0.0, 0.0, 0.0, 0.0, 0.0, 0.0, 0.0]"
1555424575125754652,,20895,,1555424575,124521970,"""knife_link""",,0.448231479413,-0.358511111682,-0.80718180299,0.137898007907,"[0.0, 0.0, 0.0, 0.0, 0.0, 0.0, 0.0, 0.0, 0.0]",,-1.66582047218,0.0798403045414,-1.17156906137,"[0.0, 0.0, 0.0, 0.0, 0.0, 0.0, 0.0, 0.0, 0.0]",,-0.9227463,12.90863175,1.2565056,"[0.0, 0.0, 0.0, 0.0, 0.0, 0.0, 0.0, 0.0, 0.0]"
1555424575159958471,,20896,,1555424575,125463008,"""knife_link""",,0.448132767857,-0.359086609027,-0.807188724492,0.136675501253,"[0.0, 0.0, 0.0, 0.0, 0.0, 0.0, 0.0, 0.0, 0.0]",,0.365742777145,0.692450871993,-0.52056125037,"[0.0, 0.0, 0.0, 0.0, 0.0, 0.0, 0.0, 0.0, 0.0]",,-2.4933783,7.25435655,0.2944935,"[0.0, 0.0, 0.0, 0.0, 0.0, 0.0, 0.0, 0.0, 0.0]"
1555424575252833586,,20897,,1555424575,159270048,"""knife_link""",,0.448607974675,-0.367620016999,-0.802889249481,0.13775072133,"[0.0, 0.0, 0.0, 0.0, 0.0, 0.0, 0.0, 0.0, 0.0]",,0.426829300965,0.144417486865,0.327668766102,"[0.0, 0.0, 0.0, 0.0, 0.0, 0.0, 0.0, 0.0, 0.0]",,-2.7289731,12.18221445,1.1190753,"[0.0, 0.0, 0.0, 0.0, 0.0, 0.0, 0.0, 0.0, 0.0]"
1555424575253336445,,20898,,1555424575,252171993,"""knife_link""",,0.481268076411,-0.347816036499,-0.802030406893,0.0644381082936,"[0.0, 0.0, 0.0, 0.0, 0.0, 0.0, 0.0, 0.0, 0.0]",,0.458245227501,0.0641323412734,-1.71436645874,"[0.0, 0.0, 0.0, 0.0, 0.0, 0.0, 0.0, 0.0, 0.0]",,-1.12889175,7.5390336,-0.9423792,"[0.0, 0.0, 0.0, 0.0, 0.0, 0.0, 0.0, 0.0, 0.0]"
1555424575295148623,,20899,,1555424575,253007888,"""knife_link""",,0.480728964036,-0.348413218561,-0.802159892499,0.0636191726982,"[0.0, 0.0, 0.0, 0.0, 0.0, 0.0, 0.0, 0.0, 0.0]",,0.119651352613,-0.581639481967,-0.819012552462,"[0.0, 0.0, 0.0, 0.0, 0.0, 0.0, 0.0, 0.0, 0.0]",,-1.8258597,7.6371981,1.44301815,"[0.0, 0.0, 0.0, 0.0, 0.0, 0.0, 0.0, 0.0, 0.0]"
1555424575380819965,,20900,,1555424575,294511079,"""knife_link""",,0.477232646265,-0.347210571321,-0.805466924996,0.0540078997815,"[0.0, 0.0, 0.0, 0.0, 0.0, 0.0, 0.0, 0.0, 0.0]",,0.0271489022573,-0.358237337711,-0.455984068046,"[0.0, 0.0, 0.0, 0.0, 0.0, 0.0, 0.0, 0.0, 0.0]",,-2.44429605,8.3243496,0.392658,"[0.0, 0.0, 0.0, 0.0, 0.0, 0.0, 0.0, 0.0, 0.0]"
1555424575443981711,,20901,,1555424575,379909038,"""knife_link""",,0.480760165307,-0.341000586833,-0.807453383381,0.0246433946678,"[0.0, 0.0, 0.0, 0.0, 0.0, 0.0, 0.0, 0.0, 0.0]",,0.151067279149,-0.194176388023,-0.717783455846,"[0.0, 0.0, 0.0, 0.0, 0.0, 0.0, 0.0, 0.0, 0.0]",,-3.17071335,9.11948205,-0.40247445,"[0.0, 0.0, 0.0, 0.0, 0.0, 0.0, 0.0, 0.0, 0.0]"
1555424575571349645,,20902,,1555424575,443325042,"""knife_link""",,0.488358128901,-0.326977350883,-0.808673339178,0.0252899277977,"[0.0, 0.0, 0.0, 0.0, 0.0, 0.0, 0.0, 0.0, 0.0]",,-0.414419398499,0.186305388913,-0.305885752374,"[0.0, 0.0, 0.0, 0.0, 0.0, 0.0, 0.0, 0.0, 0.0]",,-2.8860363,7.5194007,-1.63934715,"[0.0, 0.0, 0.0, 0.0, 0.0, 0.0, 0.0, 0.0, 0.0]"
1555424575572182291,,20903,,1555424575,570653915,"""knife_link""",,0.490717595239,-0.344134779604,-0.800441019396,0.00785300316542,"[0.0, 0.0, 0.0, 0.0, 0.0, 0.0, 0.0, 0.0, 0.0]",,0.370978764901,-0.00393549955457,-0.140079473434,"[0.0, 0.0, 0.0, 0.0, 0.0, 0.0, 0.0, 0.0, 0.0]",,-3.68116875,9.23727945,0.52027185,"[0.0, 0.0, 0.0, 0.0, 0.0, 0.0, 0.0, 0.0, 0.0]"
1555424575606497610,,20904,,1555424575,571696043,"""knife_link""",,0.489886059098,-0.34672847402,-0.799815889847,0.00924968938803,"[0.0, 0.0, 0.0, 0.0, 0.0, 0.0, 0.0, 0.0, 0.0]",,0.0271489022573,0.0187537807214,-0.185458033986,"[0.0, 0.0, 0.0, 0.0, 0.0, 0.0, 0.0, 0.0, 0.0]",,-3.4161246,9.62993745,0.44174025,"[0.0, 0.0, 0.0, 0.0, 0.0, 0.0, 0.0, 0.0, 0.0]"
1555424575720012575,,20905,,1555424575,605845928,"""knife_link""",,0.491646947981,-0.348207600737,-0.79810043389,0.00839301822181,"[0.0, 0.0, 0.0, 0.0, 0.0, 0.0, 0.0, 0.0, 0.0]",,0.0236582437533,0.0850762922974,-0.194184680246,"[0.0, 0.0, 0.0, 0.0, 0.0, 0.0, 0.0, 0.0, 0.0]",,-3.46520685,9.423792,-0.4711896,"[0.0, 0.0, 0.0, 0.0, 0.0, 0.0, 0.0, 0.0, 0.0]"
1555424575848448264,,20906,,1555424575,719445943,"""knife_link""",,0.492963964705,-0.348625221171,-0.797101273051,-0.00874900946314,"[0.0, 0.0, 0.0, 0.0, 0.0, 0.0, 0.0, 0.0, 0.0]",,0.128377998873,-0.0894566329026,-0.298904435366,"[0.0, 0.0, 0.0, 0.0, 0.0, 0.0, 0.0, 0.0, 0.0]",,-3.3179601,9.84589935,-0.9031134,"[0.0, 0.0, 0.0, 0.0, 0.0, 0.0, 0.0, 0.0, 0.0]"
1555424575849323550,,20907,,1555424575,847856998,"""knife_link""",,0.489446317855,-0.36270983287,-0.792300443364,-0.0338213914924,"[0.0, 0.0, 0.0, 0.0, 0.0, 0.0, 0.0, 0.0, 0.0]",,0.381450740413,-0.143561839715,-0.220364619026,"[0.0, 0.0, 0.0, 0.0, 0.0, 0.0, 0.0, 0.0, 0.0]",,-4.3388709,7.82371065,0.9620121,"[0.0, 0.0, 0.0, 0.0, 0.0, 0.0, 0.0, 0.0, 0.0]"
1555424575883311316,,20908,,1555424575,848990917,"""knife_link""",,0.489036072701,-0.364238528961,-0.791921385209,-0.0321641612088,"[0.0, 0.0, 0.0, 0.0, 0.0, 0.0, 0.0, 0.0, 0.0]",,-0.789665187679,0.0187537807214,-0.190694021742,"[0.0, 0.0, 0.0, 0.0, 0.0, 0.0, 0.0, 0.0, 0.0]",,-3.2786943,10.5625002,-0.63806925,"[0.0, 0.0, 0.0, 0.0, 0.0, 0.0, 0.0, 0.0, 0.0]"
1555424575916681298,,20909,,1555424575,882586002,"""knife_link""",,0.485447169494,-0.383645478602,-0.785481669348,-0.01325667745,"[0.0, 0.0, 0.0, 0.0, 0.0, 0.0, 0.0, 0.0, 0.0]",,0.508859775809,0.467303398485,1.52321930372,"[0.0, 0.0, 0.0, 0.0, 0.0, 0.0, 0.0, 0.0, 0.0]",,-4.34868735,11.37726555,1.67861295,"[0.0, 0.0, 0.0, 0.0, 0.0, 0.0, 0.0, 0.0, 0.0]"
1555424575949948517,,20910,,1555424575,915956020,"""knife_link""",,0.488416991417,-0.378336358759,-0.78591473975,-0.025464955921,"[0.0, 0.0, 0.0, 0.0, 0.0, 0.0, 0.0, 0.0, 0.0]",,0.0847447675733,-0.159269802983,-0.82599386947,"[0.0, 0.0, 0.0, 0.0, 0.0, 0.0, 0.0, 0.0, 0.0]",,-3.6713523,7.1071098,0.95219565,"[0.0, 0.0, 0.0, 0.0, 0.0, 0.0, 0.0, 0.0, 0.0]"
1555424575983332515,,20911,,1555424575,949107885,"""knife_link""",,0.491872954338,-0.376668098821,-0.784319433344,-0.0320182229267,"[0.0, 0.0, 0.0, 0.0, 0.0, 0.0, 0.0, 0.0, 0.0]",,0.0864900968253,0.0222444392254,-0.569430469426,"[0.0, 0.0, 0.0, 0.0, 0.0, 0.0, 0.0, 0.0, 0.0]",,-3.83823195,7.7942613,-0.2748606,"[0.0, 0.0, 0.0, 0.0, 0.0, 0.0, 0.0, 0.0, 0.0]"
1555424576016489959,,20912,,1555424575,982640981,"""knife_link""",,0.492034636966,-0.377288852295,-0.783654177179,-0.0379627257966,"[0.0, 0.0, 0.0, 0.0, 0.0, 0.0, 0.0, 0.0, 0.0]",,0.152812608401,-0.150543156723,-0.421077483006,"[0.0, 0.0, 0.0, 0.0, 0.0, 0.0, 0.0, 0.0, 0.0]",,-4.56464925,9.7379184,-0.4319238,"[0.0, 0.0, 0.0, 0.0, 0.0, 0.0, 0.0, 0.0, 0.0]"
1555424576102546781,,20913,,1555424576,15913009,"""knife_link""",,0.490312686321,-0.376596850951,-0.78521209171,-0.0347886837788,"[0.0, 0.0, 0.0, 0.0, 0.0, 0.0, 0.0, 0.0, 0.0]",,-0.222433180779,-0.0964379499106,0.0117641714902,"[0.0, 0.0, 0.0, 0.0, 0.0, 0.0, 0.0, 0.0, 0.0]",,-3.95602935,8.8151721,-0.1570632,"[0.0, 0.0, 0.0, 0.0, 0.0, 0.0, 0.0, 0.0, 0.0]"
1555424576103047207,,20914,,1555424576,101852893,"""knife_link""",,0.490518174788,-0.379212875212,-0.783454084168,-0.0422990954541,"[0.0, 0.0, 0.0, 0.0, 0.0, 0.0, 0.0, 0.0, 0.0]",,0.126632669621,-0.0562953771146,-0.168004741466,"[0.0, 0.0, 0.0, 0.0, 0.0, 0.0, 0.0, 0.0, 0.0]",,-4.64318085,9.04095045,-0.1374303,"[0.0, 0.0, 0.0, 0.0, 0.0, 0.0, 0.0, 0.0, 0.0]"
1555424576116361588,,20915,,1555424576,102713108,"""knife_link""",,0.490113735767,-0.381156584492,-0.7828499273,-0.0406715556309,"[0.0, 0.0, 0.0, 0.0, 0.0, 0.0, 0.0, 0.0, 0.0]",,0.0550741702893,-0.0667673526266,-0.0563036693378,"[0.0, 0.0, 0.0, 0.0, 0.0, 0.0, 0.0, 0.0, 0.0]",,-4.4370354,8.4225141,-0.10798095,"[0.0, 0.0, 0.0, 0.0, 0.0, 0.0, 0.0, 0.0, 0.0]"
1555424576149993289,,20916,,1555424576,115896940,"""knife_link""",,0.489581557047,-0.382478705654,-0.782636979603,-0.0387207551331,"[0.0, 0.0, 0.0, 0.0, 0.0, 0.0, 0.0, 0.0, 0.0]",,-0.0618628895947,0.0396977317454,0.00303752523018,"[0.0, 0.0, 0.0, 0.0, 0.0, 0.0, 0.0, 0.0, 0.0]",,-4.515567,8.638476,1.0209108,"[0.0, 0.0, 0.0, 0.0, 0.0, 0.0, 0.0, 0.0, 0.0]"
1555424576251541301,,20917,,1555424576,149343967,"""knife_link""",,0.490316138245,-0.386637822286,-0.780154579627,-0.0382113967375,"[0.0, 0.0, 0.0, 0.0, 0.0, 0.0, 0.0, 0.0, 0.0]",,0.163284583913,0.0711136582814,-0.0371050475658,"[0.0, 0.0, 0.0, 0.0, 0.0, 0.0, 0.0, 0.0, 0.0]",,-4.21125705,9.5612223,-0.97182855,"[0.0, 0.0, 0.0, 0.0, 0.0, 0.0, 0.0, 0.0, 0.0]"
1555424576273125847,,20918,,1555424576,250802993,"""knife_link""",,0.489331138193,-0.388361358938,-0.77971131407,-0.0421990377792,"[0.0, 0.0, 0.0, 0.0, 0.0, 0.0, 0.0, 0.0, 0.0]",,0.0568194995413,-0.0475687308546,-0.0842289373698,"[0.0, 0.0, 0.0, 0.0, 0.0, 0.0, 0.0, 0.0, 0.0]",,-4.3585038,8.37343185,0.6086199,"[0.0, 0.0, 0.0, 0.0, 0.0, 0.0, 0.0, 0.0, 0.0]"
1555424576379019020,,20919,,1555424576,272299051,"""knife_link""",,0.488831245164,-0.390969194703,-0.778768985397,-0.0413033888241,"[0.0, 0.0, 0.0, 0.0, 0.0, 0.0, 0.0, 0.0, 0.0]",,0.110924706353,-0.00568082880657,-0.0248877428018,"[0.0, 0.0, 0.0, 0.0, 0.0, 0.0, 0.0, 0.0, 0.0]",,-4.4959341,8.82498855,0.1177974,"[0.0, 0.0, 0.0, 0.0, 0.0, 0.0, 0.0, 0.0, 0.0]"
1555424576464694710,,20920,,1555424576,378323078,"""knife_link""",,0.492748673859,-0.394361702986,-0.774447292161,-0.0436919133488,"[0.0, 0.0, 0.0, 0.0, 0.0, 0.0, 0.0, 0.0, 0.0]",,0.0829994383213,0.0676229997774,-0.0842289373698,"[0.0, 0.0, 0.0, 0.0, 0.0, 0.0, 0.0, 0.0, 0.0]",,-4.319238,9.0900327,-0.50063895,"[0.0, 0.0, 0.0, 0.0, 0.0, 0.0, 0.0, 0.0, 0.0]"
1555424576466329865,,20921,,1555424576,464026927,"""knife_link""",,0.494158261794,-0.398335532076,-0.771225470963,-0.0484529578428,"[0.0, 0.0, 0.0, 0.0, 0.0, 0.0, 0.0, 0.0, 0.0]",,0.138849974385,0.00653647595743,-0.108663546898,"[0.0, 0.0, 0.0, 0.0, 0.0, 0.0, 0.0, 0.0, 0.0]",,-4.60391505,8.11820415,-0.10798095,"[0.0, 0.0, 0.0, 0.0, 0.0, 0.0, 0.0, 0.0, 0.0]"
1555424576467794012,,20922,,1555424576,465467929,"""knife_link""",,0.493889928153,-0.400237617604,-0.770509950592,-0.046872213125,"[0.0, 0.0, 0.0, 0.0, 0.0, 0.0, 0.0, 0.0, 0.0]",,0.154557937653,-0.0842206451466,-0.0720116326058,"[0.0, 0.0, 0.0, 0.0, 0.0, 0.0, 0.0, 0.0, 0.0]",,-4.81987695,8.834805,-0.71660085,"[0.0, 0.0, 0.0, 0.0, 0.0, 0.0, 0.0, 0.0, 0.0]"
1555424576506439182,,20923,,1555424576,467035055,"""knife_link""",,0.492948399665,-0.401501773071,-0.770571694121,-0.0449162076358,"[0.0, 0.0, 0.0, 0.0, 0.0, 0.0, 0.0, 0.0, 0.0]",,-0.337624911411,0.0152631222174,-0.0475770230778,"[0.0, 0.0, 0.0, 0.0, 0.0, 0.0, 0.0, 0.0, 0.0]",,-4.13272545,8.9329695,1.22705625,"[0.0, 0.0, 0.0, 0.0, 0.0, 0.0, 0.0, 0.0, 0.0]"
1555424576613226013,,20924,,1555424576,505800008,"""knife_link""",,0.492383853874,-0.405978005703,-0.768422625265,-0.0476095401245,"[0.0, 0.0, 0.0, 0.0, 0.0, 0.0, 0.0, 0.0, 0.0]",,0.259277692773,-0.0440780723506,-0.117390193158,"[0.0, 0.0, 0.0, 0.0, 0.0, 0.0, 0.0, 0.0, 0.0]",,-4.05419385,8.5795773,-0.0392658,"[0.0, 0.0, 0.0, 0.0, 0.0, 0.0, 0.0, 0.0, 0.0]"
1555424576613860659,,20925,,1555424576,612293004,"""knife_link""",,0.489980464745,-0.407840855088,-0.768585204216,-0.0534954666286,"[0.0, 0.0, 0.0, 0.0, 0.0, 0.0, 0.0, 0.0, 0.0]",,0.0690368043053,-0.0964379499106,-0.0929555836298,"[0.0, 0.0, 0.0, 0.0, 0.0, 0.0, 0.0, 0.0, 0.0]",,-4.42721895,8.25563445,-0.52027185,"[0.0, 0.0, 0.0, 0.0, 0.0, 0.0, 0.0, 0.0, 0.0]"
1555424576655231102,,20926,,1555424576,613404989,"""knife_link""",,0.489539996494,-0.409186866619,-0.768259047461,-0.0519108467799,"[0.0, 0.0, 0.0, 0.0, 0.0, 0.0, 0.0, 0.0, 0.0]",,0.00445962198128,-0.0440780723506,-0.218619289774,"[0.0, 0.0, 0.0, 0.0, 0.0, 0.0, 0.0, 0.0, 0.0]",,-4.74134535,8.29490025,0.3337593,"[0.0, 0.0, 0.0, 0.0, 0.0, 0.0, 0.0, 0.0, 0.0]"
1555424576719067219,,20927,,1555424576,654694080,"""knife_link""",,0.489628552448,-0.411566829108,-0.766890251246,-0.0524973175397,"[0.0, 0.0, 0.0, 0.0, 0.0, 0.0, 0.0, 0.0, 0.0]",,0.0987074015893,-0.0161528043186,-0.0650303155978,"[0.0, 0.0, 0.0, 0.0, 0.0, 0.0, 0.0, 0.0, 0.0]",,-5.60519295,8.88388725,-0.5693541,"[0.0, 0.0, 0.0, 0.0, 0.0, 0.0, 0.0, 0.0, 0.0]"
1555424576761271941,,20928,,1555424576,718384027,"""knife_link""",,0.490719907614,-0.410796141303,-0.766311475814,-0.0566323635202,"[0.0, 0.0, 0.0, 0.0, 0.0, 0.0, 0.0, 0.0, 0.0]",,0.0393662070213,-0.0388420845946,-0.190694021742,"[0.0, 0.0, 0.0, 0.0, 0.0, 0.0, 0.0, 0.0, 0.0]",,-5.13400335,8.3636154,0.28467705,"[0.0, 0.0, 0.0, 0.0, 0.0, 0.0, 0.0, 0.0, 0.0]"
1555424576803782243,,20929,,1555424576,760689973,"""knife_link""",,0.489884809636,-0.415203724899,-0.764374367487,-0.0578840776561,"[0.0, 0.0, 0.0, 0.0, 0.0, 0.0, 0.0, 0.0, 0.0]",,0.196445839701,-0.0458234016026,-0.0405957060698,"[0.0, 0.0, 0.0, 0.0, 0.0, 0.0, 0.0, 0.0, 0.0]",,-4.87877565,8.9918682,-0.81476535,"[0.0, 0.0, 0.0, 0.0, 0.0, 0.0, 0.0, 0.0, 0.0]"
1555424576846158295,,20930,,1555424576,803244113,"""knife_link""",,0.490550674992,-0.415435640338,-0.763678223021,-0.0597397328863,"[0.0, 0.0, 0.0, 0.0, 0.0, 0.0, 0.0, 0.0, 0.0]",,0.0550741702893,-0.0231341213266,-0.150551448946,"[0.0, 0.0, 0.0, 0.0, 0.0, 0.0, 0.0, 0.0, 0.0]",,-4.42721895,7.35252105,0.0981645,"[0.0, 0.0, 0.0, 0.0, 0.0, 0.0, 0.0, 0.0, 0.0]"
1555424576910305734,,20931,,1555424576,845554113,"""knife_link""",,0.489729459898,-0.415232697991,-0.764500121727,-0.0573273626272,"[0.0, 0.0, 0.0, 0.0, 0.0, 0.0, 0.0, 0.0, 0.0]",,-0.0845521698707,-0.0196434628226,-0.000453133273816,"[0.0, 0.0, 0.0, 0.0, 0.0, 0.0, 0.0, 0.0, 0.0]",,-5.0260224,8.70719115,0.85403115,"[0.0, 0.0, 0.0, 0.0, 0.0, 0.0, 0.0, 0.0, 0.0]"
1555424576995348781,,20932,,1555424576,909625053,"""knife_link""",,0.493316353759,-0.412949885116,-0.763589351912,-0.0551603946938,"[0.0, 0.0, 0.0, 0.0, 0.0, 0.0, 0.0, 0.0, 0.0]",,-0.0897881576267,0.102529584817,-0.0737569618578,"[0.0, 0.0, 0.0, 0.0, 0.0, 0.0, 0.0, 0.0, 0.0]",,-6.52793925,7.96114095,0.34357575,"[0.0, 0.0, 0.0, 0.0, 0.0, 0.0, 0.0, 0.0, 0.0]"
1555424577016530174,,20933,,1555424576,994893074,"""knife_link""",,0.491996247856,-0.411702974686,-0.765908768508,-0.0427096131225,"[0.0, 0.0, 0.0, 0.0, 0.0, 0.0, 0.0, 0.0, 0.0]",,-0.199743900503,0.0484243780054,0.189787755194,"[0.0, 0.0, 0.0, 0.0, 0.0, 0.0, 0.0, 0.0, 0.0]",,-4.91804145,7.1660085,-0.48100605,"[0.0, 0.0, 0.0, 0.0, 0.0, 0.0, 0.0, 0.0, 0.0]"
1555424577058762358,,20934,,1555424577,15844106,"""knife_link""",,0.489255173488,-0.412605554887,-0.767479835504,-0.036888119855,"[0.0, 0.0, 0.0, 0.0, 0.0, 0.0, 0.0, 0.0, 0.0]",,-0.236395814795,-0.0580407063666,0.577250849138,"[0.0, 0.0, 0.0, 0.0, 0.0, 0.0, 0.0, 0.0, 0.0]",,-4.3781367,6.3806925,0.48100605,"[0.0, 0.0, 0.0, 0.0, 0.0, 0.0, 0.0, 0.0, 0.0]"
1555424577207168948,,20935,,1555424577,58248043,"""knife_link""",,0.481718929873,-0.412893284327,-0.772784449442,-0.0164378544803,"[0.0, 0.0, 0.0, 0.0, 0.0, 0.0, 0.0, 0.0, 0.0]",,-0.547064421651,-0.000444841050566,0.90188209001,"[0.0, 0.0, 0.0, 0.0, 0.0, 0.0, 0.0, 0.0, 0.0]",,-3.95602935,6.0469332,0.32394285,"[0.0, 0.0, 0.0, 0.0, 0.0, 0.0, 0.0, 0.0, 0.0]"
1555424577207667690,,20936,,1555424577,206634044,"""knife_link""",,0.435869805192,-0.458751865232,-0.770290343246,0.0788481209006,"[0.0, 0.0, 0.0, 0.0, 0.0, 0.0, 0.0, 0.0, 0.0]",,-0.119458754911,0.0885669508014,1.53892726699,"[0.0, 0.0, 0.0, 0.0, 0.0, 0.0, 0.0, 0.0, 0.0]",,-3.6320865,8.6973747,2.60135925,"[0.0, 0.0, 0.0, 0.0, 0.0, 0.0, 0.0, 0.0, 0.0]"
1555424577241505487,,20937,,1555424577,207392930,"""knife_link""",,0.435439629588,-0.459132190842,-0.770270845529,0.0792009144184,"[0.0, 0.0, 0.0, 0.0, 0.0, 0.0, 0.0, 0.0, 0.0]",,-0.248613119559,0.208994669189,1.86006784936,"[0.0, 0.0, 0.0, 0.0, 0.0, 0.0, 0.0, 0.0, 0.0]",,-2.7093402,4.5548328,-0.785316,"[0.0, 0.0, 0.0, 0.0, 0.0, 0.0, 0.0, 0.0, 0.0]"
1555424577275408193,,20938,,1555424577,240956068,"""knife_link""",,0.4167294461,-0.47237488945,-0.768455402574,0.112582533392,"[0.0, 0.0, 0.0, 0.0, 0.0, 0.0, 0.0, 0.0, 0.0]",,-0.314935631135,0.0641323412734,2.40461057598,"[0.0, 0.0, 0.0, 0.0, 0.0, 0.0, 0.0, 0.0, 0.0]",,-1.56081555,19.1420775,-1.40375235,"[0.0, 0.0, 0.0, 0.0, 0.0, 0.0, 0.0, 0.0, 0.0]"
1555424577335357776,,20939,,1555424577,274629116,"""knife_link""",,0.412572180534,-0.47970536154,-0.765173810735,0.119063014092,"[0.0, 0.0, 0.0, 0.0, 0.0, 0.0, 0.0, 0.0, 0.0]",,0.220880449229,0.0519150365094,0.62262940969,"[0.0, 0.0, 0.0, 0.0, 0.0, 0.0, 0.0, 0.0, 0.0]",,-0.34357575,16.0597122,0.22577835,"[0.0, 0.0, 0.0, 0.0, 0.0, 0.0, 0.0, 0.0, 0.0]"
1555424577399287207,,20940,,1555424577,334809064,"""knife_link""",,0.406604524554,-0.478939530837,-0.76834020195,0.122241647902,"[0.0, 0.0, 0.0, 0.0, 0.0, 0.0, 0.0, 0.0, 0.0]",,-0.175309290975,-0.127853876447,0.0955399755862,"[0.0, 0.0, 0.0, 0.0, 0.0, 0.0, 0.0, 0.0, 0.0]",,-1.52154975,8.78572275,0.4319238,"[0.0, 0.0, 0.0, 0.0, 0.0, 0.0, 0.0, 0.0, 0.0]"
1555424577463019640,,20941,,1555424577,398406028,"""knife_link""",,0.407768968388,-0.485016074619,-0.764188283472,0.120416540326,"[0.0, 0.0, 0.0, 0.0, 0.0, 0.0, 0.0, 0.0, 0.0]",,0.201681827457,0.0431883902494,-0.0283784013058,"[0.0, 0.0, 0.0, 0.0, 0.0, 0.0, 0.0, 0.0, 0.0]",,-1.2761385,9.6593868,0.3337593,"[0.0, 0.0, 0.0, 0.0, 0.0, 0.0, 0.0, 0.0, 0.0]"
1555424577463539050,,20942,,1555424577,461827993,"""knife_link""",,0.403856571292,-0.457989676542,-0.781348112437,0.128997880591,"[0.0, 0.0, 0.0, 0.0, 0.0, 0.0, 0.0, 0.0, 0.0]",,-1.09160714827,-0.0720033403826,-0.202911326506,"[0.0, 0.0, 0.0, 0.0, 0.0, 0.0, 0.0, 0.0, 0.0]",,-1.10925885,10.84717725,-0.4319238,"[0.0, 0.0, 0.0, 0.0, 0.0, 0.0, 0.0, 0.0, 0.0]"
1555424577526851929,,20943,,1555424577,463058948,"""knife_link""",,0.402034100527,-0.45868286601,-0.781665862515,0.130296161957,"[0.0, 0.0, 0.0, 0.0, 0.0, 0.0, 0.0, 0.0, 0.0]",,-1.9014399212,-0.106909925423,-0.569430469426,"[0.0, 0.0, 0.0, 0.0, 0.0, 0.0, 0.0, 0.0, 0.0]",,-0.06871515,10.19929155,1.96329,"[0.0, 0.0, 0.0, 0.0, 0.0, 0.0, 0.0, 0.0, 0.0]"
1555424577547721730,,20944,,1555424577,526135921,"""knife_link""",,0.382986202199,-0.419891872198,-0.802035782763,0.183714419019,"[0.0, 0.0, 0.0, 0.0, 0.0, 0.0, 0.0, 0.0, 0.0]",,-2.03583027361,0.231683949465,1.04150843017,"[0.0, 0.0, 0.0, 0.0, 0.0, 0.0, 0.0, 0.0, 0.0]",,-4.64318085,7.39178685,3.38667525,"[0.0, 0.0, 0.0, 0.0, 0.0, 0.0, 0.0, 0.0, 0.0]"
1555424577611374925,,20945,,1555424577,546971082,"""knife_link""",,0.369073798026,-0.415725352514,-0.803414125996,0.213266746208,"[0.0, 0.0, 0.0, 0.0, 0.0, 0.0, 0.0, 0.0, 0.0]",,-1.75832292254,0.235174607969,2.70131654882,"[0.0, 0.0, 0.0, 0.0, 0.0, 0.0, 0.0, 0.0, 0.0]",,-0.4908225,12.16258155,3.141264,"[0.0, 0.0, 0.0, 0.0, 0.0, 0.0, 0.0, 0.0, 0.0]"
1555424577654110048,,20946,,1555424577,610723018,"""knife_link""",,0.345030215077,-0.409938380269,-0.801020703765,0.266965367053,"[0.0, 0.0, 0.0, 0.0, 0.0, 0.0, 0.0, 0.0, 0.0]",,-0.943254161855,0.208994669189,1.59652313231,"[0.0, 0.0, 0.0, 0.0, 0.0, 0.0, 0.0, 0.0, 0.0]",,-0.73623375,9.7771842,2.99401725,"[0.0, 0.0, 0.0, 0.0, 0.0, 0.0, 0.0, 0.0, 0.0]"
1555424577696689019,,20947,,1555424577,653453111,"""knife_link""",,0.343504411799,-0.41914159715,-0.785430702339,0.299037877929,"[0.0, 0.0, 0.0, 0.0, 0.0, 0.0, 0.0, 0.0, 0.0]",,0.0777634505653,0.764009371325,1.60350444931,"[0.0, 0.0, 0.0, 0.0, 0.0, 0.0, 0.0, 0.0, 0.0]",,-0.44174025,7.68628035,2.0025558,"[0.0, 0.0, 0.0, 0.0, 0.0, 0.0, 0.0, 0.0, 0.0]"
1555424577760922678,,20948,,1555424577,696033954,"""knife_link""",,0.34654237165,-0.429275540962,-0.771088141928,0.317889873951,"[0.0, 0.0, 0.0, 0.0, 0.0, 0.0, 0.0, 0.0, 0.0]",,0.329090862853,0.652308299197,0.990893881862,"[0.0, 0.0, 0.0, 0.0, 0.0, 0.0, 0.0, 0.0, 0.0]",,-0.50063895,8.5206786,1.8651255,"[0.0, 0.0, 0.0, 0.0, 0.0, 0.0, 0.0, 0.0, 0.0]"
1555424577802697887,,20949,,1555424577,760272979,"""knife_link""",,0.369938536202,-0.440158835899,-0.758987984925,0.305520731459,"[0.0, 0.0, 0.0, 0.0, 0.0, 0.0, 0.0, 0.0, 0.0]",,0.781131139121,0.489992678761,-0.39838820273,"[0.0, 0.0, 0.0, 0.0, 0.0, 0.0, 0.0, 0.0, 0.0]",,0.24541125,8.56976085,3.8087826,"[0.0, 0.0, 0.0, 0.0, 0.0, 0.0, 0.0, 0.0, 0.0]"
1555424577844958693,,20950,,1555424577,802134037,"""knife_link""",,0.38620040304,-0.443314000336,-0.754025223002,0.292861586546,"[0.0, 0.0, 0.0, 0.0, 0.0, 0.0, 0.0, 0.0, 0.0]",,0.678156713253,0.467303398485,-0.698584834074,"[0.0, 0.0, 0.0, 0.0, 0.0, 0.0, 0.0, 0.0, 0.0]",,1.0012779,7.23472365,4.13272545,"[0.0, 0.0, 0.0, 0.0, 0.0, 0.0, 0.0, 0.0, 0.0]"
1555424577908856134,,20951,,1555424577,844448089,"""knife_link""",,0.393451133744,-0.437180865893,-0.753413172767,0.294002868955,"[0.0, 0.0, 0.0, 0.0, 0.0, 0.0, 0.0, 0.0, 0.0]",,-0.129930730423,0.495228666517,-0.27621515509,"[0.0, 0.0, 0.0, 0.0, 0.0, 0.0, 0.0, 0.0, 0.0]",,0.588987,8.2850838,3.9462129,"[0.0, 0.0, 0.0, 0.0, 0.0, 0.0, 0.0, 0.0, 0.0]"
1555424577951409588,,20952,,1555424577,908345937,"""knife_link""",,0.415168383582,-0.430028625547,-0.750361764335,0.282254879688,"[0.0, 0.0, 0.0, 0.0, 0.0, 0.0, 0.0, 0.0, 0.0]",,0.199936498205,0.531880580809,-0.688112858562,"[0.0, 0.0, 0.0, 0.0, 0.0, 0.0, 0.0, 0.0, 0.0]",,0.97182855,10.06186125,3.5535549,"[0.0, 0.0, 0.0, 0.0, 0.0, 0.0, 0.0, 0.0, 0.0]"
1555424578036443258,,20953,,1555424577,950870037,"""knife_link""",,0.424305745008,-0.427642690403,-0.750735424551,0.271076901306,"[0.0, 0.0, 0.0, 0.0, 0.0, 0.0, 0.0, 0.0, 0.0]",,0.231352424741,0.238665266473,-0.714292797342,"[0.0, 0.0, 0.0, 0.0, 0.0, 0.0, 0.0, 0.0, 0.0]",,0.71660085,8.98205175,3.6124536,"[0.0, 0.0, 0.0, 0.0, 0.0, 0.0, 0.0, 0.0, 0.0]"
1555424578057648006,,20954,,1555424578,35814046,"""knife_link""",,0.424475670647,-0.424434659218,-0.755542820418,0.262356001641,"[0.0, 0.0, 0.0, 0.0, 0.0, 0.0, 0.0, 0.0, 0.0]",,-0.0304469630587,-0.0562953771146,-0.263997850326,"[0.0, 0.0, 0.0, 0.0, 0.0, 0.0, 0.0, 0.0, 0.0]",,0.81476535,9.4826907,3.3768588,"[0.0, 0.0, 0.0, 0.0, 0.0, 0.0, 0.0, 0.0, 0.0]"
1555424578100092295,,20955,,1555424578,57122945,"""knife_link""",,0.421401928231,-0.424283955075,-0.758312975368,0.259547629034,"[0.0, 0.0, 0.0, 0.0, 0.0, 0.0, 0.0, 0.0, 0.0]",,-0.156110669203,-0.223846985307,-0.339047008162,"[0.0, 0.0, 0.0, 0.0, 0.0, 0.0, 0.0, 0.0, 0.0]",,0.93256275,9.81645,3.1216311,"[0.0, 0.0, 0.0, 0.0, 0.0, 0.0, 0.0, 0.0, 0.0]"
1555424578164279106,,20956,,1555424578,99392890,"""knife_link""",,0.417607644327,-0.423181907569,-0.763546699245,0.252026519593,"[0.0, 0.0, 0.0, 0.0, 0.0, 0.0, 0.0, 0.0, 0.0]",,-0.0705895358547,-0.272716204363,-0.365226946942,"[0.0, 0.0, 0.0, 0.0, 0.0, 0.0, 0.0, 0.0, 0.0]",,0.44174025,9.21764655,3.2786943,"[0.0, 0.0, 0.0, 0.0, 0.0, 0.0, 0.0, 0.0, 0.0]"
1555424578206405432,,20957,,1555424578,163656949,"""knife_link""",,0.41359168371,-0.424544782419,-0.77012893442,0.235807275664,"[0.0, 0.0, 0.0, 0.0, 0.0, 0.0, 0.0, 0.0, 0.0]",,0.103943389345,-0.342529374443,-0.422822812258,"[0.0, 0.0, 0.0, 0.0, 0.0, 0.0, 0.0, 0.0, 0.0]",,0.22577835,9.98332965,3.3179601,"[0.0, 0.0, 0.0, 0.0, 0.0, 0.0, 0.0, 0.0, 0.0]"
1555424578249045637,,20958,,1555424578,205955028,"""knife_link""",,0.412710268147,-0.42774186748,-0.772296225395,0.224200066039,"[0.0, 0.0, 0.0, 0.0, 0.0, 0.0, 0.0, 0.0, 0.0]",,0.262768351277,-0.251772253339,-0.445512092534,"[0.0, 0.0, 0.0, 0.0, 0.0, 0.0, 0.0, 0.0, 0.0]",,-0.196329,9.031134,3.1805298,"[0.0, 0.0, 0.0, 0.0, 0.0, 0.0, 0.0, 0.0, 0.0]"
1555424578340638185,,20959,,1555424578,248394966,"""knife_link""",,0.406587033996,-0.428403895504,-0.77629206625,0.220290067823,"[0.0, 0.0, 0.0, 0.0, 0.0, 0.0, 0.0, 0.0, 0.0]",,-0.0775708528627,-0.305877460151,-0.113899534654,"[0.0, 0.0, 0.0, 0.0, 0.0, 0.0, 0.0, 0.0, 0.0]",,-0.7656831,8.6777418,2.87621985,"[0.0, 0.0, 0.0, 0.0, 0.0, 0.0, 0.0, 0.0, 0.0]"
1555424578355298862,,20960,,1555424578,339900970,"""knife_link""",,0.394809688104,-0.439303437897,-0.778416514513,0.212615920299,"[0.0, 0.0, 0.0, 0.0, 0.0, 0.0, 0.0, 0.0, 0.0]",,0.165029913165,-0.309368118655,0.0396894395222,"[0.0, 0.0, 0.0, 0.0, 0.0, 0.0, 0.0, 0.0, 0.0]",,-1.0994424,9.62993745,3.3179601,"[0.0, 0.0, 0.0, 0.0, 0.0, 0.0, 0.0, 0.0, 0.0]"
1555424578397365566,,20961,,1555424578,354779005,"""knife_link""",,0.392285353046,-0.44281608366,-0.778439342037,0.209900711304,"[0.0, 0.0, 0.0, 0.0, 0.0, 0.0, 0.0, 0.0, 0.0]",,0.386686728169,-0.319840094167,-0.10168222989,"[0.0, 0.0, 0.0, 0.0, 0.0, 0.0, 0.0, 0.0, 0.0]",,-1.24668915,9.3256275,3.4946562,"[0.0, 0.0, 0.0, 0.0, 0.0, 0.0, 0.0, 0.0, 0.0]"
1555424578482618486,,20962,,1555424578,396852970,"""knife_link""",,0.384465615335,-0.44632386471,-0.780478927602,0.209365331384,"[0.0, 0.0, 0.0, 0.0, 0.0, 0.0, 0.0, 0.0, 0.0]",,0.00620495123328,-0.304132130899,0.146154523894,"[0.0, 0.0, 0.0, 0.0, 0.0, 0.0, 0.0, 0.0, 0.0]",,-1.58044845,9.29617815,3.74006745,"[0.0, 0.0, 0.0, 0.0, 0.0, 0.0, 0.0, 0.0, 0.0]"
1555424578504904474,,20963,,1555424578,482110977,"""knife_link""",,0.379571234802,-0.446863136327,-0.780862697972,0.215621107546,"[0.0, 0.0, 0.0, 0.0, 0.0, 0.0, 0.0, 0.0, 0.0]",,-0.0862974991227,0.00130048820143,0.147899853146,"[0.0, 0.0, 0.0, 0.0, 0.0, 0.0, 0.0, 0.0, 0.0]",,-1.54118265,9.3059946,3.24924495,"[0.0, 0.0, 0.0, 0.0, 0.0, 0.0, 0.0, 0.0, 0.0]"
1555424578546600565,,20964,,1555424578,504005908,"""knife_link""",,0.379771185202,-0.446171604998,-0.781549017742,0.214209893914,"[0.0, 0.0, 0.0, 0.0, 0.0, 0.0, 0.0, 0.0, 0.0]",,-0.0740801943587,0.0763496460374,-0.25003521631,"[0.0, 0.0, 0.0, 0.0, 0.0, 0.0, 0.0, 0.0, 0.0]",,-0.99146145,8.8740708,3.0038337,"[0.0, 0.0, 0.0, 0.0, 0.0, 0.0, 0.0, 0.0, 0.0]"
1555424578609961514,,20965,,1555424578,545892000,"""knife_link""",,0.381577890042,-0.449352491745,-0.781498607355,0.204305111773,"[0.0, 0.0, 0.0, 0.0, 0.0, 0.0, 0.0, 0.0, 0.0]",,0.295929607065,-0.112145913179,-0.39838820273,"[0.0, 0.0, 0.0, 0.0, 0.0, 0.0, 0.0, 0.0, 0.0]",,-1.3939359,8.90352015,3.0430995,"[0.0, 0.0, 0.0, 0.0, 0.0, 0.0, 0.0, 0.0, 0.0]"
1555424578652643086,,20966,,1555424578,609380960,"""knife_link""",,0.388179094488,-0.466380310477,-0.776117287911,0.171605221387,"[0.0, 0.0, 0.0, 0.0, 0.0, 0.0, 0.0, 0.0, 0.0]",,0.915521491525,-0.312858777159,-0.702075492578,"[0.0, 0.0, 0.0, 0.0, 0.0, 0.0, 0.0, 0.0, 0.0]",,-0.91292985,10.5821331,2.60135925,"[0.0, 0.0, 0.0, 0.0, 0.0, 0.0, 0.0, 0.0, 0.0]"
1555424578695227688,,20967,,1555424578,652023077,"""knife_link""",,0.393723668189,-0.481708193325,-0.771260044264,0.134524472544,"[0.0, 0.0, 0.0, 0.0, 0.0, 0.0, 0.0, 0.0, 0.0]",,1.3745430848,-0.618291396259,-1.17855037837,"[0.0, 0.0, 0.0, 0.0, 0.0, 0.0, 0.0, 0.0, 0.0]",,1.570632,11.1514872,2.6308086,"[0.0, 0.0, 0.0, 0.0, 0.0, 0.0, 0.0, 0.0, 0.0]"
1555424578758745930,,20968,,1555424578,694612026,"""knife_link""",,0.392225735144,-0.506239059258,-0.763403823503,0.0842353241461,"[0.0, 0.0, 0.0, 0.0, 0.0, 0.0, 0.0, 0.0, 0.0]",,1.96620970123,-1.19425004942,-1.38449923011,"[0.0, 0.0, 0.0, 0.0, 0.0, 0.0, 0.0, 0.0, 0.0]",,-1.2368727,9.6790197,0.8049489,"[0.0, 0.0, 0.0, 0.0, 0.0, 0.0, 0.0, 0.0, 0.0]"
1555424578801643687,,20969,,1555424578,758069038,"""knife_link""",,0.386754863125,-0.512866751638,-0.765101288539,0.0448150553934,"[0.0, 0.0, 0.0, 0.0, 0.0, 0.0, 0.0, 0.0, 0.0]",,0.632778152701,-0.792824321459,-0.798068601438,"[0.0, 0.0, 0.0, 0.0, 0.0, 0.0, 0.0, 0.0, 0.0]",,-4.85914275,8.834805,3.56337135,"[0.0, 0.0, 0.0, 0.0, 0.0, 0.0, 0.0, 0.0, 0.0]"
1555424578844221456,,20970,,1555424578,800935983,"""knife_link""",,0.399789542172,-0.516919166692,-0.755853347252,0.0406031344005,"[0.0, 0.0, 0.0, 0.0, 0.0, 0.0, 0.0, 0.0, 0.0]",,0.477443849273,0.510936629785,-0.37220826395,"[0.0, 0.0, 0.0, 0.0, 0.0, 0.0, 0.0, 0.0, 0.0]",,-1.14852465,11.84845515,-0.4711896,"[0.0, 0.0, 0.0, 0.0, 0.0, 0.0, 0.0, 0.0, 0.0]"
1555424578907445368,,20971,,1555424578,843544006,"""knife_link""",,0.389082537548,-0.539100394764,-0.746949557394,0.007204307643,"[0.0, 0.0, 0.0, 0.0, 0.0, 0.0, 0.0, 0.0, 0.0]",,1.55605732701,-1.13490885485,-0.550231847654,"[0.0, 0.0, 0.0, 0.0, 0.0, 0.0, 0.0, 0.0, 0.0]",,-3.58300425,8.5206786,-2.355948,"[0.0, 0.0, 0.0, 0.0, 0.0, 0.0, 0.0, 0.0, 0.0]"
1555424578950027696,,20972,,1555424578,906933069,"""knife_link""",,0.379897646892,-0.548541345494,-0.744482161933,-0.0229451679904,"[0.0, 0.0, 0.0, 0.0, 0.0, 0.0, 0.0, 0.0, 0.0]",,0.681647371757,-0.700321871103,-0.469946702062,"[0.0, 0.0, 0.0, 0.0, 0.0, 0.0, 0.0, 0.0, 0.0]",,-4.2407064,9.04095045,3.6909852,"[0.0, 0.0, 0.0, 0.0, 0.0, 0.0, 0.0, 0.0, 0.0]"
1555424579014468422,,20973,,1555424578,949552059,"""knife_link""",,0.379766147066,-0.536610813461,-0.753145070207,-0.0244747143361,"[0.0, 0.0, 0.0, 0.0, 0.0, 0.0, 0.0, 0.0, 0.0]",,-0.587206994447,-0.248281594835,-0.260507191822,"[0.0, 0.0, 0.0, 0.0, 0.0, 0.0, 0.0, 0.0, 0.0]",,-4.44685185,6.58683795,0.5300883,"[0.0, 0.0, 0.0, 0.0, 0.0, 0.0, 0.0, 0.0, 0.0]"
1555424579056607842,,20974,,1555424579,13582944,"""knife_link""",,0.365461626177,-0.525644630712,-0.768071743798,-0.0141886706907,"[0.0, 0.0, 0.0, 0.0, 0.0, 0.0, 0.0, 0.0, 0.0]",,-0.630840225747,-0.387907934995,0.32592343685,"[0.0, 0.0, 0.0, 0.0, 0.0, 0.0, 0.0, 0.0, 0.0]",,-4.17199125,9.41397555,-0.24541125,"[0.0, 0.0, 0.0, 0.0, 0.0, 0.0, 0.0, 0.0, 0.0]"
1555424579141446758,,20975,,1555424579,56060075,"""knife_link""",,0.362435195389,-0.525944114103,-0.769430243999,-0.000785877113018,"[0.0, 0.0, 0.0, 0.0, 0.0, 0.0, 0.0, 0.0, 0.0]",,-0.300972997119,0.125218865093,0.516164325318,"[0.0, 0.0, 0.0, 0.0, 0.0, 0.0, 0.0, 0.0, 0.0]",,-3.91676355,8.72682405,-1.6098978,"[0.0, 0.0, 0.0, 0.0, 0.0, 0.0, 0.0, 0.0, 0.0]"
1555424579162447284,,20976,,1555424579,140849113,"""knife_link""",,0.387208918927,-0.494368947183,-0.774896994351,0.0721335241772,"[0.0, 0.0, 0.0, 0.0, 0.0, 0.0, 0.0, 0.0, 0.0]",,-1.26963073198,1.31378808571,0.732585152566,"[0.0, 0.0, 0.0, 0.0, 0.0, 0.0, 0.0, 0.0, 0.0]",,-4.27015575,9.2667288,2.3755809,"[0.0, 0.0, 0.0, 0.0, 0.0, 0.0, 0.0, 0.0, 0.0]"
1555424579205037495,,20977,,1555424579,161907911,"""knife_link""",,0.399687769116,-0.484059537808,-0.772436750263,0.0963198729211,"[0.0, 0.0, 0.0, 0.0, 0.0, 0.0, 0.0, 0.0, 0.0]",,-1.53317544903,2.2265952845,0.65753599473,"[0.0, 0.0, 0.0, 0.0, 0.0, 0.0, 0.0, 0.0, 0.0]",,-1.8258597,10.04222835,0.7460502,"[0.0, 0.0, 0.0, 0.0, 0.0, 0.0, 0.0, 0.0, 0.0]"
1555424579248019139,,20978,,1555424579,204524993,"""knife_link""",,0.420595277925,-0.484286530289,-0.759545916912,0.10796373868,"[0.0, 0.0, 0.0, 0.0, 0.0, 0.0, 0.0, 0.0, 0.0]",,0.149321949897,1.28586281767,-0.0667756448498,"[0.0, 0.0, 0.0, 0.0, 0.0, 0.0, 0.0, 0.0, 0.0]",,-2.34613155,10.27782315,1.34485365,"[0.0, 0.0, 0.0, 0.0, 0.0, 0.0, 0.0, 0.0, 0.0]"
1555424579311715154,,20979,,1555424579,247370004,"""knife_link""",,0.414247806922,-0.470554682122,-0.769872677923,0.119470102453,"[0.0, 0.0, 0.0, 0.0, 0.0, 0.0, 0.0, 0.0, 0.0]",,-0.993868710163,-0.0562953771146,0.121719914366,"[0.0, 0.0, 0.0, 0.0, 0.0, 0.0, 0.0, 0.0, 0.0]",,-0.5497212,8.80535565,2.11053675,"[0.0, 0.0, 0.0, 0.0, 0.0, 0.0, 0.0, 0.0, 0.0]"
1555424579353810892,,20980,,1555424579,311043024,"""knife_link""",,0.407072274948,-0.4915102844,-0.76158416599,0.112691443378,"[0.0, 0.0, 0.0, 0.0, 0.0, 0.0, 0.0, 0.0, 0.0]",,0.683392701009,-0.222101656055,0.182806438186,"[0.0, 0.0, 0.0, 0.0, 0.0, 0.0, 0.0, 0.0, 0.0]",,-1.177974,10.35635475,2.0810874,"[0.0, 0.0, 0.0, 0.0, 0.0, 0.0, 0.0, 0.0, 0.0]"
1555424579396558448,,20981,,1555424579,353238105,"""knife_link""",,0.397292013014,-0.501519028009,-0.762152783882,0.0987970392335,"[0.0, 0.0, 0.0, 0.0, 0.0, 0.0, 0.0, 0.0, 0.0]",,0.568200970377,-0.719520492875,-0.141824802686,"[0.0, 0.0, 0.0, 0.0, 0.0, 0.0, 0.0, 0.0, 0.0]",,-2.73878955,9.5023236,2.34613155,"[0.0, 0.0, 0.0, 0.0, 0.0, 0.0, 0.0, 0.0, 0.0]"
1555424579460580943,,20982,,1555424579,395996093,"""knife_link""",,0.391186420425,-0.505082680347,-0.765030136505,0.0812007433895,"[0.0, 0.0, 0.0, 0.0, 0.0, 0.0, 0.0, 0.0, 0.0]",,0.369233435649,-0.684613907835,-0.48565466533,"[0.0, 0.0, 0.0, 0.0, 0.0, 0.0, 0.0, 0.0, 0.0]",,-2.8467705,8.84462145,2.36576445,"[0.0, 0.0, 0.0, 0.0, 0.0, 0.0, 0.0, 0.0, 0.0]"
1555424579545217240,,20983,,1555424579,459908962,"""knife_link""",,0.381803223713,-0.505551837694,-0.771246872329,0.0618215147833,"[0.0, 0.0, 0.0, 0.0, 0.0, 0.0, 0.0, 0.0, 0.0]",,0.121396681865,-0.611310079251,-0.366972276194,"[0.0, 0.0, 0.0, 0.0, 0.0, 0.0, 0.0, 0.0, 0.0]",,-2.77805535,8.7366405,1.3939359,"[0.0, 0.0, 0.0, 0.0, 0.0, 0.0, 0.0, 0.0, 0.0]"
1555424579566699687,,20984,,1555424579,544626951,"""knife_link""",,0.402535973646,-0.491071357864,-0.766463400059,0.0966828204832,"[0.0, 0.0, 0.0, 0.0, 0.0, 0.0, 0.0, 0.0, 0.0]",,-0.545319092399,0.837313199909,0.233420986494,"[0.0, 0.0, 0.0, 0.0, 0.0, 0.0, 0.0, 0.0, 0.0]",,-2.7289731,9.9735132,-2.9842008,"[0.0, 0.0, 0.0, 0.0, 0.0, 0.0, 0.0, 0.0, 0.0]"
1555424579609313893,,20985,,1555424579,566003084,"""knife_link""",,0.402391522392,-0.494177029671,-0.76433561804,0.0982913477781,"[0.0, 0.0, 0.0, 0.0, 0.0, 0.0, 0.0, 0.0, 0.0]",,0.0917260845813,0.0588963535174,0.14266386539,"[0.0, 0.0, 0.0, 0.0, 0.0, 0.0, 0.0, 0.0, 0.0]",,-2.8664034,9.3059946,-1.766961,"[0.0, 0.0, 0.0, 0.0, 0.0, 0.0, 0.0, 0.0, 0.0]"
1555424579651494610,,20986,,1555424579,608683109,"""knife_link""",,0.396269027395,-0.489814492272,-0.769211051675,0.106616035701,"[0.0, 0.0, 0.0, 0.0, 0.0, 0.0, 0.0, 0.0, 0.0]",,-0.478996580823,-0.0877113036506,0.285780864054,"[0.0, 0.0, 0.0, 0.0, 0.0, 0.0, 0.0, 0.0, 0.0]",,-2.9645679,9.0507669,1.32522075,"[0.0, 0.0, 0.0, 0.0, 0.0, 0.0, 0.0, 0.0, 0.0]"
1555424579693901239,,20987,,1555424579,650651931,"""knife_link""",,0.391400933419,-0.487656134237,-0.772205601753,0.112673478162,"[0.0, 0.0, 0.0, 0.0, 0.0, 0.0, 0.0, 0.0, 0.0]",,-0.311444972631,-0.0667673526266,0.22120368173,"[0.0, 0.0, 0.0, 0.0, 0.0, 0.0, 0.0, 0.0, 0.0]",,-2.1007203,10.6802976,1.60008135,"[0.0, 0.0, 0.0, 0.0, 0.0, 0.0, 0.0, 0.0, 0.0]"
1555424579757722978,,20988,,1555424579,693324089,"""knife_link""",,0.38983978909,-0.488804803668,-0.772192881207,0.113194332748,"[0.0, 0.0, 0.0, 0.0, 0.0, 0.0, 0.0, 0.0, 0.0]",,-0.0129936705387,-0.0405874138466,0.0100188422382,"[0.0, 0.0, 0.0, 0.0, 0.0, 0.0, 0.0, 0.0, 0.0]",,-2.30686575,10.5428673,0.981645,"[0.0, 0.0, 0.0, 0.0, 0.0, 0.0, 0.0, 0.0, 0.0]"
1555424579800305116,,20989,,1555424579,757184028,"""knife_link""",,0.389056061542,-0.486298155928,-0.774451709605,0.111238635415,"[0.0, 0.0, 0.0, 0.0, 0.0, 0.0, 0.0, 0.0, 0.0]",,-0.102005462391,-0.0632766941226,-0.115644863906,"[0.0, 0.0, 0.0, 0.0, 0.0, 0.0, 0.0, 0.0, 0.0]",,-2.4737454,9.7379184,0.8049489,"[0.0, 0.0, 0.0, 0.0, 0.0, 0.0, 0.0, 0.0, 0.0]"
1555424579863834649,,20990,,1555424579,799649953,"""knife_link""",,0.388307241379,-0.489141906731,-0.773736475108,0.106252286839,"[0.0, 0.0, 0.0, 0.0, 0.0, 0.0, 0.0, 0.0, 0.0]",,0.170265900921,-0.134835193455,-0.181967375482,"[0.0, 0.0, 0.0, 0.0, 0.0, 0.0, 0.0, 0.0, 0.0]",,-1.91420775,9.04095045,0.8638476,"[0.0, 0.0, 0.0, 0.0, 0.0, 0.0, 0.0, 0.0, 0.0]"
