rosbagTimestamp,header,seq,stamp,secs,nsecs,frame_id,lwrist.x,lwrist.y,lwrist.z,rwrist.x,rwrist.y,rwrist.z,neck.x,neck.y,neck.z,nose.x,nose.y,nose.z,lelbow.x,lelbow.y,lelbow.z,relbow.x,-.3,name.3,x.3,y.3,z.3,-.4,name.4,x.4,y.4,z.4,-.5,name.5,x.5,y.5,z.5,-.6,name.6,x.6,y.6,z.6,-.7,name.7,x.7,y.7,z.7,-.8
1.57e+18,,8271.0,,1569261684.0,463715402.0,"""camera_color_frame""",1.174999952,-0.03656229,-0.154510915,1.190999985,0.26031354100000004,-0.135375395,1.184000015,0.132086754,0.168703675,1.10800004,0.150554627,0.235115767,1.309999943,-0.100233264,-0.034217015,1.269000053,0.413154244,-0.031088781,1.27699995,-0.02110232,0.184025183,1.223999977,0.293324798,0.17440313100000002,1.069000006,0.022198381,-0.213361248,1.126000047,0.187687099,-0.22838881600000002,1.092000008,0.12359374,0.268898219,1.100000024,0.18335329,0.270868182,1.161999941,0.073113047,0.303089917,1.103999972,0.209079236,0.287961513
1.57e+18,,8272.0,,1569261684.0,628529741.0,"""camera_color_frame""",1.167999983,-0.047706719,-0.147909701,1.182000041,0.30434018399999996,-0.13051986699999998,1.19599998,0.168329358,0.170413509,1.088000059,0.177825063,0.23439955699999998,1.287999988,-0.11107955900000001,-0.010673041000000001,1.271999955,0.463626772,-0.03322446,1.269000053,0.005776878,0.182872325,1.213999987,0.33816728,0.16904196100000002,1.248999953,0.066436879,-0.26143673100000003,1.174999952,0.235860839,-0.268806368,1.090000033,0.15164329099999999,0.273707092,1.083999991,0.205291554,0.266928285,1.159999967,0.108721212,0.30632945899999997,1.1100000140000001,0.25340762699999997,0.289526522
1.57e+18,,8273.0,,1569261684.0,795417383.0,"""camera_color_frame""",1.149000049,0.023859626000000002,-0.10638540199999999,1.144999981,0.326372564,-0.117152773,1.1770000459999999,0.200004622,0.171522602,1.08099997,0.202970758,0.243406653,1.284999967,-0.07123618599999999,-0.010648181999999999,1.2589999440000001,0.49154841899999996,-0.036967114,1.256000042,0.044408999000000005,0.18710765199999999,1.202999949,0.36826086,0.171410918,1.0579999690000002,0.07000009,-0.204304785,1.217000008,0.271915764,-0.27249571699999997,1.075000048,0.180929095,0.280397296,1.082999945,0.240220085,0.26843780300000003,1.174999952,0.142513052,0.323625088,1.101999998,0.283741862,0.287439853
1.57e+18,,8274.0,,1569261684.0,967060729.0,"""camera_color_frame""",1.136000037,0.104629986,-0.11991531400000001,1.138000011,0.335447669,-0.12197137599999999,1.174999952,0.237765908,0.16932623100000002,1.075000048,0.23495975100000002,0.24379845,1.292999983,-0.000402986,-0.027484294,1.243999958,0.505861282,-0.04459383,1.248999953,0.082637161,0.190114647,1.205000043,0.40599334200000003,0.17169588800000002,1.225999951,0.102980606,-0.27451089,1.143000007,0.29615166800000003,-0.278163105,1.065999985,0.21225266199999998,0.27977800399999997,1.065999985,0.26755929,0.265952319,1.146999955,0.176310197,0.319632232,1.093999982,0.315382898,0.285353184
1.57e+18,,8275.0,,1569261685.0,127028654.0,"""camera_color_frame""",1.1399999859999999,0.121633194,-0.125882104,1.159999967,0.377666593,-0.129971161,1.179999948,0.263648808,0.170046762,1.0729999540000001,0.257138491,0.23986575,1.2799999709999998,0.012052841000000002,-0.020982507999999997,1.256000042,0.533141196,-0.051132724000000004,1.228999972,0.107217818,0.18507790600000001,1.200000048,0.433492571,0.163201645,1.271999955,0.125405416,-0.274499744,1.264000058,0.35209506799999996,-0.280970186,1.0579999690000002,0.236390188,0.27767837,1.054999948,0.292166322,0.261497587,1.136000037,0.207772195,0.31472519,1.095999956,0.34972193799999995,0.282321155
1.57e+18,,8276.0,,1569261685.0,304556810.0,"""camera_color_frame""",1.0789999959999999,0.101129472,-0.152382776,1.1399999859999999,0.445087522,-0.125882104,1.1770000459999999,0.285878092,0.16770628099999998,1.06400001,0.284308195,0.239578798,1.2410000559999999,0.021745927999999998,-0.026378971,1.26699996,0.572732151,-0.051580540999999994,1.217000008,0.129848763,0.181297779,1.202999949,0.46383312299999996,0.153858051,0.961000025,0.133696511,-0.21517534600000002,1.269000053,0.372005016,-0.300597489,1.049000025,0.263292402,0.27531626800000003,1.0579999690000002,0.320442915,0.262241185,1.136000037,0.23171591800000002,0.31472519,1.075000048,0.365679085,0.266454875
1.57e+18,,8277.0,,1569261685.0,461265271.0,"""camera_color_frame""",1.0030000209999999,0.120025381,-0.183927581,1.1339999440000001,0.46480795700000005,-0.125219569,1.174999952,0.312063128,0.167421296,1.062000036,0.29410487399999996,0.24085018,1.152999997,0.065069221,-0.031985453999999996,1.2589999440000001,0.593610823,-0.051254857,1.200000048,0.159164384,0.188492551,1.200000048,0.482132316,0.15152891,0.9490000009999999,0.14741341800000002,-0.224796697,1.217000008,0.36268076299999996,-0.306036979,1.0460000040000001,0.276106656,0.274528891,1.052999973,0.332586586,0.259294719,1.120000005,0.250242919,0.31210821899999996,1.0789999959999999,0.384533852,0.258699894
1.57e+18,,8278.0,,1569261685.0,623643198.0,"""camera_color_frame""",1.00999999,0.11922550900000001,-0.178661525,1.151000023,0.468043685,-0.12896277,1.138000011,0.318842053,0.163994253,1.0579999690000002,0.289566398,0.236512542,1.172999978,0.058590654000000006,-0.032540277,1.261000037,0.59046483,-0.055424972999999995,1.1979999540000001,0.178322583,0.195947245,1.19599998,0.492159843,0.149084851,0.9580000040000001,0.15347112699999998,-0.219162986,1.261000037,0.381926775,-0.308924198,1.041000009,0.276474655,0.273216605,1.034999967,0.330257475,0.251506418,1.103999972,0.26277750699999997,0.307649523,1.077000022,0.403028935,0.265204579
1.57e+18,,8279.0,,1569261685.0,772505508.0,"""camera_color_frame""",1.034999967,0.033238851,-0.161270425,1.172999978,0.47698977600000003,-0.139034465,1.136000037,0.32380718,0.16186434,1.042000055,0.29870268699999997,0.232935786,1.182000041,0.041792545,-0.015543488999999999,1.269000053,0.59215337,-0.053719282,1.1979999540000001,0.178322583,0.190120608,1.18900001,0.49891808600000004,0.146284655,1.27699995,0.152813971,-0.267297596,1.205000043,0.345428735,-0.295205116,1.034999967,0.283271492,0.26996392,1.018000007,0.32813400000000004,0.247375399,1.085999966,0.272579163,0.306154758,1.07099998,0.41120228200000003,0.260254472
1.57e+18,,8280.0,,1569261685.0,932431845.0,"""camera_color_frame""",1.018000007,-0.046531525,-0.163572729,1.157999992,0.45774772799999996,-0.146643355,1.129999995,0.312936455,0.161009416,1.04400003,0.299276024,0.22322762,1.1399999859999999,0.00334132,-0.0020539079999999997,1.235999942,0.586774409,-0.064345241,1.19599998,0.168329358,0.189803213,1.179999948,0.498967916,0.145177364,1.274000049,0.146258265,-0.26873508100000004,1.190999985,0.33562246,-0.295637101,1.031999946,0.280777216,0.26918143,1.01699996,0.327811658,0.24383485300000002,1.090000033,0.264746934,0.303748161,1.059999943,0.396667272,0.255862981
1.57e+18,,8281.0,,1569261686.0,94250835.0,"""camera_color_frame""",0.986000001,-0.011497688999999998,-0.17761312399999998,1.123999953,0.44066306899999996,-0.142337754,1.129999995,0.309272259,0.161009416,1.042000055,0.290255606,0.224489272,1.123999953,0.019695748,-0.009314052,1.228999972,0.587436438,-0.061988354,1.190999985,0.161832646,0.18900972600000002,1.174999952,0.49113845799999994,0.146467134,1.238999963,0.146257833,-0.27340433,1.1339999440000001,0.32691428100000003,-0.292518944,1.0299999709999998,0.275223166,0.268659741,1.021999955,0.32776632899999997,0.248347402,1.090000033,0.25414344699999997,0.301981032,1.067999959,0.396197855,0.25952547800000003
1.57e+18,,8282.0,,1569261686.0,261434922.0,"""camera_color_frame""",0.9810000059999999,0.001284774,-0.175122038,1.126000047,0.441447169,-0.14076554800000002,1.129999995,0.309272259,0.161009416,1.0340000390000001,0.294732958,0.222765744,1.1280000209999999,0.019765839,-0.00751847,1.223999977,0.583062053,-0.059751797,1.18599999,0.161153242,0.188216224,1.184000015,0.49490037600000003,0.14758901300000002,1.269000053,0.15185664599999998,-0.26768037699999997,1.207000017,0.347959012,-0.299608707,1.027999997,0.2780222,0.26813808100000003,1.021999955,0.32776632899999997,0.248347402,1.093999982,0.255076081,0.303089231,1.059999943,0.393230081,0.261018425
1.57e+18,,8283.0,,1569261686.0,429696305.0,"""camera_color_frame""",1.0030000209999999,0.015949287,-0.177423269,1.152999997,0.45203247700000004,-0.146010175,1.1339999440000001,0.314044178,0.16157937,1.036999941,0.297269374,0.231818065,1.138000011,0.018096,-0.016809821000000003,1.2410000559999999,0.58713603,-0.06259360900000001,1.18599999,0.164999023,0.188216224,1.184000015,0.49490037600000003,0.14758901300000002,1.2589999440000001,0.150659978,-0.269653231,1.172999978,0.338157356,-0.29497239,1.034999967,0.281593412,0.26996392,1.021999955,0.329423308,0.251661152,1.101999998,0.260514766,0.30530559999999995,1.054999948,0.39137521399999997,0.256366462
1.57e+18,,8284.0,,1569261686.0,604231146.0,"""camera_color_frame""",1.1160000559999999,0.017746165,-0.141324684,1.146999955,0.44968017899999996,-0.143390834,1.1339999440000001,0.314044178,0.16157937,1.041000009,0.298416048,0.236087605,1.235999942,0.011638525,-0.008238324,1.253999949,0.593286514,-0.055117302,1.190999985,0.165694639,0.18707884800000002,1.184000015,0.496820033,0.14758901300000002,1.261000037,0.15089930599999998,-0.27417028,1.225999951,0.35741189100000004,-0.300349772,1.0340000390000001,0.281321347,0.271379411,1.024999976,0.33039030399999997,0.252399892,1.093999982,0.260397285,0.304862827,1.067999959,0.399661005,0.262988389
1.57e+18,,8285.0,,1569261686.0,755187346.0,"""camera_color_frame""",1.202999949,-0.021829931,-0.14064002,1.151000023,0.447516084,-0.1457569,1.151000023,0.298224479,0.164001629,1.054999948,0.26821935199999997,0.239262655,1.2960000040000001,0.012203502,0.014473759,1.253999949,0.587187111,-0.055117302,1.218999982,0.145873323,0.19147701600000003,1.18599999,0.47843033100000004,0.147838309,1.213999987,0.125592098,-0.271824002,1.143000007,0.2942985,-0.283722252,1.042000055,0.256467193,0.27178975899999996,1.0299999709999998,0.30361256,0.25029140699999997,1.07099998,0.239294797,0.294980824,1.0729999540000001,0.382395566,0.259000927
1.57e+18,,8286.0,,1569261686.0,915145773.0,"""camera_color_frame""",1.200000048,-0.021775492,-0.15779838,1.144999981,0.39691641899999996,-0.14499709,1.1710000040000001,0.280623645,0.166851357,1.067999959,0.23862449800000002,0.233553648,1.315000057,-0.004673928,0.008290269,1.222000003,0.56031549,-0.059654165,1.243999958,0.126678765,0.185320005,1.190999985,0.457275361,0.15039244300000001,1.253999949,0.123630807,-0.27061530899999997,1.164000034,0.30159279699999997,-0.277612448,1.052999973,0.223322257,0.26441612800000003,1.047999978,0.273236305,0.251267374,1.082999945,0.20685806899999998,0.282483995,1.095999956,0.353275895,0.269883215
1.57e+18,,8287.0,,1569261687.0,68912006.0,"""camera_color_frame""",1.212000012,-0.021993246,-0.15348163199999998,1.179999948,0.340175331,-0.132212043,1.149000049,0.232504696,0.16371665900000001,1.077000022,0.20396587300000002,0.216315299,1.325999975,-0.054160195999999994,-0.010987928999999999,1.246000052,0.52283597,-0.052745648,1.251000047,0.08682604099999999,0.180278391,1.207000017,0.406667203,0.158283234,1.281999946,0.109762989,-0.270422578,1.1770000459999999,0.280153185,-0.27308026,1.059999943,0.18527892199999998,0.24727053899999998,1.057000041,0.23616676,0.234575376,1.095999956,0.16847077,0.27166006,1.09800005,0.312975615,0.265035421
1.57e+18,,8288.0,,1569261687.0,237344880.0,"""camera_color_frame""",1.202999949,-0.047185831,-0.152341917,1.184000015,0.247265682,-0.132660225,1.152999997,0.180971265,0.160548091,1.085999966,0.166933626,0.19523467100000003,1.315000057,-0.12620034800000002,-0.000237307,1.243999958,0.441319585,-0.072828867,1.264000058,0.038543794,0.18215179399999998,1.217000008,0.35084185,0.157621607,1.105999947,0.057037230999999994,-0.249435037,1.131999969,0.22906468800000002,-0.280991763,1.06400001,0.144575924,0.229228973,1.0729999540000001,0.20146866100000002,0.215511888,1.093999982,0.118498914,0.264069885,1.118000031,0.266109824,0.248112842
1.57e+18,,8289.0,,1569261687.0,398736861.0,"""camera_color_frame""",1.18900001,-0.062058747000000004,-0.17370049699999998,1.174999952,0.197759703,-0.129746899,1.1339999440000001,0.137540266,0.15422554300000002,1.088000059,0.131961033,0.177955434,1.292999983,-0.17859470800000002,-0.010714474,1.230999947,0.39279899,-0.076059215,1.261000037,-0.006526486,0.175586417,1.217000008,0.307432503,0.157621607,1.083999991,0.024267381,-0.249745578,1.123999953,0.194643199,-0.28265044100000003,1.07099998,0.110798307,0.211637557,1.07099998,0.166364357,0.197747007,1.1100000140000001,0.080639236,0.258934259,1.1100000140000001,0.22461289199999998,0.231941074
1.57e+18,,8290.0,,1569261687.0,563609199.0,"""camera_color_frame""",1.18900001,-0.071697526,-0.17948335399999998,1.18900001,0.18662171100000002,-0.113944225,1.105999947,0.110832796,0.154003635,1.088000059,0.112557009,0.17089991300000001,1.27699995,-0.19501860399999998,-0.016792754,1.233999968,0.377750546,-0.060239967,1.2410000559999999,-0.034591872,0.17078961399999998,1.222000003,0.27699542,0.17411816100000002,1.083999991,0.003177185,-0.233929023,1.164000034,0.17703612100000002,-0.273838252,1.054999948,0.09032757599999999,0.19479280699999998,1.075000048,0.14607060000000002,0.188028738,1.105999947,0.057037230999999994,0.252621979,1.100000024,0.19405403699999998,0.219151512
1.57e+18,,8291.0,,1569261687.0,729631891.0,"""camera_color_frame""",1.18599999,-0.073439516,-0.19056704600000002,1.1710000040000001,0.17999933699999998,-0.108422376,1.09800005,0.094009176,0.149329498,1.085999966,0.10002479,0.158261299,1.26699996,-0.209925205,-0.033093858999999996,1.2410000559999999,0.3738572,-0.052533988,1.230999947,-0.048284087,0.167417675,1.217000008,0.265996307,0.17340572199999998,1.077000022,-0.0038280000000000002,-0.22718028699999998,1.223999977,0.170285672,-0.27406308100000004,1.062000036,0.075430281,0.18919836,1.067999959,0.132998422,0.17814709199999998,1.105999947,0.040898561,0.250828922,1.1100000140000001,0.18502013399999998,0.21574515100000002
1.57e+18,,8292.0,,1569261687.0,907972298.0,"""camera_color_frame""",1.18900001,-0.07940854900000001,-0.192976698,1.184000015,0.181997627,-0.10962604,1.090000033,0.09332422900000001,0.155309975,1.090000033,0.09332422900000001,0.157077089,1.269000053,-0.214371502,-0.039318055,1.233999968,0.37174841799999997,-0.05023708599999999,1.238999963,-0.046589054000000005,0.17654041899999998,1.217000008,0.256130517,0.17340572199999998,1.08099997,-0.00559487,-0.228024036,1.202999949,0.169314563,-0.273261666,1.052999973,0.069669276,0.18759498,1.075000048,0.126898438,0.17757192300000002,1.092000008,0.03329891,0.24234277,1.100000024,0.17265254300000002,0.212018177
1.57e+18,,8293.0,,1569261688.0,61985142.0,"""camera_color_frame""",1.190999985,-0.077611119,-0.193301305,1.18599999,0.182305053,-0.09442915800000001,1.090000033,0.08625525199999999,0.151775733,1.085999966,0.08769948,0.15650066699999998,1.269000053,-0.214371502,-0.04343269,1.243999958,0.37476095600000003,-0.042577042999999995,1.235999942,-0.060503952,0.162086233,1.213999987,0.24959428600000003,0.174946412,1.083999991,-0.000337848,-0.23217164,1.18900001,0.182766199,-0.27200916399999997,1.052999973,0.062840261,0.18759498,1.065999985,0.118922703,0.177813485,1.09800005,0.024580797,0.24723450800000002,1.09800005,0.16521777199999998,0.211632684
1.57e+18,,8294.0,,1569261688.0,236722321.0,"""camera_color_frame""",1.190999985,-0.073749125,-0.193301305,1.184000015,0.199274465,-0.073155247,1.083999991,0.082265422,0.149182871,1.08099997,0.075027138,0.155780122,1.2799999709999998,-0.218305022,-0.052109782,1.235999942,0.38036674299999995,-0.028276507000000003,1.230999947,-0.064250901,0.161430538,1.210000038,0.24877189100000002,0.172408313,1.07099998,-0.0038066740000000003,-0.23806887899999998,1.205000043,0.177410841,-0.275669515,1.052999973,0.052596725999999996,0.18247357,1.067999959,0.10702479599999999,0.174684182,1.0789999959999999,0.017157808,0.232460588,1.100000024,0.161951795,0.213801503
1.57e+18,,8295.0,,1569261688.0,400410241.0,"""camera_color_frame""",1.18599999,-0.077285297,-0.19825807199999998,1.1710000040000001,0.17430362100000002,-0.091336414,1.07099998,0.074333087,0.14913010599999998,1.07099998,0.069123767,0.14913010599999998,1.269000053,-0.216428965,-0.055776599999999996,1.217000008,0.36662706700000003,-0.031787865,1.230999947,-0.072234303,0.16342625,1.200000048,0.240879163,0.172928914,1.0789999959999999,-0.017830387,-0.24159646,1.1979999540000001,0.158899114,-0.27601033399999997,1.0460000040000001,0.045463458,0.17108582,1.049000025,0.096616946,0.166474551,1.07099998,0.004875521,0.222055465,1.085999966,0.145804524,0.202277213
1.57e+18,,8296.0,,1569261688.0,569639728.0,"""camera_color_frame""",1.190999985,-0.077611119,-0.204886496,1.184000015,0.16088149,-0.15761391800000002,1.07099998,0.07086020700000001,0.145657465,1.0729999540000001,0.05707508,0.140710786,1.271999955,-0.216940612,-0.05590846,1.218999982,0.349442035,-0.035792622999999996,1.223999977,-0.081746057,0.15654385099999998,1.192999959,0.235605553,0.169986054,1.083999991,-0.028458109,-0.24095860100000002,1.146999955,0.131678358,-0.273557961,1.0460000040000001,0.036983926,0.16769425599999999,1.052999973,0.08844908300000001,0.160280809,1.07099998,0.003139082,0.211637557,1.095999956,0.145370141,0.20413979899999998
1.57e+18,,8297.0,,1569261688.0,732556133.0,"""camera_color_frame""",1.18599999,-0.071516626,-0.20018082899999998,1.152999997,0.18657942100000002,-0.168441266,1.100000024,0.070995465,0.146034837,1.088000059,0.06845697,0.156788886,1.274000049,-0.215216145,-0.055996366,1.228999972,0.34633082200000004,-0.028116366,1.230999947,-0.084209412,0.15344770300000002,1.210000038,0.231115669,0.174369991,1.077000022,-0.017797336,-0.24638678100000003,1.1280000209999999,0.145956814,-0.272683948,1.059999943,0.040916141,0.188842058,1.06400001,0.096273415,0.18265478300000001,1.090000033,0.0014275260000000001,0.238364682,1.103999972,0.14822118,0.223528057
1.57e+18,,8298.0,,1569261688.0,902695664.0,"""camera_color_frame""",1.18599999,-0.061902165,-0.171339467,1.159999967,0.229088381,-0.12809056,1.138000011,0.075293101,0.154769555,1.093999982,0.07592940299999999,0.180710405,1.289999962,-0.213735998,-0.04624280000000001,1.251000047,0.360643506,-0.024563396,1.246000052,-0.083215348,0.15733751699999998,1.222000003,0.24133275399999998,0.176099271,1.090000033,0.0014275260000000001,-0.24052520100000002,1.200000048,0.18640263399999998,-0.276471108,1.077000022,0.052049345999999996,0.20933111,1.092000008,0.109429851,0.21047622,1.1219999790000001,0.003288562,0.265371531,1.103999972,0.150011122,0.25037533
1.57e+18,,8299.0,,1569261689.0,60422392.0,"""camera_color_frame""",1.151000023,-0.01528789,-0.106570579,1.159999967,0.23473058600000002,-0.105523281,1.157999992,0.08037135,0.15936695,1.09800005,0.083327889,0.195611864,1.27699995,-0.17431429,-0.054057937,1.271999955,0.36669749,-0.027037912999999997,1.253999949,-0.075617068,0.164446712,1.233999968,0.249704793,0.177828565,1.105999947,-0.018276558999999998,-0.23688361,1.164000034,0.17514888899999997,-0.273838252,1.088000059,0.05610895900000001,0.230871797,1.090000033,0.11453115900000001,0.225994825,1.131999969,0.016165251000000002,0.275077552,1.111999989,0.156506896,0.261203587
1.57e+18,,8300.0,,1569261689.0,235890690.0,"""camera_color_frame""",1.1549999709999998,0.001512654,-0.116303444,1.179999948,0.240690842,-0.107342646,1.166000009,0.094159842,0.160467923,1.09800005,0.095789395,0.202732235,1.274000049,-0.1532491,-0.055996366,1.30400002,0.37592259,-0.029832172999999997,1.238999963,-0.060650807,0.16448833,1.246000052,0.260213703,0.17955786,1.08099997,-0.010852826999999999,-0.24029174399999997,1.149000049,0.180343434,-0.274034947,1.075000048,0.074610703,0.23508442899999998,1.090000033,0.130436361,0.23129619699999998,1.1399999859999999,0.029217668,0.277021557,1.095999956,0.170247748,0.26277580899999997
1.57e+18,,8301.0,,1569261689.0,395217224.0,"""camera_color_frame""",1.1710000040000001,-0.044032108,-0.14449273,1.210000038,0.26054272100000003,-0.115956701,1.136000037,0.102788158,0.15818095199999999,1.082999945,0.113795638,0.18942803100000002,1.289999962,-0.16144827,-0.033694617,1.312000036,0.38248321399999996,-0.025761131,1.235999942,-0.042468332000000004,0.170101508,1.253999949,0.278149575,0.17867770800000002,1.093999982,-0.003888424,-0.228992626,1.246000052,0.191527903,-0.276969016,1.07099998,0.091697477,0.22379179300000002,1.0789999959999999,0.14661411900000001,0.21321842100000002,1.1399999859999999,0.051397394000000006,0.277021557,1.095999956,0.19334837800000002,0.24500732100000003
1.57e+18,,8302.0,,1569261689.0,561866770.0,"""camera_color_frame""",1.190999985,-0.085335113,-0.14889143400000002,1.210000038,0.231115669,-0.112033367,1.111999989,0.100616574,0.14582514800000002,1.08099997,0.120596096,0.169800371,1.299000025,-0.198378369,-0.012870148,1.281999946,0.38828718700000003,-0.033485658,1.238999963,-0.042571410999999997,0.17252305199999998,1.228999972,0.272604316,0.163160741,1.085999966,0.0014222879999999999,-0.24316380899999998,1.246000052,0.187487558,-0.278989047,1.054999948,0.102301061,0.19821356199999998,1.067999959,0.152045757,0.186804369,1.105999947,0.058830417999999995,0.258001149,1.067999959,0.18148252399999998,0.205850378
1.57e+18,,8303.0,,1569261689.0,732229779.0,"""camera_color_frame""",1.1770000459999999,-0.086240314,-0.147141248,1.200000048,0.196130589,-0.11499837800000001,1.083999991,0.094568036,0.136881113,1.07099998,0.114271186,0.13523955599999998,1.274000049,-0.23793739100000003,-0.01055703,1.27699995,0.380561501,-0.056128225999999996,1.223999977,-0.046025023,0.16646567,1.218999982,0.264457047,0.151951864,1.085999966,-0.019706819,-0.232600003,1.228999972,0.15504041300000002,-0.279167563,1.039000034,0.09401135099999999,0.16488757699999998,1.0460000040000001,0.145521909,0.15073636199999998,1.093999982,0.056418382,0.232144982,,,
1.57e+18,,8304.0,,1569261689.0,900097355.0,"""camera_color_frame""",1.179999948,-0.090286456,-0.151342347,1.205000043,0.187179312,-0.11547754,1.04400003,0.09107843800000001,0.128445059,1.057000041,0.111063704,0.107767396,1.248999953,-0.25554367899999997,-0.028573913,1.256000042,0.366157711,-0.061313938,1.213999987,-0.053522155,0.153296754,1.210000038,0.256619096,0.139059991,1.075000048,-0.021250136,-0.218044385,1.2589999440000001,0.160866216,-0.279858738,1.031999946,0.09337797800000001,0.13198795900000002,1.0299999709999998,0.138286054,0.12171307199999999,1.067999959,0.055077542,0.205850378,,,
1.57e+18,,8305.0,,1569261690.0,63449607.0,"""camera_color_frame""",1.18599999,-0.09651421,-0.157880157,1.192999959,0.179512575,-0.114327557,1.021999955,0.08750216699999999,0.11911085199999999,1.0579999690000002,0.11116877900000001,0.078710228,1.248999953,-0.257568717,-0.034648597,1.248999953,0.36006695,-0.071096689,1.207000017,-0.057127424,0.146542415,1.205000043,0.259466082,0.130671114,1.069000006,-0.029797512999999998,-0.218560472,1.284999967,0.16210492,-0.277305156,1.031999946,0.08835835,0.111910865,1.031999946,0.136881366,0.098526135,1.052999973,0.054303980999999994,0.180766433,,,
1.57e+18,,8306.0,,1569261690.0,234724994.0,"""camera_color_frame""",1.18599999,-0.09651421,-0.157880157,1.18900001,0.17698292399999999,-0.113944225,1.00999999,0.084837206,0.11280001699999999,1.049000025,0.09491618,0.079741322,1.243999958,-0.258554548,-0.038543466,1.251000047,0.35861524899999997,-0.069182396,1.207000017,-0.059084363,0.148499221,1.205000043,0.24774391899999998,0.126763985,1.082999945,-0.033699542,-0.233713225,1.230999947,0.149305165,-0.275630444,1.011999965,0.085005201,0.109742045,,,,1.04400003,0.052147184000000006,0.167373613,,,
1.57e+18,,8307.0,,1569261690.0,399996750.0,"""camera_color_frame""",1.18900001,-0.09483058800000001,-0.160207137,1.19599998,0.17996399100000002,-0.110737115,1.01699996,0.082127415,0.111933023,1.050999999,0.10361720599999999,0.071373887,1.246000052,-0.265030742,-0.044665527000000003,1.256000042,0.360048562,-0.069458909,1.205000043,-0.06484755099999999,0.138485357,1.202999949,0.251233637,0.124603279,1.085999966,-0.035553649,-0.222036183,1.300999999,0.162013993,-0.280757993,1.021999955,0.08253118400000001,0.100885183,1.021999955,0.12395604,0.092600785,1.054999948,0.045854636,0.16742675,,,
1.57e+18,,8308.0,,1569261690.0,564880479.0,"""camera_color_frame""",1.184000015,-0.09443181,-0.163372472,1.184000015,0.174319029,-0.10962604,1.013000011,0.081804395,0.111492775,1.050999999,0.098505169,0.069669992,1.246000052,-0.267050892,-0.044665527000000003,1.256000042,0.360048562,-0.07149515299999999,1.18900001,-0.063986503,0.136646539,1.202999949,0.25318408,0.130454227,1.090000033,-0.035684604,-0.22815536,1.292999983,0.161017761,-0.279031575,1.019999981,0.082369678,0.09903411599999999,1.0149999859999999,0.11981573699999999,0.09196653199999999,1.0340000390000001,0.049971238,0.169123083,,,
1.57e+18,,8309.0,,1569261690.0,734273332.0,"""camera_color_frame""",1.182000041,-0.09427229300000001,-0.165012777,1.1710000040000001,0.17240504899999998,-0.108422376,1.018000007,0.082208164,0.11369348300000001,1.052999973,0.09698536199999999,0.07150970400000001,1.251000047,-0.266094267,-0.044844761,1.243999958,0.35459166799999997,-0.072828867,1.213999987,-0.06336359700000001,0.147392288,1.1979999540000001,0.25213179,0.129912034,1.067999959,-0.033232789,-0.223550379,1.284999967,0.15585470199999998,-0.279388428,1.021999955,0.08253118400000001,0.0992283,1.0149999859999999,0.11487879599999999,0.09032100400000001,1.039000034,0.051897436,0.166572005,,,
1.57e+18,,8310.0,,1569261690.0,902685318.0,"""camera_color_frame""",1.179999948,-0.096025944,-0.1666466,1.184000015,0.174319029,-0.10962604,1.008000016,0.081400618,0.112576649,1.047999978,0.10162229099999999,0.069471121,1.248999953,-0.265668839,-0.046797961,1.238999963,0.355175287,-0.072536141,1.207000017,-0.062998243,0.142628819,1.19599998,0.251710862,0.12969514699999998,1.0729999540000001,-0.029909009,-0.217638731,1.32099998,0.164504603,-0.274365932,1.021999955,0.08253118400000001,0.097571425,1.013000011,0.11957964300000001,0.090143032,1.0299999709999998,0.049777925,0.163459286,,,
1.57e+18,,8311.0,,1569261691.0,62074578.0,"""camera_color_frame""",1.179999948,-0.094112784,-0.1666466,1.179999948,0.16033797,-0.12647295,1.0,0.083997235,0.11006197300000001,1.0460000040000001,0.101428352,0.064251184,1.243999958,-0.264605314,-0.04661062,1.235999942,0.34629946899999997,-0.072360508,1.19599998,-0.06436321099999999,0.137451023,1.190999985,0.252589554,0.129152939,1.083999991,-0.030215625,-0.22689946,1.264000058,0.149208948,-0.272773325,1.0149999859999999,0.081965901,0.095257595,1.01699996,0.120051824,0.08885019999999999,1.049000025,0.04389308,0.164773911,,,
1.57e+18,,8312.0,,1569261691.0,238571363.0,"""camera_color_frame""",1.18599999,-0.09459132,-0.165571198,1.18599999,0.164999023,-0.152111888,1.00999999,0.081562132,0.117712289,1.047999978,0.09482569199999999,0.088160455,1.246000052,-0.256950051,-0.042645495,1.251000047,0.34644556,-0.07121053299999999,1.218999982,-0.059671777999999995,0.151951864,1.190999985,0.252589554,0.129152939,1.092000008,-0.03575008,-0.24627763,1.1399999859999999,0.121633194,-0.27558484699999997,1.01699996,0.085425183,0.111933023,,,,1.0340000390000001,0.051647689000000004,0.18085742,,,
1.57e+18,,8313.0,,1569261691.0,397775828.0,"""camera_color_frame""",1.182000041,-0.09618870199999999,-0.163096502,1.18599999,0.184227943,-0.150189131,1.021999955,0.085845172,0.125738367,1.062000036,0.104701683,0.096225083,1.251000047,-0.255952865,-0.034704078,1.256000042,0.349866629,-0.059277695,1.217000008,-0.05562757,0.15367557099999998,1.205000043,0.24774391899999998,0.134578228,1.085999966,-0.030271374,-0.236121267,1.157999992,0.136696175,-0.264917254,1.027999997,0.08301571,0.124809951,1.041000009,0.124572702,0.114574514,1.054999948,0.045854636,0.196503192,,,
1.57e+18,,8314.0,,1569261691.0,566695594.0,"""camera_color_frame""",1.182000041,-0.09618870199999999,-0.165012777,1.18900001,0.182766199,-0.123582333,1.039000034,0.080534898,0.127829909,1.069000006,0.096725829,0.100325488,1.251000047,-0.255952865,-0.034704078,1.2589999440000001,0.35478478700000005,-0.053295962999999995,1.210000038,-0.059231214000000004,0.150829986,1.213999987,0.245657712,0.147392288,1.083999991,-0.026700592000000002,-0.23920121800000002,1.1979999540000001,0.153072059,-0.274068117,1.041000009,0.075626522,0.131451324,1.0460000040000001,0.123475134,0.11682061099999999,1.08099997,0.034716132999999996,0.199593395,,,
1.57e+18,,8315.0,,1569261691.0,736641904.0,"""camera_color_frame""",1.18900001,-0.09675834300000001,-0.167917624,1.1979999540000001,0.176380232,-0.118691139,1.0340000390000001,0.07847088599999999,0.12553840900000002,1.06400001,0.09282323699999999,0.096406296,1.261000037,-0.257998854,-0.045203230999999996,1.271999955,0.354323536,-0.05590846,1.225999951,-0.06398993,0.15282443199999998,1.212000012,0.245252997,0.139289841,1.083999991,-0.028458109,-0.228656843,1.2960000040000001,0.16139134800000002,-0.281780094,1.039000034,0.073796675,0.12614546699999998,1.041000009,0.11950931,0.114574514,1.075000048,0.034523446,0.189771548,,,
1.57e+18,,8316.0,,1569261691.0,907795132.0,"""camera_color_frame""",1.18599999,-0.09651421,-0.171339467,1.192999959,0.17757833,-0.116261661,1.023000002,0.072660245,0.119227394,1.052999973,0.090156339,0.091995344,1.251000047,-0.255952865,-0.046872899,1.264000058,0.35414442399999996,-0.055556834000000006,1.213999987,-0.065331884,0.149360448,1.205000043,0.243836522,0.132624671,1.085999966,-0.024989096000000002,-0.229078725,1.2960000040000001,0.163492575,-0.279679,1.034999967,0.071834497,0.11391414,1.023000002,0.104173943,0.112593397,1.052999973,0.03723143,0.184180707,,,
1.57e+18,,8317.0,,1569261692.0,63279882.0,"""camera_color_frame""",1.190999985,-0.096921101,-0.17206180100000001,1.190999985,0.17341862600000002,-0.11027416599999999,1.013000011,0.070307575,0.116419643,1.059999943,0.090755671,0.07885901599999999,1.256000042,-0.261048645,-0.053168967000000004,1.26699996,0.354984969,-0.059796847,1.210000038,-0.074925639,0.135136649,1.207000017,0.244241223,0.132844791,1.092000008,-0.033979591,-0.235655442,1.287999988,0.152042031,-0.280040711,1.023000002,0.071001627,0.10595939300000001,1.02699995,0.10957656800000001,0.09804877599999999,1.059999943,0.032323118,0.17337569600000002,,,
1.57e+18,,8318.0,,1569261692.0,236326276.0,"""camera_color_frame""",1.192999959,-0.09708385900000001,-0.172350749,1.190999985,0.167625636,-0.114135891,1.00999999,0.071736902,0.117712289,1.052999973,0.08844908300000001,0.080045387,1.261000037,-0.26004335300000003,-0.053380627,1.256000042,0.347830236,-0.055205211,1.212000012,-0.06522426,0.149114385,1.200000048,0.242824748,0.132074371,1.090000033,-0.035684604,-0.24052520100000002,1.284999967,0.151687905,-0.279388428,1.019999981,0.070793413,0.10564866699999999,,,,1.054999948,0.03388115,0.174268261,,,
1.57e+18,,8319.0,,1569261692.0,404358069.0,"""camera_color_frame""",1.192999959,-0.09708385900000001,-0.172350749,1.18599999,0.174613491,-0.10981121699999999,1.00999999,0.070099361,0.117712289,1.0460000040000001,0.082773387,0.08629642400000001,1.261000037,-0.26004335300000003,-0.053380627,1.251000047,0.348473847,-0.054985445,1.213999987,-0.067300178,0.149360448,1.205000043,0.243836522,0.132624671,1.08099997,-0.03538996,-0.235034153,1.287999988,0.156218573,-0.280040711,1.019999981,0.06748591400000001,0.110609576,,,,1.04400003,0.033527885,0.18091397,,,
1.57e+18,,8320.0,,1569261692.0,568809078.0,"""camera_color_frame""",1.18900001,-0.09675834300000001,-0.171772867,1.18900001,0.173127413,-0.110088989,1.008000016,0.069960549,0.11747919,1.050999999,0.083169058,0.081597246,1.251000047,-0.260009438,-0.052957308,1.246000052,0.347081065,-0.054765679000000005,1.217000008,-0.067466483,0.15170255300000002,1.202999949,0.24148136399999998,0.132404551,1.082999945,-0.035455436,-0.231957451,1.264000058,0.159455732,-0.280970186,1.019999981,0.06748591400000001,0.107302301,,,,1.0299999709999998,0.033078279,0.17514823399999999,,,
1.57e+18,,8321.0,,1569261692.0,733248626.0,"""camera_color_frame""",1.192999959,-0.09708385900000001,-0.172350749,1.192999959,0.175644085,-0.10852523900000001,1.008000016,0.066691957,0.11747919,1.04400003,0.079229794,0.086131424,1.253999949,-0.26063296199999997,-0.053084303,1.256000042,0.35190302100000004,-0.053168967000000004,1.222000003,-0.073687449,0.1503447,1.200000048,0.23698797800000002,0.132074371,1.0789999959999999,-0.035324483999999996,-0.231100738,1.2410000559999999,0.148505986,-0.277869523,1.013000011,0.067022771,0.10985048900000001,,,,1.027999997,0.033014048,0.17980794600000002,,,
1.57e+18,,8322.0,,1569261692.0,909808939.0,"""camera_color_frame""",1.18900001,-0.09675834300000001,-0.171772867,1.184000015,0.174319029,-0.10962604,1.006999969,0.069891147,0.11736264800000001,,,,1.256000042,-0.261048645,-0.053168967000000004,1.253999949,0.349309504,-0.055117302,1.210000038,-0.07100203599999999,0.148868322,1.200000048,0.238933578,0.132074371,1.082999945,-0.035455436,-0.231957451,1.284999967,0.15585470199999998,-0.279388428,,,,,,,1.042000055,0.033463657,0.180567399,,,
1.57e+18,,8323.0,,1569261693.0,63908155.0,"""camera_color_frame""",1.190999985,-0.09885209800000001,-0.17206180100000001,1.190999985,0.167625636,-0.11027416599999999,1.006999969,0.069891147,0.11736264800000001,1.047999978,0.081232503,0.086461425,1.2589999440000001,-0.26575464,-0.053295962999999995,1.253999949,0.34727639,-0.055117302,1.212000012,-0.06718930599999999,0.151079297,1.200000048,0.240879163,0.132074371,1.082999945,-0.035455436,-0.23546899899999998,1.287999988,0.156218573,-0.280040711,1.0149999859999999,0.06715510000000001,0.11006736800000001,,,,1.042000055,0.033463657,0.180567399,,,
1.57e+18,,8324.0,,1569261693.0,237429388.0,"""camera_color_frame""",1.190999985,-0.096921101,-0.17206180100000001,1.190999985,0.17341862600000002,-0.108343303,1.013000011,0.070307575,0.11806193,1.050999999,0.088281095,0.079893358,1.256000042,-0.259012252,-0.053168967000000004,1.253999949,0.34727639,-0.053084303,1.212000012,-0.078979582,0.14125473800000002,1.200000048,0.240879163,0.132074371,1.095999956,-0.035881031,-0.234741807,1.309999943,0.154639021,-0.276328862,1.023000002,0.06768439700000001,0.110934898,1.00999999,0.10121259099999999,0.109525166,1.050999999,0.030344662999999997,0.18042311100000002,,,
1.57e+18,,8325.0,,1569261693.0,403353715.0,"""camera_color_frame""",1.190999985,-0.096921101,-0.17206180100000001,1.18900001,0.167344153,-0.110088989,1.0149999859999999,0.070446387,0.116649494,1.059999943,0.08903706800000001,0.07885901599999999,1.256000042,-0.259012252,-0.053168967000000004,1.246000052,0.341020554,-0.054765679000000005,1.213999987,-0.07910990700000001,0.139519691,1.200000048,0.23698797800000002,0.13401982199999998,1.082999945,-0.035455436,-0.23546899899999998,1.271999955,0.150153309,-0.280686289,1.02699995,0.067949049,0.108038686,1.031999946,0.10843683800000001,0.098526135,1.0460000040000001,0.031896207,0.179564759,,,
1.57e+18,,8326.0,,1569261693.0,565332195.0,"""camera_color_frame""",1.192999959,-0.09708385900000001,-0.172350749,1.184000015,0.174319029,-0.10962604,1.00999999,0.070099361,0.11607486,1.054999948,0.088617079,0.07848704599999999,1.253999949,-0.26063296199999997,-0.053084303,1.246000052,0.351121426,-0.052745648,1.202999949,-0.07839309400000001,0.138255507,1.1979999540000001,0.242420048,0.13185423599999999,1.085999966,-0.035553649,-0.241403177,1.243999958,0.154915765,-0.278541237,1.023000002,0.06768439700000001,0.10595939300000001,1.0299999709999998,0.108226694,0.096665345,1.052999973,0.030402409,0.179059297,,,
1.57e+18,,8327.0,,1569261693.0,738094106.0,"""camera_color_frame""",1.1979999540000001,-0.097490743,-0.17307308300000002,1.1979999540000001,0.16084145,-0.141997695,1.00999999,0.066824287,0.117712289,,,,1.248999953,-0.263643801,-0.052872643,1.2410000559999999,0.337640017,-0.060581684000000004,1.202999949,-0.070591278,0.148007095,1.1979999540000001,0.24047769600000002,0.13185423599999999,1.1160000559999999,-0.04558279,-0.264355242,1.126000047,0.12013945,-0.275851429,,,,,,,,,,,,
1.57e+18,,8328.0,,1569261693.0,904382344.0,"""camera_color_frame""",1.19599998,-0.095388889,-0.17278415,1.184000015,0.164720789,-0.149935856,1.024999976,0.072802298,0.12112223400000001,1.0579999690000002,0.088869072,0.092432171,1.264000058,-0.258612663,-0.051458410999999996,1.2589999440000001,0.342537314,-0.053295962999999995,1.218999982,-0.067577362,0.14997559800000002,1.205000043,0.23797543300000001,0.140438914,1.09800005,-0.041287154,-0.265431702,1.1160000559999999,0.120881893,-0.27340158800000003,1.034999967,0.06847835299999999,0.115592092,1.027999997,0.108016543,0.11147709900000001,1.057000041,0.033945378,0.18488036100000002,,,
1.57e+18,,8329.0,,1569261694.0,71400801.0,"""camera_color_frame""",1.19599998,-0.095388889,-0.17278415,1.1770000459999999,0.18092162899999997,-0.147141248,1.039000034,0.07211211299999999,0.12951433699999998,1.0579999690000002,0.082007624,0.109584592,1.269000053,-0.255520731,-0.051661965,1.253999949,0.343210101,-0.044952303,1.222000003,-0.065762408,0.154306948,1.213999987,0.23581627,0.151328593,1.100000024,-0.036011986,-0.251648515,1.164000034,0.131742775,-0.273838252,1.041000009,0.067187525,0.131451324,1.0340000390000001,0.101941191,0.128891081,1.075000048,0.022322975,0.205456778,,,
1.57e+18,,8330.0,,1569261694.0,236643914.0,"""camera_color_frame""",1.192999959,-0.09708385900000001,-0.16461432,1.192999959,0.193052262,-0.116261661,1.0729999540000001,0.064033806,0.13375254,1.08099997,0.08203774700000001,0.118976988,1.2799999709999998,-0.247359157,-0.054184935999999996,1.271999955,0.348136544,-0.03322446,1.230999947,-0.08221355799999999,0.15145199,1.222000003,0.22944520399999999,0.154306948,1.085999966,-0.02146758,-0.24844571899999998,1.213999987,0.153148144,-0.27576032300000003,1.054999948,0.059538618,0.150322959,1.067999959,0.110487945,0.138323635,1.088000059,0.017300922,0.209705248,1.088000059,0.146073043,0.155025005
1.57e+18,,8331.0,,1569261694.0,403983431.0,"""camera_color_frame""",1.144999981,-0.087608464,-0.128290504,1.19599998,0.20129413899999998,-0.09134741099999999,1.103999972,0.062303919000000006,0.139406592,1.085999966,0.082417198,0.149458125,1.269000053,-0.22054387600000003,-0.053719282,1.269000053,0.34731549,-0.018744871,1.238999963,-0.084756665,0.15444491800000001,1.233999968,0.231698349,0.16182395800000002,1.1160000559999999,-0.031107599,-0.242643952,1.233999968,0.16567474599999998,-0.276302159,1.07099998,0.060441572,0.17691119,1.065999985,0.112009376,0.16917242100000002,1.105999947,0.01758715,0.23110523800000002,1.103999972,0.146431223,0.18236224399999998
1.57e+18,,8332.0,,1569261694.0,570710973.0,"""camera_color_frame""",1.105999947,-0.088210791,-0.11854159800000001,1.202999949,0.204422727,-0.076279514,1.1339999440000001,0.060319792000000004,0.146871731,1.092000008,0.088184007,0.17329858199999998,1.243999958,-0.228300616,-0.032493102999999995,1.2799999709999998,0.356551975,-0.010606748999999999,1.243999958,-0.085098706,0.157084972,1.261000037,0.23267895,0.179675117,1.1160000559999999,-0.029298201,-0.240834683,1.338000059,0.190484285,-0.28006592399999997,1.075000048,0.067639008,0.205456778,1.090000033,0.121600136,0.19418664300000002,1.1280000209999999,0.017936986000000002,0.255818278,1.103999972,0.14822118,0.212789148
1.57e+18,,8333.0,,1569261694.0,737229603.0,"""camera_color_frame""",1.052999973,-0.072032906,-0.12651813,1.217000008,0.216667473,-0.075194202,1.144999981,0.064617738,0.15572156,1.101999998,0.096138351,0.180245295,1.213999987,-0.216890112,-0.027773203,1.2960000040000001,0.365211368,-0.008638241999999999,1.230999947,-0.08221355799999999,0.159434825,1.271999955,0.234708652,0.18124246600000002,1.065999985,-0.026257224,-0.23004460300000001,1.309999943,0.17587839100000002,-0.276328862,1.083999991,0.076992869,0.214206457,1.093999982,0.130915031,0.203767285,1.143000007,0.023735031,0.27033838600000004,,,
1.57e+18,,8334.0,,1569261694.0,905900955.0,"""camera_color_frame""",1.0579999690000002,-0.086097836,-0.132264599,1.222000003,0.23935149600000002,-0.087389864,1.136000037,0.073318951,0.150814161,1.103999972,0.110632375,0.18057242,1.230999947,-0.209948033,-0.02816212,1.332000017,0.371036917,0.008397443000000001,1.228999972,-0.07610216,0.163160741,1.274000049,0.23920883199999998,0.177396595,1.08099997,-0.024874046,-0.256064534,1.179999948,0.150772154,-0.26995024100000004,1.08099997,0.087295704,0.217118695,1.092000008,0.144839585,0.208705857,1.1399999859999999,0.036610909,0.273325205,1.120000005,0.170344025,0.215873048
1.57e+18,,8335.0,,1569261695.0,69541115.0,"""camera_color_frame""",1.052999973,-0.077154674,-0.135053813,1.235999942,0.26814511399999996,-0.08839105800000001,1.146999955,0.075888567,0.150414973,1.101999998,0.11400535,0.180245295,1.223999977,-0.208754167,-0.031970706,1.35800004,0.37167409100000004,0.010762964,1.225999951,-0.067965418,0.168725282,1.274000049,0.24333997100000002,0.169134885,1.083999991,-0.030215625,-0.25853255399999997,1.152999997,0.132367179,-0.265642673,1.0789999959999999,0.092382424,0.21321842100000002,1.095999956,0.147147104,0.19880925100000002,1.1339999440000001,0.041933969,0.26637128,1.09800005,0.16877819600000002,0.209852591
1.57e+18,,8336.0,,1569261695.0,238210844.0,"""camera_color_frame""",1.075000048,-0.06656616900000001,-0.141361058,1.235999942,0.274156988,-0.094402514,1.151000023,0.08175165200000001,0.152805537,1.093999982,0.129141301,0.173615977,1.212000012,-0.204742521,-0.031657267,1.376999974,0.37464168700000006,0.01091355,1.218999982,-0.06362456799999999,0.16776192199999998,1.27699995,0.24391298,0.175744027,1.049000025,-0.019035408,-0.246783793,1.1979999540000001,0.16084145,-0.274068117,1.075000048,0.10598334699999999,0.207199574,1.090000033,0.15871226800000002,0.19595377100000003,1.1280000209999999,0.047198660999999996,0.255818278,,,
1.57e+18,,8337.0,,1569261695.0,402049887.0,"""camera_color_frame""",1.0789999959999999,-0.00033628900000000003,-0.143636331,1.243999958,0.279965311,-0.095013529,1.157999992,0.08037135,0.153734848,1.101999998,0.130085647,0.17488557100000002,1.182000041,-0.186259791,-0.051952671,1.379999995,0.37322047399999997,0.008700054,1.225999951,-0.06398993,0.168725282,1.271999955,0.242957965,0.175055921,,,,1.138000011,0.15094088,-0.271411479,1.0789999959999999,0.104628295,0.20797056,1.088000059,0.158421054,0.200885847,1.126000047,0.041638136,0.255364686,,,
1.57e+18,,8338.0,,1569261695.0,571861834.0,"""camera_color_frame""",1.0579999690000002,0.016823875,-0.147701785,1.246000052,0.284455776,-0.095166288,1.1399999859999999,0.082818672,0.155041561,1.101999998,0.11400535,0.17488557100000002,1.1770000459999999,-0.15875569,-0.049824741,1.376999974,0.37464168700000006,0.0064487319999999996,1.218999982,-0.057695385,0.17369069199999998,1.2799999709999998,0.24863658800000002,0.178232059,1.092000008,-0.030438619,-0.253359079,1.149000049,0.159851506,-0.262858331,1.0789999959999999,0.090633012,0.206221268,1.09800005,0.147415623,0.19739195699999998,1.136000037,0.040166099,0.259474277,1.090000033,0.165781245,0.20832361300000002
1.57e+18,,8339.0,,1569261695.0,737272130.0,"""camera_color_frame""",1.131999969,-0.077437088,-0.141515628,1.253999949,0.274083287,-0.10797530400000001,1.129999995,0.08209219599999999,0.146353662,1.090000033,0.11806564800000001,0.158844218,1.264000058,-0.213526845,-0.028917076,1.368000031,0.372193038,-0.00024687200000000003,1.222000003,-0.061799890999999996,0.160250306,1.269000053,0.254729718,0.166413784,1.092000008,-0.026897645,-0.251588732,1.207000017,0.15422202599999998,-0.278083861,1.07099998,0.098643236,0.19253805300000001,1.088000059,0.153129041,0.181483179,1.120000005,0.055943335999999996,0.25400397199999997,,,
1.57e+18,,8340.0,,1569261695.0,908780643.0,"""camera_color_frame""",1.212000012,-0.082909673,-0.17509564800000002,1.251000047,0.23083375399999997,-0.123942085,1.105999947,0.083935015,0.13786608,1.08099997,0.117090791,0.140007362,1.2960000040000001,-0.197920218,-0.031750243,1.32099998,0.36154747,-0.032362711,1.230999947,-0.060259197,0.159434825,1.2410000559999999,0.251121253,0.152682304,1.095999956,-0.030550115,-0.245402887,1.190999985,0.159901649,-0.282121032,1.047999978,0.098223992,0.171412945,1.06400001,0.149751201,0.15505527,1.105999947,0.057037230999999994,0.23110523800000002,,,
1.57e+18,,8341.0,,1569261696.0,72408561.0,"""camera_color_frame""",1.212000012,-0.080944628,-0.194744736,1.213999987,0.202355355,-0.130117089,1.062000036,0.089205064,0.12549445,1.067999959,0.113951094,0.108888909,1.292999983,-0.195365697,-0.054735251,1.289999962,0.369795084,-0.052516889000000004,1.217000008,-0.049708113,0.155648589,1.223999977,0.249665752,0.134715855,1.09800005,-0.028825648,-0.247630805,1.202999949,0.155661389,-0.277162284,1.039000034,0.09401135099999999,0.136252105,1.04400003,0.14524366,0.12167488,1.083999991,0.055902675,0.20014730100000003,,,
1.57e+18,,8342.0,,1569261696.0,239749862.0,"""camera_color_frame""",1.202999949,-0.082294002,-0.193298608,1.212000012,0.198091894,-0.124008,1.0299999709999998,0.089857079,0.113363832,1.059999943,0.113097534,0.07885901599999999,1.284999967,-0.20249055300000002,-0.056479853,1.271999955,0.36463517,-0.064157188,1.207000017,-0.059084363,0.140672013,1.212000012,0.260973364,0.11767583300000001,1.090000033,-0.025081137000000003,-0.251127928,1.1770000459999999,0.148480535,-0.28071293199999997,1.0299999709999998,0.09319701,0.11169397800000001,1.027999997,0.13968426,0.096477643,1.075000048,0.057181462999999995,0.186285943,,,
1.57e+18,,8343.0,,1569261696.0,404799843.0,"""camera_color_frame""",1.202999949,-0.082294002,-0.18354702,1.207000017,0.18553304699999998,-0.125453219,1.019999981,0.08898468300000001,0.11226321,1.052999973,0.11405791300000001,0.066388294,1.284999967,-0.21290756800000002,-0.054396596,1.269000053,0.365832627,-0.074292466,1.200000048,-0.058741704000000006,0.137910724,1.205000043,0.259466082,0.11308907,1.092000008,-0.030438619,-0.244507268,1.207000017,0.146394268,-0.27612707,1.02699995,0.094590664,0.099713765,1.024999976,0.13927662400000002,0.08954912400000001,1.069000006,0.058595505,0.16964852800000002,,,
1.57e+18,,8344.0,,1569261696.0,569119937.0,"""camera_color_frame""",1.1979999540000001,-0.081951968,-0.18278414,1.202999949,0.184918195,-0.11918651300000001,1.006999969,0.091115914,0.109199844,1.049000025,0.11872695400000001,0.059333502999999996,1.274000049,-0.219347283,-0.051865518,1.261000037,0.363526344,-0.073824115,1.190999985,-0.05637013900000001,0.136876404,1.200000048,0.260335058,0.112619817,1.093999982,-0.028720638,-0.24495507800000002,1.207000017,0.144437328,-0.280040681,1.0149999859999999,0.098422348,0.09196653199999999,1.019999981,0.13859722,0.079190478,1.057000041,0.061365228,0.16603052599999998,,,
1.57e+18,,8345.0,,1569261696.0,739159961.0,"""camera_color_frame""",1.19599998,-0.081815153,-0.18441796300000002,1.1979999540000001,0.184149623,-0.118691139,1.006999969,0.091115914,0.10593472400000001,1.04400003,0.113083065,0.059050694,1.26699996,-0.220196292,-0.045418315,1.2589999440000001,0.36294978899999997,-0.073707022,1.184000015,-0.05603883,0.13223289,1.190999985,0.258382559,0.111775167,1.09800005,-0.034166295,-0.25119099,1.18599999,0.143847227,-0.279013902,1.0149999859999999,0.098422348,0.09196653199999999,1.00999999,0.135600895,0.078414105,1.057000041,0.057937745,0.162603274,,,
1.57e+18,,8346.0,,1569261696.0,908933236.0,"""camera_color_frame""",1.19599998,-0.081815153,-0.18441796300000002,1.19599998,0.181903094,-0.116554022,0.996999979,0.09182754900000001,0.108115435,1.036999941,0.108962215,0.058654759,1.2589999440000001,-0.218805954,-0.051254857,1.256000042,0.362084925,-0.073531389,1.18599999,-0.05613349,0.13822452699999999,1.192999959,0.258816451,0.11196287,1.103999972,-0.036142938,-0.248983979,1.18900001,0.142283335,-0.281647295,1.001999974,0.09716177,0.09078864,1.0030000209999999,0.13303489999999998,0.076244563,1.052999973,0.054303980999999994,0.158573672,,,
1.57e+18,,8347.0,,1569261697.0,68648387.0,"""camera_color_frame""",1.200000048,-0.082088783,-0.185034752,1.19599998,0.18578129999999998,-0.108798146,1.0030000209999999,0.08750160000000001,0.108766079,1.0299999709999998,0.106556728,0.06326837099999999,1.274000049,-0.221412852,-0.051865518,1.26699996,0.371418715,-0.06185092,1.179999948,-0.057762675,0.139438272,1.18900001,0.2598764,0.111587472,1.092000008,-0.028668132000000002,-0.248047993,1.202999949,0.155661389,-0.277162284,1.0030000209999999,0.09238017400000001,0.090879247,,,,,,,,,
1.57e+18,,8348.0,,1569261697.0,242026772.0,"""camera_color_frame""",1.202999949,-0.082294002,-0.185497329,1.190999985,0.181142628,-0.11027416599999999,1.0030000209999999,0.085875414,0.110392153,,,,1.271999955,-0.22725223,-0.05590846,1.2589999440000001,0.36090853799999995,-0.07166592,1.190999985,-0.05637013900000001,0.146530718,1.190999985,0.258382559,0.111775167,1.093999982,-0.034041826000000004,-0.246728688,1.207000017,0.146394268,-0.280040681,,,,,,,,,,,,
1.57e+18,,8349.0,,1569261697.0,405965392.0,"""camera_color_frame""",1.200000048,-0.082088783,-0.185034752,1.19599998,0.18384219699999998,-0.11461505300000001,0.999000013,0.085532941,0.108332314,1.027999997,0.104683101,0.061478912999999996,1.27699995,-0.22193422899999998,-0.054057937,1.261000037,0.363526344,-0.069735415,1.190999985,-0.062163137,0.13880726699999998,1.18599999,0.25729781399999996,0.11130592199999999,1.093999982,-0.034041826000000004,-0.25027591,1.210000038,0.14675812400000002,-0.27877503600000003,1.004999995,0.086046651,0.09106046,,,,1.019999981,0.057563402,0.163525939,,,
1.57e+18,,8350.0,,1569261697.0,570329989.0,"""camera_color_frame""",1.200000048,-0.082088783,-0.186980203,1.19599998,0.181903094,-0.110737115,0.989000022,0.08307326599999999,0.107247911,,,,1.269000053,-0.22260133899999998,-0.055776599999999996,1.246000052,0.359202087,-0.06890589,1.18599999,-0.058056381,0.143992797,1.18900001,0.25794866699999996,0.111587472,1.085999966,-0.026749855,-0.250206351,1.18599999,0.151538789,-0.27516838899999996,,,,,,,,,,,,
1.57e+18,,8351.0,,1569261697.0,734675230.0,"""camera_color_frame""",1.202999949,-0.082294002,-0.19134828399999998,1.192999959,0.179512575,-0.110459343,0.986000001,0.082821272,0.106922589,,,,1.261000037,-0.225287005,-0.055424972999999995,1.238999963,0.35718411200000005,-0.070527464,1.190999985,-0.062163137,0.14073813,1.184000015,0.25686392199999997,0.11111822,1.085999966,-0.026749855,-0.250206351,1.205000043,0.15201278,-0.275669515,,,,,,,,,,,,
1.57e+18,,8352.0,,1569261697.0,908682252.0,"""camera_color_frame""",1.1979999540000001,-0.081951968,-0.190552995,1.18900001,0.169271901,-0.11587184699999999,0.9810000059999999,0.08240128299999999,0.106380381,,,,1.2799999709999998,-0.22868149,-0.060410387999999995,1.243999958,0.35660859899999997,-0.072828867,1.19599998,-0.062424105,0.141328961,1.182000041,0.254513621,0.11093051699999999,1.077000022,-0.030020505,-0.248132825,1.213999987,0.145274997,-0.279696614,,,,,,,,,,,,
1.57e+18,,8353.0,,1569261698.0,62107616.0,"""camera_color_frame""",1.200000048,-0.082088783,-0.19087111899999998,1.18599999,0.168844804,-0.115579493,0.9810000059999999,0.08240128299999999,0.106380381,,,,1.264000058,-0.22787232699999999,-0.05965526,1.230999947,0.352881968,-0.07206779,1.190999985,-0.05637013900000001,0.146530718,1.1710000040000001,0.252145052,0.10989817199999999,1.082999945,-0.035455436,-0.24775941699999998,1.192999959,0.14082776,-0.276792467,,,,,,,,,,,,
1.57e+18,,8354.0,,1569261698.0,221825803.0,"""camera_color_frame""",1.202999949,-0.082294002,-0.19134828399999998,1.190999985,0.159901649,-0.150822297,0.9919999840000001,0.080108546,0.107573234,1.027999997,0.089682601,0.064812124,1.264000058,-0.223773628,-0.055556834000000006,1.233999968,0.34773981600000003,-0.07624457,1.1979999540000001,-0.06252849099999999,0.145449728,1.1770000459999999,0.253437012,0.110461272,1.100000024,-0.037795443,-0.260565192,1.143000007,0.127512798,-0.278163105,,,,,,,,,,,,
1.57e+18,,8355.0,,1569261698.0,374840899.0,"""camera_color_frame""",1.207000017,-0.082567632,-0.182200506,1.190999985,0.159901649,-0.14696057099999998,1.041000009,0.087441117,0.126388282,1.050999999,0.108729243,0.107155658,1.281999946,-0.218646124,-0.052191205,1.253999949,0.343210101,-0.0652823,1.205000043,-0.062893853,0.156067401,1.1979999540000001,0.250189424,0.13185423599999999,1.101999998,-0.036077462000000005,-0.25567922,1.120000005,0.119499281,-0.274381518,1.0299999709999998,0.089857079,0.13006231199999999,1.0149999859999999,0.13462653800000002,0.12487714,1.04400003,0.060610499000000005,0.18937669699999998,,,
1.57e+18,,8356.0,,1569261698.0,541673627.0,"""camera_color_frame""",1.217000008,-0.08719801199999999,-0.17779099899999998,1.200000048,0.163055554,-0.134452924,1.100000024,0.072778925,0.142468169,1.07099998,0.10732542699999999,0.152602732,1.2960000040000001,-0.21473011399999997,-0.04015461,1.248999953,0.34386667600000004,-0.05084775,1.217000008,-0.073385946,0.16945968600000003,1.213999987,0.229911402,0.157233045,1.1100000140000001,-0.04173838,-0.253936231,1.120000005,0.114051625,-0.274381518,1.052999973,0.08844908300000001,0.18247357,1.059999943,0.137157992,0.169938728,1.100000024,0.03889323,0.236984849,,,
1.57e+18,,8357.0,,1569261698.0,707434730.0,"""camera_color_frame""",1.217000008,-0.08325170700000001,-0.179764017,1.179999948,0.166077465,-0.151342347,1.144999981,0.059048489,0.157577857,1.09800005,0.08866853300000001,0.188491508,1.2960000040000001,-0.202122688,-0.046457883,1.243999958,0.340473175,-0.032493102999999995,1.251000047,-0.091662385,0.170137703,1.233999968,0.219694063,0.175827995,1.120000005,-0.043930285,-0.256223947,1.146999955,0.114941426,-0.26983889899999997,1.077000022,0.067764848,0.22155343,1.088000059,0.121377014,0.21146912899999998,1.129999995,0.017968789,0.270927608,1.10800004,0.148758203,0.227930546
1.57e+18,,8358.0,,1569261698.0,877221139.0,"""camera_color_frame""",1.218999982,-0.081412129,-0.178083181,1.18900001,0.178910688,-0.123582333,1.19599998,0.051983073,0.170413509,1.126000047,0.074499153,0.218854994,1.309999943,-0.200058252,-0.040588379,1.261000037,0.341036946,-0.012493654,1.269000053,-0.105326042,0.17258572600000002,1.261000037,0.21427851899999997,0.183763817,1.10800004,-0.036273889,-0.24808979,1.179999948,0.13164050900000002,-0.26803720000000003,1.103999972,0.049774319000000004,0.252165139,1.120000005,0.110419855,0.25037244,1.164000034,-0.000362781,0.296063244,1.1339999440000001,0.135701686,0.259017467
1.57e+18,,8359.0,,1569261699.0,40462433.0,"""camera_color_frame""",1.213999987,-0.08304648099999999,-0.17932088699999998,1.18599999,0.182305053,-0.12711603900000001,1.2410000559999999,0.047902763,0.17682538899999997,1.136000037,0.05858435099999999,0.23737391800000002,1.317999959,-0.201279983,-0.040836245,1.264000058,0.343897671,0.007968745,1.281999946,-0.110562108,0.178510532,1.26699996,0.213243872,0.18874633300000002,1.10800004,-0.036273889,-0.239108264,1.164000034,0.131742775,-0.24930606800000002,1.129999995,0.039953955,0.274591565,1.138000011,0.095588848,0.272845685,1.18599999,-0.013829879,0.31127271100000004,1.167999983,0.13408921699999998,0.289506346
1.57e+18,,8360.0,,1569261699.0,207779809.0,"""camera_color_frame""",1.210000038,-0.08081105400000001,-0.182653368,1.190999985,0.20817659800000002,-0.100619845,1.251000047,0.044232212,0.174193978,1.151000023,0.050027188,0.246106312,1.309999943,-0.200058252,-0.046959743,1.271999955,0.348136544,0.00801918,1.287999988,-0.11943262800000001,0.175169766,1.27699995,0.208715633,0.186095476,1.138000011,-0.046481375,-0.247427255,1.256000042,0.140119061,-0.27308315,1.1399999859999999,0.019976115,0.28071793899999997,1.152999997,0.080024317,0.28391909600000004,1.192999959,-0.027451188999999997,0.31117579300000003,0.0,0.0,0.0
1.57e+18,,8361.0,,1569261699.0,374779170.0,"""camera_color_frame""",1.212000012,-0.078979582,-0.177060544,1.212000012,0.245252997,-0.057201087000000005,1.2589999440000001,0.040432576,0.17530793,1.149000049,0.040625747000000004,0.25312975,1.30400002,-0.203370363,-0.05308684,1.325999975,0.360766053,0.034156345,1.287999988,-0.129873961,0.162641034,1.287999988,0.20633696,0.191874728,1.090000033,-0.019779405,-0.24405944300000001,1.335000038,0.166248024,-0.279437989,1.151000023,0.010838141,0.283426613,1.146999955,0.06287095,0.286160707,1.212000012,-0.041643705,0.312201858,1.167999983,0.10189618199999999,0.312229246
1.57e+18,,8362.0,,1569261699.0,540460442.0,"""camera_color_frame""",1.146999955,-0.043129655999999995,-0.10991928699999999,1.200000048,0.21753208300000001,-0.062471103,1.261000037,0.038452312,0.17149771800000002,1.151000023,0.036964171000000004,0.261034429,1.292999983,-0.21213668600000002,-0.063120157,1.3470000030000002,0.34245637100000004,0.010675782,1.281999946,-0.12926895900000002,0.159804985,1.292999983,0.200848848,0.188427135,1.256000042,-0.057410214,-0.277155638,1.2960000040000001,0.157188877,-0.279679,1.152999997,0.003379423,0.28952688,1.157999992,0.061596405,0.30204659699999997,1.207000017,-0.045385785,0.310913891,1.172999978,0.100430571,0.319270879
1.57e+18,,8363.0,,1569261699.0,701355543.0,"""camera_color_frame""",1.118000031,-0.034788631,-0.08720248900000001,1.18599999,0.18038216199999998,-0.07327882200000001,1.271999955,0.032600764,0.175055921,1.167999983,0.028041586,0.266783416,1.271999955,-0.19013038300000001,-0.072405919,1.350000024,0.321331203,-0.00899817,1.287999988,-0.129873961,0.16472914800000002,1.2960000040000001,0.19501113899999997,0.188864321,1.223999977,-0.053963032,-0.270094365,1.284999967,0.15585470199999998,-0.277305156,1.157999992,-0.000360911,0.30204659699999997,1.1710000040000001,0.058490757000000004,0.30923432100000003,1.213999987,-0.049585577,0.31665334100000003,1.200000048,0.10079667699999999,0.332456201
1.57e+18,,8364.0,,1569261699.0,878639792.0,"""camera_color_frame""",1.1280000209999999,-0.031442091,-0.08615374599999999,1.184000015,0.176238671,-0.075074762,1.274000049,0.02645532,0.17533116,1.164000034,0.016622219,0.273418128,1.271999955,-0.19013038300000001,-0.07446809900000001,1.350000024,0.319142401,-0.0046208970000000005,1.287999988,-0.131962225,0.162641034,1.292999983,0.19036698300000002,0.188427135,1.312000036,-0.062097084000000004,-0.276750714,1.317999959,0.157720298,-0.278016359,1.164000034,-0.019235004,0.305498689,1.167999983,0.04129754,0.312229246,1.218999982,-0.059671777999999995,0.319933772,1.207000017,0.085729145,0.334395528
1.57e+18,,8365.0,,1569261700.0,38620841.0,"""camera_color_frame""",1.095999956,-0.090967171,-0.117469795,1.200000048,0.196130589,-0.078034744,1.269000053,0.020179108,0.168471098,1.1549999709999998,0.001512654,0.263814092,1.2589999440000001,-0.192269713,-0.051254857,1.368000031,0.31896171,0.0019709470000000002,1.284999967,-0.148322076,0.156012431,1.2960000040000001,0.180302486,0.188864321,1.1160000559999999,-0.049201585,-0.25349959699999997,1.325999975,0.156527743,-0.27970385600000003,1.149000049,-0.022712935,0.295973539,1.1549999709999998,0.02960211,0.301264077,1.19599998,-0.06436321099999999,0.311958313,1.210000038,0.083980426,0.325418323
1.57e+18,,8366.0,,1569261700.0,204010578.0,"""camera_color_frame""",1.034999967,-0.11443143300000001,-0.186439753,1.230999947,0.227143362,-0.076059215,1.256000042,0.022008771,0.170817718,1.144999981,0.003355975,0.244823381,1.19599998,-0.182648599,-0.052568018,1.394999981,0.329780489,0.015579393,1.269000053,-0.130015582,0.158184499,1.292999983,0.17988511899999998,0.188427135,1.101999998,-0.04322426,-0.262825519,1.27699995,0.152813971,-0.28178963100000004,1.1399999859999999,-0.020686718,0.28071793899999997,1.144999981,0.036771484,0.281949162,1.19599998,-0.062424105,0.308080375,1.1770000459999999,0.081690051,0.31081879100000004
1.57e+18,,8367.0,,1569261700.0,373420552.0,"""camera_color_frame""",1.047999978,-0.09717810199999999,-0.176888287,1.235999942,0.258125335,-0.076368146,1.238999963,0.04380792,0.170514375,1.136000037,0.040166099,0.23737391800000002,1.205000043,-0.18206934600000002,-0.056870718,1.4049999709999998,0.35264617200000004,0.011135467,1.261000037,-0.108751029,0.159231633,1.281999946,0.20121869399999998,0.186824113,1.018000007,-0.034977965,-0.234539673,1.26699996,0.149563089,-0.279582977,1.126000047,0.012428346000000002,0.269968569,1.123999953,0.070722088,0.271311313,1.19599998,-0.037215742999999996,0.304202437,1.146999955,0.11308176800000001,0.29917740800000003
