rosbagTimestamp,header,seq,stamp,secs,nsecs,frame_id,lwrist.x,lwrist.y,lwrist.z,rwrist.x,rwrist.y,rwrist.z,neck.x,neck.y,neck.z,nose.x,nose.y,nose.z,lelbow.x,lelbow.y,lelbow.z,relbow.x,relbow.y,relbow.z,lshoulder.x,lshoulder.y,lshoulder.z,rshoulder.x,rshoulder.y,rshoulder.z,lhip.x,lhip.y,lhip.z,rhip.x,rhip.y,rhip.z,leye.x,leye.y,leye.z,reye.x,reye.y,reye.z,lear.x,lear.y,lear.z,rear.x,rear.y,rear.z
1.57e+18,,29132.0,,1569265685.0,440803389.0,"""camera_color_frame""",,,,1.355999947,-0.6753672359999999,-0.305817276,,,,,,,,,,1.4889999630000001,-0.705396712,-0.137865856,,,,1.5,-0.766543567,0.08484295,,,,,,,,,,,,,,,,,,
1.57e+18,,29133.0,,1569265685.0,616272387.0,"""camera_color_frame""",,,,1.3710000519999999,-0.68950665,-0.280305356,,,,,,,,,,1.4650000330000001,-0.6940270070000001,-0.12376832199999999,,,,1.4969999790000001,-0.7650104759999999,0.08467326300000001,,,,,,,,,,,,,,,,,,
1.57e+18,,29134.0,,1569265685.0,775219909.0,"""camera_color_frame""",1.269000053,-0.136187956,-0.22447671,1.274000049,0.129733726,-0.206772342,1.35800004,-0.187572792,0.129649699,1.269000053,-0.304899812,0.24664919100000002,1.3890000580000001,-0.304455668,-0.126355037,1.3710000519999999,0.088486165,-0.040255688,1.4049999709999998,-0.33757621,0.09769199,1.3739999530000002,-0.047209945,0.171273053,1.200000048,-0.154075608,-0.27841657399999997,1.152999997,0.012726361,-0.260034889,1.271999955,-0.322119206,0.27197846800000003,1.261000037,-0.276399285,0.283936888,,,,1.2960000040000001,-0.197920218,0.293918878
1.57e+18,,29135.0,,1569265685.0,929247732.0,"""camera_color_frame""",1.2589999440000001,-0.135114774,-0.222707778,1.26699996,0.1290209,-0.205636233,1.35800004,-0.18537102600000002,0.129649699,1.269000053,-0.298727423,0.25076383399999996,1.3890000580000001,-0.311211735,-0.117347576,1.3739999530000002,0.08645208900000001,-0.042571320999999995,1.40199995,-0.334582329,0.10202927099999999,1.376999974,-0.042847894000000004,0.16941461,1.251000047,-0.168736935,-0.286193013,1.166000009,0.005307991,-0.26107645,1.2799999709999998,-0.317919225,0.279914469,1.256000042,-0.269194186,0.284847289,,,,1.289999962,-0.190729395,0.29255813399999997
1.57e+18,,29136.0,,1569265686.0,92425915.0,"""camera_color_frame""",1.256000042,-0.13479282,-0.22217710300000001,1.269000053,0.129224569,-0.20596084,1.355999947,-0.185098022,0.129458755,1.261000037,-0.28457725,0.24918296899999998,1.394999981,-0.312556058,-0.12011607,1.3739999530000002,0.08867979,-0.042571320999999995,1.3860000369999999,-0.330763966,0.103111885,1.379999995,-0.036228959,0.167546436,1.251000047,-0.168736935,-0.290249288,1.157999992,0.0052715719999999995,-0.268671989,1.261000037,-0.300933152,0.271670818,1.246000052,-0.25492987,0.282579392,,,,1.299000025,-0.177317351,0.290387332
1.57e+18,,29137.0,,1569265686.0,252011961.0,"""camera_color_frame""",1.264000058,-0.135651365,-0.223592237,1.27699995,0.132109657,-0.20518896,1.332000017,-0.175343141,0.12716744800000002,1.248999953,-0.273768991,0.256936163,1.3890000580000001,-0.313463748,-0.117347576,1.3710000519999999,0.097377516,-0.051369097,1.379999995,-0.329332083,0.102665514,1.3710000519999999,-0.024878498,0.16867642100000002,1.1979999540000001,-0.155761167,-0.29154804300000003,1.129999995,0.017968789,-0.26950347399999997,1.261000037,-0.294799685,0.285981238,1.243999958,-0.24443604100000002,0.284142613,,,,1.289999962,-0.16981430399999997,0.29255813399999997
1.57e+18,,29138.0,,1569265686.0,411339744.0,"""camera_color_frame""",1.2589999440000001,-0.135114774,-0.222707778,1.269000053,0.133339494,-0.203903526,1.350000024,-0.158013538,0.13764047599999998,1.261000037,-0.24368742100000002,0.263493419,1.3890000580000001,-0.30670768,-0.108340122,1.376999974,0.111199059,-0.058291137,1.3710000519999999,-0.302733064,0.106441319,1.3739999530000002,-0.004883633,0.169045508,1.146999955,-0.13797231,-0.27913656800000003,1.129999995,0.02346508,-0.265839547,1.264000058,-0.26066201899999997,0.288710833,1.251000047,-0.213359043,0.291825891,,,,1.2960000040000001,-0.147490531,0.296019971
1.57e+18,,29139.0,,1569265686.0,581661316.0,"""camera_color_frame""",1.256000042,-0.130720049,-0.220140859,1.287999988,0.143688962,-0.209044576,1.3639999630000001,-0.13311435300000002,0.143490523,1.271999955,-0.200442001,0.286413759,1.3739999530000002,-0.283346206,-0.107170142,1.383000016,0.12065275800000001,-0.065271534,1.379999995,-0.27787125100000004,0.125038251,1.383000016,0.021991887999999998,0.167910665,1.161999941,-0.128472775,-0.269600034,1.1100000140000001,0.039246805,-0.26113441600000004,1.27699995,-0.21779336,0.310312748,1.26699996,-0.17089504,0.311990887,,,,1.309999943,-0.106605075,0.301341504
1.57e+18,,29140.0,,1569265686.0,745320910.0,"""camera_color_frame""",1.2589999440000001,-0.128991023,-0.220666677,1.271999955,0.150153309,-0.204385564,1.3609999419999999,-0.088689111,0.138761997,1.274000049,-0.1532491,0.28686407199999997,1.39199996,-0.269003093,-0.10631739300000001,1.39199996,0.164318725,-0.072466478,1.383000016,-0.235871747,0.125310063,1.3860000369999999,0.069229878,0.152545884,1.1339999440000001,-0.10699121699999999,-0.27045747600000003,1.077000022,0.062526345,-0.249878868,1.2799999709999998,-0.17264850399999998,0.311041772,1.271999955,-0.12207364300000001,0.31322211,,,,1.309999943,-0.049258805999999995,0.30558908
1.57e+18,,29141.0,,1569265686.0,911009668.0,"""camera_color_frame""",1.289999962,-0.123801097,-0.213551894,1.269000053,0.16214394599999998,-0.203903526,1.3409999609999999,-0.017811522,0.13889691199999998,1.271999955,-0.08288946,0.290538102,1.3860000369999999,-0.20492321300000002,-0.09687113,1.3860000369999999,0.22428368,-0.081142128,1.368000031,-0.164556339,0.13282223,1.376999974,0.137989834,0.149322927,1.136000037,-0.083236188,-0.23594223,1.1100000140000001,0.089637585,-0.253936231,1.2799999709999998,-0.095862553,0.317267209,1.26699996,-0.04147926,0.316099048,,,,1.30400002,0.027078288,0.29996129899999996
1.57e+18,,29142.0,,1569265687.0,125151053.0,"""camera_color_frame""",1.315000057,-0.117672175,-0.213426709,1.2799999709999998,0.198829487,-0.207746163,1.335000038,0.049366709,0.131782502,1.2799999709999998,-0.021151895,0.292365402,1.376999974,-0.158941254,-0.08508005,1.383000016,0.284340113,-0.103387855,1.376999974,-0.09419687800000001,0.14485810699999999,1.368000031,0.21249900800000002,0.128386587,1.212000012,-0.06325921400000001,-0.253692001,1.113999963,0.104409851,-0.254851311,1.281999946,-0.023263483999999997,0.315684557,1.251000047,0.017864602,0.30805099,,,,1.27699995,0.098982736,0.291680157
1.57e+18,,29143.0,,1569265687.0,288548707.0,"""camera_color_frame""",1.2960000040000001,-0.105465785,-0.210342988,1.2799999709999998,0.213356555,-0.207746163,1.3470000030000002,0.117512122,0.13078329,1.26699996,0.038635273,0.283233821,1.379999995,-0.105589241,-0.049469039000000006,1.3739999530000002,0.320360661,-0.12499050800000001,1.39199996,-0.027516454,0.159976438,1.368000031,0.279038191,0.10620840599999999,1.200000048,-0.029557852000000003,-0.258962035,1.065999985,0.113737702,-0.257696003,1.27699995,0.034799345,0.310312748,1.246000052,0.06425713,0.302779704,,,,1.256000042,0.156410128,0.276702315
1.57e+18,,29144.0,,1569265687.0,456886178.0,"""camera_color_frame""",1.325999975,-0.101457492,-0.210912585,1.27699995,0.212856501,-0.21139982300000001,1.338000059,0.140589625,0.13207864800000002,1.2960000040000001,0.050025772,0.293918878,1.376999974,-0.083034053,-0.042664271,1.368000031,0.325615615,-0.131098151,1.3860000369999999,-0.00043197099999999996,0.172768891,1.3639999630000001,0.298125684,0.103686526,1.228999972,-0.022301732,-0.25525793399999996,1.093999982,0.12559384099999998,-0.25382310199999997,1.281999946,0.053642447999999995,0.315684557,1.243999958,0.082306348,0.302293718,,,,1.251000047,0.174041972,0.269516408
1.57e+18,,29145.0,,1569265687.0,629376866.0,"""camera_color_frame""",1.300999999,-0.105872668,-0.20904529100000002,1.292999983,0.215523452,-0.209856078,1.338000059,0.134081632,0.13207864800000002,1.281999946,0.041171215,0.290743828,1.3739999530000002,-0.093991652,-0.051481504000000004,1.376999974,0.325525254,-0.127495825,1.39199996,-0.016232032,0.17126008899999998,1.355999947,0.285384566,0.103078395,1.184000015,-0.027244097999999998,-0.25358969,1.083999991,0.12093077599999999,-0.25677514100000004,1.292999983,0.041524477000000004,0.31839323,1.248999953,0.070486948,0.307558507,,,,1.261000037,0.167255238,0.277803838
1.57e+18,,29146.0,,1569265687.0,788430377.0,"""camera_color_frame""",1.30400002,-0.112459429,-0.211641401,1.292999983,0.198752478,-0.207759857,1.355999947,0.087518044,0.138252214,1.299000025,-0.00672316,0.319870681,1.376999974,-0.138848171,-0.06945318,1.39199996,0.28393361,-0.11083084300000001,1.394999981,-0.056978485999999995,0.155798033,1.376999974,0.240687802,0.12253401400000001,1.143000007,-0.055951472,-0.239249155,1.105999947,0.110832796,-0.253021151,1.300999999,-0.006733511,0.34145516200000003,1.27699995,0.022376753,0.335156202,,,,1.281999946,0.109762989,0.303214192
1.57e+18,,29147.0,,1569265687.0,952044355.0,"""camera_color_frame""",1.284999967,-0.11498764199999999,-0.21480743600000002,1.274000049,0.15452054099999998,-0.19851064699999998,1.368000031,0.028407283,0.14391131699999998,1.332000017,-0.088958941,0.32799673100000004,1.3980000019999999,-0.181764707,-0.077311747,1.3860000369999999,0.242260933,-0.094624124,1.417999983,-0.117692925,0.153769001,1.376999974,0.18264113399999998,0.133696064,1.138000011,-0.076002464,-0.247427255,1.077000022,0.090465017,-0.248132825,1.332000017,-0.086799338,0.349591285,1.2960000040000001,-0.050833616,0.34014287600000004,,,,1.309999943,0.04207043,0.32257938399999997
1.57e+18,,29148.0,,1569265688.0,127177815.0,"""camera_color_frame""",1.292999983,-0.13037812699999998,-0.21824099100000002,1.2799999709999998,0.138645902,-0.207746163,1.376999974,-0.033917636,0.149322927,1.355999947,-0.163112864,0.316319674,1.3860000369999999,-0.229641929,-0.078895122,1.394999981,0.18955208399999998,-0.08845379199999999,1.414000034,-0.17467476399999998,0.148750439,1.383000016,0.116168171,0.149973571,1.157999992,-0.111133076,-0.248020992,1.075000048,0.06066731,-0.252900451,1.3609999419999999,-0.165920928,0.33734428899999996,1.343999982,-0.135520652,0.341846198,,,,1.3409999609999999,-0.043901882999999996,0.325864851
1.57e+18,,29149.0,,1569265688.0,298546565.0,"""camera_color_frame""",1.271999955,-0.130322948,-0.225007385,1.27699995,0.136250511,-0.207259253,1.376999974,-0.089731745,0.14485810699999999,1.35800004,-0.22500270600000002,0.31018140899999996,1.376999974,-0.266104341,-0.08061523,1.40199995,0.16095297,-0.082078829,1.430999994,-0.241738066,0.136619091,1.40199995,0.060936678,0.15203394,1.184000015,-0.136664078,-0.270865321,1.100000024,0.033542857,-0.274831861,1.376999974,-0.232615873,0.339077711,1.338000059,-0.189148977,0.333812565,,,,1.3470000030000002,-0.092144661,0.32732284100000003
1.57e+18,,29150.0,,1569265688.0,467161375.0,"""camera_color_frame""",1.271999955,-0.130322948,-0.225007385,1.281999946,0.12846984,-0.208070755,1.3739999530000002,-0.11849635800000001,0.14231497,1.3710000519999999,-0.273836195,0.306482702,1.3860000369999999,-0.279079378,-0.090130128,1.394999981,0.121699639,-0.07714583700000001,1.434000015,-0.267819643,0.12993104800000002,1.394999981,0.024444455,0.155798033,1.190999985,-0.14519605,-0.276328444,1.1219999790000001,0.023298956000000003,-0.260319501,1.4049999709999998,-0.280627161,0.339139134,1.355999947,-0.23786242300000002,0.33390659100000003,,,,1.353000045,-0.140815467,0.32878086
1.57e+18,,29151.0,,1569265688.0,629369083.0,"""camera_color_frame""",1.269000053,-0.130015582,-0.22447671,1.2799999709999998,0.128269419,-0.207746163,1.3609999419999999,-0.137234822,0.140968457,1.3860000369999999,-0.292562306,0.316576898,1.3980000019999999,-0.286028862,-0.095443383,1.3860000369999999,0.11866731900000001,-0.067660123,1.457999945,-0.293577015,0.127378166,1.379999995,0.004044756,0.158597335,1.18599999,-0.148432285,-0.282859415,1.129999995,0.019800885,-0.265839547,1.424000025,-0.305201024,0.346033961,1.3710000519999999,-0.262722015,0.34426829200000003,,,,1.3710000519999999,-0.167140037,0.339822918
1.57e+18,,29152.0,,1569265688.0,798723366.0,"""camera_color_frame""",1.274000049,-0.1408557,-0.225361168,1.2799999709999998,0.128269419,-0.207746163,1.3980000019999999,-0.129632622,0.147067264,1.4539999959999999,-0.311630845,0.322679847,1.414000034,-0.284717351,-0.08965854300000001,1.376999974,0.126827016,-0.07168559,1.4650000330000001,-0.278359801,0.130364805,1.4049999709999998,0.006395992,0.17058168399999998,1.161999941,-0.141660631,-0.28090313100000003,1.118000031,0.025028533999999998,-0.27026653300000003,1.4210000040000001,-0.304558069,0.333786249,1.3710000519999999,-0.271613359,0.337600261,,,,1.3710000519999999,-0.18047706800000002,0.337600261
1.57e+18,,29153.0,,1569265688.0,961191382.0,"""camera_color_frame""",1.2799999709999998,-0.133217886,-0.222272217,1.287999988,0.135335907,-0.209044576,1.40199995,-0.09590706199999999,0.140669242,1.3980000019999999,-0.26109612,0.30118620399999996,1.437000036,-0.263720244,-0.088787235,1.39199996,0.15754807,-0.079236664,1.460999966,-0.24680595100000002,0.122903079,1.379999995,0.044318467,0.158597335,1.1979999540000001,-0.128568307,-0.260472625,1.08099997,0.052242659000000004,-0.25431197899999997,1.407999992,-0.26068094399999997,0.323884606,1.3739999530000002,-0.23433679300000002,0.33388388199999997,,,,1.3710000519999999,-0.140466005,0.337600261
1.57e+18,,29154.0,,1569265689.0,133628069.0,"""camera_color_frame""",1.300999999,-0.131184801,-0.21115449100000003,1.271999955,0.150153309,-0.202323377,1.383000016,-0.045276888,0.14548929,1.379999995,-0.188374102,0.306257337,1.407999992,-0.212741613,-0.08699543,1.3860000369999999,0.201812118,-0.078895122,1.4650000330000001,-0.19760160100000002,0.137490034,1.39199996,0.101125956,0.155462995,1.1219999790000001,-0.08402951800000001,-0.249405488,1.082999945,0.076921843,-0.24951519100000003,1.5529999730000001,-0.21450702800000002,0.374863386,1.35800004,-0.16335344300000001,0.33439907399999996,,,,1.35800004,-0.06867778299999999,0.329995871
1.57e+18,,29155.0,,1569265689.0,302627028.0,"""camera_color_frame""",1.2960000040000001,-0.11387073199999999,-0.214545161,1.281999946,0.18666891800000002,-0.208070755,1.383000016,0.033203352,0.149973571,1.379999995,-0.092164673,0.31520643800000003,1.3860000369999999,-0.171215862,-0.067660123,1.3980000019999999,0.26249131600000003,-0.09091047199999999,1.437000036,-0.116940066,0.158159047,1.3890000580000001,0.186484784,0.14161676199999998,1.146999955,-0.069164895,-0.24938406100000002,1.088000059,0.10726500300000001,-0.24713939399999998,1.481999993,-0.101379648,0.364933312,1.32099998,-0.053955972000000005,0.325288057,,,,1.317999959,0.040190443,0.309592009
1.57e+18,,29156.0,,1569265689.0,469433746.0,"""camera_color_frame""",1.292999983,-0.107318021,-0.209856078,1.292999983,0.196656093,-0.209856078,1.4110000130000002,0.097930893,0.153009906,1.32099998,0.02314776,0.26103940600000003,1.383000016,-0.121514834,-0.040608037,1.383000016,0.284340113,-0.114598542,1.4479999540000001,-0.047404867,0.17814984899999997,1.4110000130000002,0.244343027,0.132422134,1.179999948,-0.040544201,-0.24890689600000002,1.111999989,0.116842799,-0.256196558,1.32099998,0.02100599,0.284597248,1.30400002,0.056677196,0.276706636,,,,1.325999975,0.135028973,0.27707555899999997
1.57e+18,,29157.0,,1569265689.0,641500261.0,"""camera_color_frame""",1.2960000040000001,-0.10756702,-0.208241895,1.289999962,0.198291332,-0.213551894,1.4279999730000001,0.12457855,0.138647765,1.350000024,0.14622809,0.22080867,1.3860000369999999,-0.09481254199999999,-0.033955123,1.39199996,0.299731791,-0.11760103,1.4859999419999999,-0.017328162,0.180415943,1.4539999959999999,0.284793019,0.11288525199999999,1.284999967,-0.031651534,-0.262722373,1.095999956,0.116938576,-0.250733435,1.315000057,0.123248614,0.253458083,1.338000059,0.181806952,0.24921447,1.368000031,0.081638627,0.29472297399999997,1.343999982,0.219666258,0.25686875
1.57e+18,,29158.0,,1569265689.0,802402097.0,"""camera_color_frame""",1.300999999,-0.10376332699999999,-0.20693609100000002,1.292999983,0.198752478,-0.214048535,1.457999945,0.146106884,0.139196798,1.3739999530000002,0.171104714,0.226961702,1.3890000580000001,-0.077001601,-0.018265571,1.379999995,0.2971479,-0.116587229,1.4889999630000001,0.00195008,0.180780172,1.4720000030000002,0.297865033,0.111896306,1.299000025,-0.02357197,-0.26347875600000004,1.105999947,0.126971468,-0.253021151,1.3639999630000001,0.152167514,0.26511386,1.379999995,0.212125614,0.259274632,1.3980000019999999,0.108361684,0.296653271,1.3739999530000002,0.23793573699999998,0.258147329
1.57e+18,,29159.0,,1569265689.0,968984738.0,"""camera_color_frame""",1.3710000519999999,-0.080449417,-0.17583929,1.315000057,0.206398264,-0.19423967600000003,1.4539999959999999,0.152778268,0.145886645,1.3710000519999999,0.186290979,0.22646614899999998,1.440999985,-0.075211652,-0.014277047,1.417999983,0.321423501,-0.112900965,1.503999949,0.021477507000000003,0.18747793100000001,1.481999993,0.30469417600000004,0.112656474,1.253999949,-0.024788531000000003,-0.22995531600000002,1.152999997,0.128628403,-0.24881935100000002,1.3470000030000002,0.167742386,0.261809677,1.3710000519999999,0.224079207,0.24869297399999998,1.394999981,0.126223132,0.30732464800000003,1.3710000519999999,0.257421762,0.24869297399999998
1.57e+18,,29160.0,,1569265690.0,140349399.0,"""camera_color_frame""",1.440999985,-0.098574944,-0.20350655899999998,1.4210000040000001,0.257594228,-0.23063069600000002,1.4479999540000001,0.152147815,0.138242096,1.3470000030000002,0.180845946,0.202847794,1.5260000230000001,-0.09449300199999999,-0.020067144,1.5299999709999998,0.374097854,-0.121818386,1.4969999790000001,0.014096174,0.186605364,1.481999993,0.311902583,0.1078512,1.457999945,-0.026457222000000002,-0.265000582,1.355999947,0.160069093,-0.26624673600000004,1.32099998,0.158079296,0.237481579,1.324000001,0.21639742,0.227288485,1.3739999530000002,0.124323003,0.291560531,1.3470000030000002,0.2572833,0.23342061
1.57e+18,,29161.0,,1569265690.0,310504520.0,"""camera_color_frame""",1.6710000040000001,-0.163074836,-0.29287847899999997,1.146999955,0.24697727,-0.26983889899999997,1.481999993,0.12448389800000001,0.143890753,1.3739999530000002,0.162193909,0.226961702,1.58099997,-0.085082136,-0.056674313,1.5889999869999998,0.318964154,-0.160005346,1.5,-0.015059426,0.182115689,1.5110000369999999,0.273909152,0.11486095199999999,1.4889999630000001,-0.046332978,-0.292360902,0.0,0.0,0.0,1.3609999419999999,0.140799716,0.264530778,1.368000031,0.199191168,0.24814878399999998,1.3980000019999999,0.092495397,0.292120367,1.368000031,0.23024278899999998,0.24371314
1.57e+18,,29162.0,,1569265690.0,479377743.0,"""camera_color_frame""",1.7269999980000001,-0.199340254,-0.277495176,1.166000009,0.24350658100000003,-0.266747445,1.5110000369999999,0.07302373599999999,0.15650503300000002,1.407999992,0.093157023,0.271383256,1.6219999790000001,-0.134624779,-0.04499601599999999,1.6710000040000001,0.305622667,-0.149299055,1.4969999790000001,-0.070853151,0.167189717,1.58099997,0.214825705,0.143250331,1.5,-0.058835201,-0.284793437,1.475000024,0.126287371,-0.2991772,1.407999992,0.070328765,0.294209927,1.417999983,0.11910807300000001,0.294000596,1.4479999540000001,0.030068527999999997,0.302568167,1.444000006,0.15640990400000002,0.287686169
1.57e+18,,29163.0,,1569265690.0,651145970.0,"""camera_color_frame""",1.644000053,-0.227076337,-0.31746414300000003,1.1710000040000001,0.198985055,-0.267891288,1.593000054,0.004669055,0.149502814,1.4859999419999999,-0.051058207,0.284008145,1.626999974,-0.195711374,-0.08470040599999999,1.6710000040000001,0.23247332899999998,-0.130335748,1.702999949,-0.141347706,0.173630908,1.6139999630000001,0.156506076,0.146240383,1.5729999540000001,-0.10250402199999999,-0.321604878,1.095999956,0.058298495,-0.23118810399999998,1.4969999790000001,-0.073280275,0.31038004199999997,1.4789999719999998,-0.024440353999999997,0.309045792,,,,1.5149999859999999,0.053566586,0.304287523
1.57e+18,,29164.0,,1569265690.0,816501676.0,"""camera_color_frame""",1.626999974,-0.21945244100000003,-0.182295755,1.605000019,0.150428921,-0.31513714800000003,1.6100000140000001,-0.031825785,0.16675916300000002,1.5379999880000002,-0.135133624,0.288959682,1.692999959,-0.23109953100000002,-0.038731493,1.631000042,0.163443297,-0.100773826,1.7220000030000002,-0.18480351600000003,0.186734989,1.631000042,0.10791129599999999,0.15835750099999998,1.6749999519999998,-0.114582255,-0.318019331,1.68900001,0.081626132,-0.317939192,1.5340000390000001,-0.147217736,0.315564483,1.5110000369999999,-0.108263105,0.313282728,,,,1.56099999,-0.025795396,0.323649466
1.57e+18,,29165.0,,1569265690.0,982554505.0,"""camera_color_frame""",1.6219999790000001,-0.168812037,-0.12914341699999998,1.661999941,-0.040937625,-0.221245214,1.63499999,-0.056177773,0.171999276,1.593000054,-0.173542127,0.30704087,1.7660000319999998,-0.263970315,-0.026086243,1.626999974,0.11292243699999999,-0.08470040599999999,1.7359999419999999,-0.20319370899999997,0.18825314899999998,1.644000053,0.082116827,0.16228497,1.730999947,-0.16051077800000002,-0.306201071,1.6529999969999998,0.028965367000000002,-0.297763199,1.5889999869999998,-0.18341150899999997,0.329454839,1.569000006,-0.145488963,0.327851832,,,,1.605000019,-0.055146985,0.332772195
1.57e+18,,29166.0,,1569265691.0,159557351.0,"""camera_color_frame""",1.5889999869999998,-0.22720836100000003,-0.17803809,1.569000006,-0.051366184,-0.150360376,1.6749999519999998,-0.068415031,0.176207215,1.6219999790000001,-0.184590772,0.315260053,1.7660000319999998,-0.243927509,-0.037538487,1.631000042,0.10791129599999999,-0.076976053,1.7510000469999998,-0.21062730300000002,0.18987976,1.6710000040000001,0.059082355,0.17036832899999999,1.7220000030000002,-0.148508534,-0.285066962,1.717000008,0.035654463,-0.30929184,1.605000019,-0.18786054800000002,0.335374236,1.5889999869999998,-0.149919793,0.332030952,,,,1.626999974,-0.055902895,0.339971274
1.57e+18,,29167.0,,1569265691.0,320203940.0,"""camera_color_frame""",1.626999974,-0.383001983,-0.285166532,1.5729999540000001,0.027563532999999998,-0.10739087300000001,1.666000009,-0.065346301,0.175260425,1.5850000380000002,-0.126414195,0.284941942,1.7120000119999998,-0.314188629,-0.075247861,1.6710000040000001,0.17287018899999998,-0.040937237,1.7460000519999999,-0.224180013,0.178015023,1.6979999540000001,0.07655506599999999,0.184132412,1.707000017,-0.14167970400000002,-0.282583803,1.7120000119999998,0.049429178,-0.275084972,1.58099997,-0.138911754,0.31241735800000003,1.569000006,-0.086980209,0.312589735,,,,1.631000042,-0.029596522000000004,0.32494190300000003
1.57e+18,,29168.0,,1569265691.0,494650065.0,"""camera_color_frame""",1.817999959,-0.374907851,-0.283275008,1.5889999869999998,0.156658173,-0.141972601,1.626999974,-0.053264998,0.160606846,1.5299999709999998,-0.040166888,0.272573918,1.7510000469999998,-0.29863444,-0.051413357,1.730999947,0.15662527099999998,-0.048019793,1.702999949,-0.19933116399999998,0.179152757,1.6710000040000001,0.09430239300000001,0.159532145,1.63499999,-0.1330529,-0.281267345,1.6749999519999998,0.059223782,-0.29629510600000003,1.5149999859999999,-0.061879862,0.29937526600000003,1.5379999880000002,-0.007960139,0.298933387,1.5379999880000002,-0.10521045300000001,0.308907092,1.6100000140000001,0.02821188,0.312927663
1.57e+18,,29169.0,,1569265691.0,656260536.0,"""camera_color_frame""",1.8289999959999999,-0.24966393399999998,-0.26423260600000004,1.593000054,0.221621796,-0.170738488,1.593000054,-0.015993111,0.152085394,1.475000024,0.025846288999999998,0.255601645,1.7269999980000001,-0.207740352,-0.073107332,1.7120000119999998,0.182663187,-0.075247861,1.684000015,-0.164343521,0.174423873,1.6139999630000001,0.135571539,0.146240383,1.5889999869999998,-0.106122941,-0.29911509199999997,1.63499999,0.084318146,-0.31572622100000003,1.4720000030000002,0.004314406,0.286105275,1.475000024,0.056935195,0.2819058,1.5340000390000001,-0.050220348,0.303129792,1.493000031,0.08183638,0.278084606
1.57e+18,,29170.0,,1569265691.0,824754811.0,"""camera_color_frame""",1.6710000040000001,-0.22538723100000002,-0.282042295,1.503999949,0.272640198,-0.149007916,1.519000053,0.053708017000000004,0.157333642,1.424000025,0.094215624,0.24907249199999998,1.631000042,-0.161815584,-0.08226444599999999,1.631000042,0.250707865,-0.071687654,1.5729999540000001,-0.08210127099999999,0.173127472,1.5529999730000001,0.20094940100000003,0.140713334,1.521999955,-0.05969812,-0.28897041100000004,1.56099999,0.133650571,-0.311559319,1.4049999709999998,0.072456881,0.277638435,1.4210000040000001,0.12166397300000001,0.273888946,1.4650000330000001,0.023295818,0.303745329,1.440999985,0.14907597,0.27774381600000003
1.57e+18,,29171.0,,1569265691.0,987552523.0,"""camera_color_frame""",1.434000015,-0.193420276,-0.18624424899999997,1.417999983,0.309928298,-0.117498718,1.4789999719999998,0.124231905,0.15079279199999998,1.3739999530000002,0.146600008,0.235871881,1.569000006,-0.12768195599999999,-0.040982056,1.5149999859999999,0.316391468,-0.061676811,1.5379999880000002,-0.020428129,0.176755577,1.5,0.271915108,0.13104750199999998,1.493000031,-0.017409788,-0.278623462,1.4889999630000001,0.17576909100000002,-0.30201682399999996,1.3639999630000001,0.125629663,0.26511386,1.3739999530000002,0.18447092199999998,0.262602419,1.457999945,0.079917915,0.304657727,1.376999974,0.211664468,0.263175786
1.57e+18,,29172.0,,1569265692.0,162466433.0,"""camera_color_frame""",1.315000057,-0.10061583699999999,-0.09404064699999999,1.32099998,0.320853829,-0.111602701,1.444000006,0.170457065,0.140201241,1.353000045,0.181651488,0.225686356,1.437000036,-0.08665209300000001,-0.002589006,1.4650000330000001,0.35107910600000003,-0.06914158200000001,1.5110000369999999,0.026477112999999997,0.183451205,1.4720000030000002,0.321730942,0.111896306,1.475000024,0.004323199000000001,-0.275264293,1.379999995,0.18751388800000002,-0.28661996100000003,1.3409999609999999,0.16047261699999998,0.260643482,1.343999982,0.224024385,0.25686875,1.3890000580000001,0.12117619800000001,0.294743508,1.355999947,0.25680384,0.254765481
1.57e+18,,29173.0,,1569265692.0,319138590.0,"""camera_color_frame""",1.217000008,-0.0003793,-0.128465623,1.32099998,0.331562698,-0.13730216,1.417999983,0.188079238,0.13537795800000002,1.309999943,0.203489542,0.21426618100000003,1.3609999419999999,-0.055589762,-0.011277958000000001,1.4789999719999998,0.373617649,-0.093780048,1.4889999630000001,0.047818985,0.18560813399999998,1.460999966,0.345383018,0.106322944,1.07099998,0.032658547,-0.21028779399999997,1.4049999709999998,0.21596846,-0.284978956,1.299000025,0.19125035399999998,0.252480149,1.300999999,0.240059718,0.24021369199999998,1.343999982,0.152115375,0.28519457600000003,1.307000041,0.281429201,0.24132151899999998
1.57e+18,,29174.0,,1569265692.0,491891348.0,"""camera_color_frame""",1.202999949,0.0054764259999999995,-0.154292241,1.376999974,0.33892065299999996,-0.14535509,1.379999995,0.17856417600000002,0.131750062,1.2799999709999998,0.196754187,0.22803568800000001,1.32099998,-0.058239512,-0.036645952999999995,1.5149999859999999,0.363061309,-0.076413631,1.39199996,0.042446963,0.17126008899999998,1.4210000040000001,0.33131912399999996,0.105715722,1.08099997,0.029458176000000003,-0.20348860300000002,1.383000016,0.214829043,-0.282758772,1.269000053,0.180661097,0.26516506100000004,1.274000049,0.23507769399999998,0.247621015,1.300999999,0.136701867,0.286616027,1.287999988,0.277338028,0.250342131
1.57e+18,,29175.0,,1569265692.0,667984031.0,"""camera_color_frame""",1.228999972,-0.030272165,-0.135709733,1.3739999530000002,0.347093046,-0.145038426,1.376999974,0.158082917,0.14262569,1.264000058,0.108221859,0.264120281,1.368000031,-0.098017156,-0.0401676,1.5,0.354602665,-0.075657062,1.394999981,0.015397461999999999,0.169367582,1.39199996,0.308759332,0.112585172,1.085999966,0.017269118,-0.227318093,1.3409999609999999,0.20178236100000002,-0.278519839,1.271999955,0.10271982800000001,0.290538102,1.246000052,0.141023636,0.282579392,,,,1.289999962,0.219206423,0.269553125
1.57e+18,,29176.0,,1569265692.0,833472145.0,"""camera_color_frame""",1.35800004,-0.10170417300000001,-0.10812377199999999,1.2960000040000001,0.314781666,-0.138905883,1.343999982,0.112892285,0.141386554,1.261000037,0.03027435,0.288025588,1.444000006,-0.10814493900000001,-0.037717073999999996,1.450999975,0.321846098,-0.080242731,1.3710000519999999,-0.033769846,0.150894955,1.3639999630000001,0.258318901,0.128011197,1.353000045,-0.007002645,-0.274431676,1.213999987,0.16102129199999998,-0.2600151,1.26699996,0.022201522999999997,0.311990887,1.251000047,0.062486707999999995,0.30805099,,,,1.27699995,0.150743544,0.291680157
1.57e+18,,29177.0,,1569265692.0,992844441.0,"""camera_color_frame""",1.394999981,-0.14292492,-0.111069709,1.253999949,0.278149575,-0.142536312,1.300999999,0.058656149000000005,0.141081423,1.264000058,-0.061874591,0.307153732,1.475000024,-0.10807515699999999,-0.036135502,1.3860000369999999,0.282709748,-0.060919125,1.379999995,-0.076502673,0.149648249,1.307000041,0.19878539399999998,0.141732067,1.353000045,-0.044294741,-0.26565769300000003,1.217000008,0.125902459,-0.256711602,1.271999955,-0.066390857,0.331781745,1.2410000559999999,-0.02855568,0.327719718,,,,1.264000058,0.063136049,0.321498215
1.57e+18,,29178.0,,1569265693.0,162489518.0,"""camera_color_frame""",1.3609999419999999,-0.183573917,-0.126014397,1.222000003,0.25123906100000004,-0.154747993,1.287999988,0.012128172,0.139671698,1.223999977,-0.093653068,0.30140242,1.481999993,-0.149435714,-0.060333356,1.3639999630000001,0.25610742,-0.057740819000000006,1.35800004,-0.125923529,0.134052917,1.292999983,0.152632266,0.142310128,1.343999982,-0.070148826,-0.270427287,1.179999948,0.099116735,-0.252732962,1.235999942,-0.10659498,0.324395508,1.217000008,-0.063520178,0.333219975,,,,1.253999949,0.021973725,0.318954736
1.57e+18,,29179.0,,1569265693.0,335059955.0,"""camera_color_frame""",1.35800004,-0.196379825,-0.11472859199999999,1.256000042,0.270447642,-0.13054618199999998,1.289999962,0.003780967,0.141979948,1.225999951,-0.08784285900000001,0.301894903,1.407999992,-0.16936792399999998,-0.039059427,1.376999974,0.254083186,-0.056058727,1.35800004,-0.13693232800000002,0.147262543,1.300999999,0.14935793,0.145299822,1.2960000040000001,-0.067643516,-0.271274626,1.159999967,0.09743679300000001,-0.244688138,1.243999958,-0.10325106199999999,0.32649517100000003,1.200000048,-0.049013752,0.330510736,,,,1.251000047,0.028005989,0.320219815
1.57e+18,,29180.0,,1569265693.0,501581460.0,"""camera_color_frame""",1.217000008,-0.172043577,-0.094924353,1.264000058,0.25782474899999996,-0.121131629,1.309999943,0.037822559,0.142057389,1.230999947,-0.020342173,0.28316900100000003,1.3860000369999999,-0.18245165100000002,-0.036202122,1.39199996,0.26136475800000003,-0.047642480999999993,1.35800004,-0.112712972,0.14946416,1.3409999609999999,0.190911382,0.145419061,1.317999959,-0.045285814,-0.273742825,1.312000036,0.133603334,-0.268242598,1.233999968,-0.030395323,0.309866577,1.213999987,0.019304521,0.30878073,,,,1.2410000559999999,0.082107857,0.297540843
1.57e+18,,29181.0,,1569265693.0,663347453.0,"""camera_color_frame""",1.32099998,-0.135343239,-0.141585395,1.235999942,0.288184702,-0.156520873,1.3409999609999999,0.093072519,0.128026694,1.218999982,0.106345415,0.234954685,1.376999974,-0.134383038,-0.060523547000000004,1.3860000369999999,0.298439831,-0.09687113,1.3710000519999999,-0.053775374,0.14422690900000001,1.379999995,0.254636765,0.120563701,1.235999942,-0.020424798,-0.272742331,1.111999989,0.147492319,-0.254393786,1.222000003,0.084813289,0.26326862,1.218999982,0.139944136,0.25866976399999997,1.271999955,0.044974718,0.28228938600000003,1.228999972,0.170981288,0.256806821
1.57e+18,,29182.0,,1569265693.0,831597932.0,"""camera_color_frame""",1.292999983,-0.09473978,-0.209856078,1.246000052,0.29657679800000003,-0.188087687,1.343999982,0.123787582,0.130492017,1.225999951,0.170563921,0.21642783300000001,1.353000045,-0.09694241,-0.057275169,1.39199996,0.317786872,-0.115344301,1.376999974,-0.022754813,0.153787747,1.376999974,0.280873954,0.11360437400000001,0.0,0.0,0.0,1.105999947,0.148489684,-0.261986464,1.222000003,0.15217609699999998,0.253363013,1.235999942,0.206022426,0.24023515,1.269000053,0.106592491,0.287795573,1.243999958,0.22954210600000002,0.23775649100000001
1.57e+18,,29183.0,,1569265693.0,992015132.0,"""camera_color_frame""",1.289999962,-0.08615393199999999,-0.221917361,1.228999972,0.294523001,-0.18552148300000001,1.353000045,0.13558478699999998,0.126978844,1.230999947,0.18323463199999998,0.19535765100000002,1.343999982,-0.08758131400000001,-0.06778872799999999,1.3860000369999999,0.323158562,-0.12383513199999999,1.3639999630000001,-0.007059576,0.15233586699999999,1.376999974,0.292036802,0.10467474199999999,1.146999955,-0.000357483,-0.256822199,1.129999995,0.168200761,-0.26950347399999997,1.212000012,0.162721068,0.231640562,1.225999951,0.21230655899999998,0.218415439,1.253999949,0.12159766300000001,0.26609671100000004,1.2410000559999999,0.245085075,0.22108772399999999
1.57e+18,,29184.0,,1569265694.0,169864361.0,"""camera_color_frame""",1.238999963,-0.080739021,-0.217161238,1.243999958,0.29610073600000003,-0.187785774,1.335000038,0.135945469,0.125289544,1.222000003,0.17000743699999998,0.195910484,1.3470000030000002,-0.08122503,-0.07667513200000001,1.379999995,0.32623446,-0.116587229,1.3739999530000002,-0.007111333,0.15122515,1.3639999630000001,0.295914173,0.105897859,1.1399999859999999,0.001493009,-0.255254835,1.1399999859999999,0.17338588800000002,-0.271888465,1.205000043,0.146151692,0.234209836,1.212000012,0.205952078,0.231640562,1.251000047,0.10508053699999999,0.283713341,1.217000008,0.230479553,0.23259618899999998
1.57e+18,,29185.0,,1569265694.0,327635834.0,"""camera_color_frame""",1.253999949,-0.083749637,-0.21775731399999998,1.233999968,0.293720514,-0.184275672,1.317999959,0.119255982,0.123694099,1.207000017,0.144437328,0.191548899,1.3470000030000002,-0.08996073199999999,-0.078858905,1.3710000519999999,0.324106842,-0.109158829,1.368000031,-0.02482406,0.148346961,1.35800004,0.279200196,0.109835245,1.151000023,-0.000358729,-0.263315856,1.1280000209999999,0.173389629,-0.274512678,1.18900001,0.121078022,0.21567902,1.205000043,0.177410841,0.21467421899999997,1.218999982,0.080652282,0.25866976399999997,1.210000038,0.209535837,0.225373328
1.57e+18,,29186.0,,1569265694.0,495208966.0,"""camera_color_frame""",1.2410000559999999,-0.08489348,-0.217511788,1.228999972,0.284559965,-0.18153654,1.287999988,0.08939404,0.120878607,1.18599999,0.116926745,0.178602442,1.335000038,-0.117297396,-0.084649332,1.3739999530000002,0.300311357,-0.107170142,1.315000057,-0.049446817000000004,0.138335809,1.343999982,0.252352178,0.119597465,1.159999967,-0.019168904,-0.26537481,1.111999989,0.149295241,-0.25799936100000004,1.167999983,0.092427649,0.208082572,1.1770000459999999,0.14084734,0.205869615,1.205000043,0.046513159000000005,0.255699009,1.1770000459999999,0.179013327,0.224951282
1.57e+18,,29187.0,,1569265694.0,666915052.0,"""camera_color_frame""",1.225999951,-0.09181834800000001,-0.216870323,1.235999942,0.274156988,-0.17856288,1.26699996,0.05506902599999999,0.12096183,1.1549999709999998,0.082035758,0.16457158300000002,1.325999975,-0.15950416,-0.081928931,1.376999974,0.269711137,-0.098474503,1.287999988,-0.094373427,0.125054851,1.324000001,0.21639742,0.124257199,1.138000011,-0.046481375,-0.2400475,0.0,0.0,0.0,1.1280000209999999,0.056342933,0.18449790800000002,1.146999955,0.114941426,0.195043713,1.159999967,0.010922887,0.23486644,1.149000049,0.139359578,0.20656043300000002
1.57e+18,,29188.0,,1569265694.0,834057751.0,"""camera_color_frame""",1.2589999440000001,-0.102454796,-0.220666677,1.246000052,0.256173372,-0.184047624,1.271999955,0.047037043,0.121439189,1.172999978,0.073805168,0.167136326,1.317999959,-0.164952561,-0.083571397,1.383000016,0.255190313,-0.105629995,1.2960000040000001,-0.105465785,0.132134855,1.338000059,0.207838938,0.125571102,1.1339999440000001,-0.053672325,-0.235526845,1.1219999790000001,0.114255287,-0.24212949,1.151000023,0.040696461,0.190125853,1.1549999709999998,0.097016804,0.19827657899999998,1.179999948,-0.008020421,0.244654953,1.157999992,0.132941186,0.22507467899999997
1.57e+18,,29189.0,,1569265694.0,985951846.0,"""camera_color_frame""",1.289999962,-0.102886006,-0.213551894,1.243999958,0.263829887,-0.181735411,1.2960000040000001,0.068936907,0.121629402,1.207000017,0.083772205,0.17393766300000002,1.35800004,-0.13693232800000002,-0.083906107,1.3890000580000001,0.27431359899999996,-0.108340122,1.350000024,-0.070461988,0.13545183800000002,1.3710000519999999,0.23297055100000003,0.119777411,1.166000009,-0.03250131,-0.24595376800000002,0.0,0.0,0.0,1.182000041,0.059040199999999994,0.20482789,1.192999959,0.115682624,0.20673407600000002,1.210000038,0.019240913999999998,0.24302832800000002,0.0,0.0,0.0
1.57e+18,,29190.0,,1569265695.0,140614178.0,"""camera_color_frame""",1.289999962,-0.088245444,-0.215643272,1.261000037,0.27561324800000003,-0.184218943,1.325999975,0.079132177,0.12014544,1.225999951,0.102980606,0.18065092,1.355999947,-0.116944008,-0.083782531,1.3980000019999999,0.285157442,-0.10904210800000001,1.35800004,-0.064274266,0.14285934,1.379999995,0.234499887,0.113851883,1.161999941,-0.022969915,-0.252645403,1.0789999959999999,0.129120022,-0.246844321,1.202999949,0.079593681,0.212367594,1.210000038,0.129101902,0.209679991,1.246000052,0.040015083,0.258339047,1.228999972,0.170981288,0.220942363
1.57e+18,,29191.0,,1569265695.0,288706104.0,"""camera_color_frame""",1.284999967,-0.098320417,-0.21480743600000002,1.2589999440000001,0.27517610800000003,-0.185967863,1.332000017,0.075171031,0.12500800199999998,1.230999947,0.119367406,0.19535765100000002,1.3470000030000002,-0.127087459,-0.08322645,1.394999981,0.282283783,-0.111069709,1.3639999630000001,-0.066769734,0.143490523,1.394999981,0.232525304,0.121874176,1.1399999859999999,-0.035473201,-0.247862101,1.083999991,0.127960846,-0.24798817899999998,1.218999982,0.096463442,0.22507339699999998,1.235999942,0.147907645,0.222200781,1.269000053,0.044868644000000006,0.26516506100000004,1.243999958,0.17508505300000002,0.22565576399999998
1.57e+18,,29192.0,,1569265695.0,463938880.0,"""camera_color_frame""",1.274000049,-0.09541319300000001,-0.215034038,1.2589999440000001,0.258846134,-0.19005008,1.3409999609999999,0.07133054700000001,0.125852644,1.230999947,0.10539644199999999,0.19535765100000002,1.353000045,-0.132040858,-0.083597168,1.3980000019999999,0.26249131600000003,-0.11584147800000001,1.383000016,-0.067699812,0.149973571,1.39199996,0.234282136,0.108071715,1.1549999709999998,-0.032194692999999996,-0.249250948,1.088000059,0.128433019,-0.248903275,1.212000012,0.084119231,0.231640562,1.233999968,0.145667598,0.22384181600000003,1.274000049,0.040914297,0.270340681,0.0,0.0,0.0
1.57e+18,,29193.0,,1569265695.0,631302703.0,"""camera_color_frame""",1.269000053,-0.09298127099999999,-0.21830475300000002,1.248999953,0.262865275,-0.184490755,1.3470000030000002,0.0716497,0.12204819900000001,1.230999947,0.087433785,0.203340501,1.355999947,-0.127936587,-0.083782531,1.3980000019999999,0.276091009,-0.10904210800000001,1.376999974,-0.07187122900000001,0.14262569,1.383000016,0.23276738800000002,0.107372977,1.144999981,-0.035628784,-0.248949215,1.088000059,0.12490502,-0.243611634,1.217000008,0.068681039,0.23654221,1.223999977,0.122657634,0.235918403,1.264000058,0.026247665,0.26821869600000003,0.0,0.0,0.0
1.57e+18,,29194.0,,1569265695.0,797854988.0,"""camera_color_frame""",1.281999946,-0.096012339,-0.216384336,1.235999942,0.266141146,-0.186578155,1.3409999609999999,0.077853143,0.125852644,1.222000003,0.061038177,0.261287481,1.355999947,-0.127936587,-0.083782531,1.39199996,0.274906069,-0.11083084300000001,1.379999995,-0.069790386,0.149648249,1.3639999630000001,0.23178105100000002,0.110320523,1.146999955,-0.03755068,-0.241945952,1.085999966,0.12115389900000001,-0.24316380899999998,1.2410000559999999,0.039854508,0.291505069,1.222000003,0.09868209800000001,0.281098694,1.284999967,0.022516936,0.291424185,1.269000053,0.153914109,0.269279689
1.57e+18,,29195.0,,1569265695.0,955145224.0,"""camera_color_frame""",1.253999949,-0.091882199,-0.211658314,1.233999968,0.26771122199999997,-0.18827682699999998,1.350000024,0.080564432,0.122320019,1.246000052,0.046075594000000004,0.284599423,1.3609999419999999,-0.121788464,-0.08409146199999999,1.394999981,0.282283783,-0.115592889,1.3739999530000002,-0.067259252,0.144542515,1.368000031,0.239114687,0.10620840599999999,1.151000023,-0.037681632,-0.24278970100000002,1.085999966,0.122914657,-0.24844571899999998,1.264000058,0.036494438,0.31330138399999996,1.225999951,0.087078653,0.301894903,,,,1.2799999709999998,0.155248269,0.273689032
1.57e+18,,29196.0,,1569265696.0,118100843.0,"""camera_color_frame""",1.2589999440000001,-0.09224855900000001,-0.208420038,1.233999968,0.26771122199999997,-0.18627624199999998,1.353000045,0.087324426,0.126978844,1.253999949,0.04637142599999999,0.278294712,1.343999982,-0.11808816300000001,-0.078683272,1.39199996,0.28167671,-0.11083084300000001,1.39199996,-0.065883487,0.150949538,1.383000016,0.243978843,0.11185725,1.152999997,-0.032138943999999996,-0.24695009,1.082999945,0.127842799,-0.24775941699999998,1.248999953,0.040111426,0.303508729,1.218999982,0.084605068,0.288313657,,,,1.2799999709999998,0.155248269,0.27161386600000004
1.57e+18,,29197.0,,1569265696.0,274594159.0,"""camera_color_frame""",1.223999977,-0.083730556,-0.17682926399999999,1.253999949,0.274083287,-0.158800304,1.332000017,0.079490244,0.12500800199999998,1.217000008,0.104197785,0.21286602300000002,1.350000024,-0.15582475099999998,-0.068091355,1.3980000019999999,0.291957289,-0.08637756099999999,1.3739999530000002,-0.067259252,0.148997605,1.3739999530000002,0.23793573699999998,0.122267053,1.0729999540000001,-0.035128053,-0.22633652399999998,1.274000049,0.15452054099999998,-0.26873508100000004,1.212000012,0.084119231,0.24539493,1.213999987,0.14330670199999998,0.239895418,1.251000047,0.040175654,0.269516408,1.228999972,0.174966499,0.242859527
1.57e+18,,29198.0,,1569265696.0,435561801.0,"""camera_color_frame""",1.166000009,-0.0438441,-0.162779093,1.2589999440000001,0.256804883,-0.13494020699999998,1.26699996,0.075611211,0.125069991,1.1770000459999999,0.12176434,0.161981776,1.274000049,-0.18010148399999998,-0.070454337,1.39199996,0.308759332,-0.058926117,1.2960000040000001,-0.067643516,0.136337042,1.3609999419999999,0.237891138,0.127729639,1.1770000459999999,-0.028991327,-0.27308026,1.144999981,0.151869342,-0.254518092,1.149000049,0.096512824,0.187932715,1.179999948,0.156511635,0.189177066,1.202999949,0.044485505999999994,0.241622373,1.184000015,0.18007797,0.20517447600000002
1.57e+18,,29199.0,,1569265696.0,602233238.0,"""camera_color_frame""",1.1399999859999999,-0.020686718,-0.168390289,1.246000052,0.23395149399999998,-0.11132653099999999,1.205000043,0.064096428,0.12481042699999999,1.136000037,0.119364582,0.139763981,1.218999982,-0.186161071,-0.079270288,1.3639999630000001,0.313606083,-0.035627484,1.2410000559999999,-0.080869354,0.13457498,1.317999959,0.221827477,0.127967611,1.205000043,-0.039449491,-0.26199459999999997,1.065999985,0.113737702,-0.22485996800000002,1.105999947,0.092900939,0.15938282,1.113999963,0.14053297,0.16053567800000001,1.136000037,0.03648245,0.224482045,,,
1.57e+18,,29200.0,,1569265696.0,769987341.0,"""camera_color_frame""",1.129999995,-0.022337351000000002,-0.172409087,1.246000052,0.22991114899999998,-0.09718632,1.138000011,0.056842428,0.117870763,1.111999989,0.109631144,0.12058612,1.218999982,-0.20592501800000002,-0.093104094,1.355999947,0.316163778,-0.017831616,1.207000017,-0.09039539099999999,0.123060785,1.2960000040000001,0.21812474699999998,0.134235948,1.190999985,-0.044784150999999994,-0.274397582,1.067999959,0.119145826,-0.23047620100000002,1.075000048,0.078096554,0.139230251,1.1100000140000001,0.131030008,0.140164241,1.093999982,0.022717521,0.210861713,,,
1.57e+18,,29201.0,,1569265696.0,916813419.0,"""camera_color_frame""",1.129999995,-0.018673157,-0.172409087,1.235999942,0.220050126,-0.090394877,1.1160000559999999,0.053934142000000004,0.11559207,1.1100000140000001,0.111233637,0.116770148,1.222000003,-0.202469289,-0.095314346,1.350000024,0.321331203,-0.011186806,1.200000048,-0.09570791599999999,0.116510727,1.27699995,0.21492692800000002,0.134338275,1.1710000040000001,-0.036437824,-0.269789726,1.0729999540000001,0.123182982,-0.236773893,1.057000041,0.080216371,0.131758094,1.085999966,0.124675415,0.13713365800000002,1.083999991,0.022509863999999997,0.19311772300000002,,,
1.57e+18,,29202.0,,1569265697.0,75043453.0,"""camera_color_frame""",1.129999995,-0.015008963,-0.179736957,1.235999942,0.22606199999999999,-0.076368146,1.083999991,0.054145157,0.117549784,1.08099997,0.09255366,0.113719396,1.222000003,-0.202469289,-0.095314346,1.3289999959999999,0.316332698,-0.011012788999999999,1.200000048,-0.09570791599999999,0.124292545,1.256000042,0.213428885,0.13620159,1.157999992,-0.022890842999999998,-0.272426724,1.120000005,0.135842234,-0.241697893,,,,1.057000041,0.10420873800000001,0.131758094,1.0789999959999999,0.029403675,0.172984794,,,
1.57e+18,,29203.0,,1569265697.0,230680558.0,"""camera_color_frame""",1.129999995,-0.018673157,-0.18156893600000001,1.217000008,0.222586945,-0.071248174,1.062000036,0.053046271,0.115164086,,,,1.210000038,-0.20636646399999997,-0.09437836699999999,1.309999943,0.330925703,-0.010855345,1.190999985,-0.09885209800000001,0.119498625,1.238999963,0.21054011600000003,0.136366785,1.159999967,-0.028572589,-0.272897244,1.088000059,0.131961033,-0.243611634,,,,,,,,,,,,
1.57e+18,,29204.0,,1569265697.0,400594328.0,"""camera_color_frame""",1.131999969,-0.018706206,-0.18189029399999998,1.1979999540000001,0.201630741,-0.14393989699999998,1.0579999690000002,0.05113111099999999,0.111299835,,,,1.200000048,-0.20466095199999998,-0.091652922,1.2960000040000001,0.31057918100000004,-0.033851337,1.18599999,-0.102282889,0.120919704,1.2410000559999999,0.210879982,0.13457498,1.164000034,-0.039994447999999995,-0.277612448,1.101999998,0.13365905,-0.243173182,,,,,,,,,,,,
1.57e+18,,29205.0,,1569265697.0,569541321.0,"""camera_color_frame""",1.120000005,-0.036666747,-0.161804557,1.200000048,0.240879163,-0.15196201199999998,1.144999981,0.059048489,0.120452091,1.10800004,0.10384750400000001,0.120152362,1.184000015,-0.22688756899999998,-0.061638154,1.315000057,0.293812007,-0.055666555,1.205000043,-0.08829190599999999,0.130671114,1.27699995,0.221138224,0.12191654,1.164000034,-0.062641114,-0.275725335,1.077000022,0.116657525,-0.249878868,1.06400001,0.077297427,0.13953054,1.085999966,0.12115389900000001,0.13713365800000002,1.1100000140000001,0.023049767999999998,0.20854698100000002,,,
1.57e+18,,29206.0,,1569265697.0,732956189.0,"""camera_color_frame""",1.085999966,-0.053161241,-0.134004354,1.223999977,0.255619258,-0.13714198800000002,1.174999952,0.07774112400000001,0.127417892,1.1280000209999999,0.12583941199999998,0.138779715,1.126000047,-0.221249983,-0.01115611,1.353000045,0.31107699899999997,-0.05508166900000001,1.225999951,-0.06597767,0.150836825,1.2960000040000001,0.237035885,0.121629402,1.30400002,-0.053261612,-0.262378842,1.152999997,0.132367179,-0.24134232100000003,1.093999982,0.09544043199999999,0.162974343,1.101999998,0.146165952,0.158806384,1.131999969,0.051036708,0.227362037,,,
1.57e+18,,29207.0,,1569265697.0,894604654.0,"""camera_color_frame""",1.09800005,-0.01458393,-0.151505888,1.246000052,0.272334754,-0.139606953,1.212000012,0.086084276,0.131430194,1.149000049,0.139359578,0.145088926,1.152999997,-0.196645066,-0.009554360999999999,1.379999995,0.308335036,-0.058418132000000005,1.243999958,-0.050810922,0.155068189,1.315000057,0.24264298399999998,0.11914876099999999,1.27699995,-0.043877072999999996,-0.267297596,1.274000049,0.146258265,-0.25634253,1.1100000140000001,0.116632648,0.177954704,1.1280000209999999,0.16790306600000002,0.164381906,1.152999997,0.072546773,0.24092617600000002,,,
1.57e+18,,29208.0,,1569265698.0,65558650.0,"""camera_color_frame""",1.149000049,-0.01898713,-0.165994138,1.248999953,0.244639948,-0.13994309300000002,1.225999951,0.085090905,0.12698555,1.144999981,0.142587259,0.148296416,1.210000038,-0.180863023,-0.059068363,1.3739999530000002,0.304766744,-0.058164142,1.238999963,-0.060650807,0.14440150599999999,1.312000036,0.242089435,0.118876942,1.182000041,-0.032947294,-0.274240315,1.077000022,0.128880695,-0.248132825,1.111999989,0.125857368,0.17827533199999998,1.118000031,0.16822719600000002,0.16836217,1.152999997,0.076285541,0.244664684,,,
1.57e+18,,29209.0,,1569265698.0,232815052.0,"""camera_color_frame""",1.136000037,-0.015088656,-0.16411604,1.2410000559999999,0.241060942,-0.133010969,1.205000043,0.077772304,0.126763985,1.143000007,0.1349255,0.144331291,1.218999982,-0.18418467,-0.067412741,1.3639999630000001,0.302548647,-0.048895485999999995,1.230999947,-0.068242602,0.13548629,1.309999943,0.239596456,0.12294329699999999,1.190999985,-0.033198162999999996,-0.26667413100000004,1.131999969,0.133627012,-0.24245229399999998,1.093999982,0.106082812,0.17184238100000002,1.1160000559999999,0.15164166699999998,0.162633166,1.129999995,0.056442831,0.23428821600000002,,,
1.57e+18,,29210.0,,1569265698.0,403894832.0,"""camera_color_frame""",1.1399999859999999,-0.011445165,-0.166542098,1.233999968,0.227696925,-0.104252636,1.190999985,0.061420742,0.129152939,1.120000005,0.11223574,0.139611229,1.210000038,-0.188710228,-0.070838362,1.353000045,0.30230239,-0.030953167,1.213999987,-0.08304648099999999,0.133615226,1.299000025,0.224947974,0.136652634,1.179999948,-0.036717873,-0.271863252,1.049000025,0.127230808,-0.23657988,1.092000008,0.08641351800000001,0.162676394,1.103999972,0.132111683,0.159094602,1.123999953,0.036097072,0.222110748,,,
1.57e+18,,29211.0,,1569265698.0,573001093.0,"""camera_color_frame""",1.151000023,-0.01528789,-0.16814908399999998,1.251000047,0.22677719600000001,-0.09757631300000001,1.149000049,0.057391871,0.12459842900000001,1.09800005,0.094009176,0.138648957,1.223999977,-0.192878157,-0.08554852800000001,1.350000024,0.301632106,-0.013375442,1.210000038,-0.088658266,0.131213322,1.292999983,0.217619836,0.140213907,1.18900001,-0.03121466,-0.27200916399999997,1.083999991,0.134990916,-0.23217164,1.067999959,0.067198567,0.162564009,1.082999945,0.11028385199999999,0.15606834,1.101999998,0.022883643999999998,0.221336544,,,
1.57e+18,,29212.0,,1569265698.0,732733254.0,"""camera_color_frame""",1.149000049,-0.015261326,-0.169719681,1.218999982,0.228881925,-0.093104094,1.126000047,0.056243032000000005,0.12392977599999999,1.09800005,0.094009176,0.127968401,1.217000008,-0.199667707,-0.087032296,1.332000017,0.314887166,-0.004559285,1.210000038,-0.088658266,0.131213322,1.2799999709999998,0.21543185399999998,0.140879318,1.1770000459999999,-0.036624525,-0.27117207600000004,1.0729999540000001,0.130141705,-0.22459696199999998,1.062000036,0.066821046,0.147876903,1.077000022,0.11141902199999999,0.146473467,1.092000008,0.017364528,0.212246582,,,
1.57e+18,,29213.0,,1569265698.0,888765168.0,"""camera_color_frame""",1.151000023,-0.01528789,-0.170015097,1.217000008,0.232452706,-0.090978324,1.126000047,0.058068644,0.122104295,1.111999989,0.10782823,0.122388914,1.225999951,-0.19915655300000001,-0.09165113400000001,1.332000017,0.33648324,0.00191908,1.205000043,-0.086338215,0.130671114,1.27699995,0.221138224,0.14054913800000002,1.192999959,-0.040990874,-0.27292427399999997,1.090000033,0.128669113,-0.22992247300000002,1.06400001,0.075572334,0.13953054,1.075000048,0.11469797,0.14097306099999998,1.092000008,0.019135015,0.205165133,,,
1.57e+18,,29214.0,,1569265699.0,47724965.0,"""camera_color_frame""",1.149000049,-0.015261326,-0.169719681,1.210000038,0.22915387199999998,-0.08849336199999999,1.1100000140000001,0.057243515,0.12216878699999999,1.095999956,0.10094583,0.118851073,1.228999972,-0.19964388,-0.09386786800000001,1.315000057,0.332188785,-0.000237307,1.205000043,-0.082430817,0.130671114,1.274000049,0.22268429399999998,0.140218943,1.184000015,-0.031083396,-0.27854338300000003,1.095999956,0.13826224199999998,-0.23118810399999998,1.065999985,0.07398606099999999,0.134608179,1.075000048,0.11295504099999999,0.137487456,1.082999945,0.018977308999999998,0.203474209,,,
1.57e+18,,29215.0,,1569265699.0,203211778.0,"""camera_color_frame""",1.1399999859999999,-0.015141785,-0.17578300800000002,1.192999959,0.22013162100000003,-0.12786629800000002,1.105999947,0.057037230999999994,0.119935475,1.095999956,0.106276743,0.12062791699999999,1.225999951,-0.195181057,-0.08767592199999999,1.307000041,0.33016786,-0.019306183,1.207000017,-0.086481512,0.126974389,1.271999955,0.23058401,0.139998823,1.1549999709999998,-0.02095891,-0.275465965,1.1100000140000001,0.15442574,-0.250337154,1.065999985,0.07398606099999999,0.134608179,1.069000006,0.114057794,0.136720076,1.083999991,0.017237315,0.208934277,,,
1.57e+18,,29216.0,,1569265699.0,367386879.0,"""camera_color_frame""",1.1549999709999998,-0.019086281,-0.174350947,1.210000038,0.22719205899999997,-0.137535036,1.138000011,0.060532562000000005,0.12340558300000001,1.101999998,0.101498455,0.126648024,1.225999951,-0.19120557600000002,-0.085688315,1.2960000040000001,0.329490334,-0.035952426,1.207000017,-0.082567632,0.130888,1.281999946,0.232396767,0.141099453,1.157999992,-0.022890842999999998,-0.279936165,1.100000024,0.149467602,-0.25521519800000003,1.069000006,0.074194275,0.14885161800000002,1.08099997,0.120596096,0.147017479,1.101999998,0.024670344,0.212403655,,,
1.57e+18,,29217.0,,1569265699.0,532043459.0,"""camera_color_frame""",1.143000007,-0.011475283000000001,-0.166980371,1.212000012,0.26293841,-0.15151673599999999,1.182000041,0.06862223099999999,0.128176972,1.1219999790000001,0.125170052,0.141679525,1.218999982,-0.186161071,-0.07136526,1.324000001,0.336608946,-0.041022148,1.207000017,-0.080610693,0.132844791,1.289999962,0.233846992,0.135705844,1.182000041,-0.027198077999999997,-0.272324055,1.085999966,0.129957691,-0.246685088,1.077000022,0.09395735699999999,0.169172063,1.09800005,0.145635411,0.167130411,1.131999969,0.04186001,0.225526825,,,
1.57e+18,,29218.0,,1569265699.0,699731327.0,"""camera_color_frame""",1.103999972,0.015765404,-0.14159487199999998,1.243999958,0.261812955,-0.11921498900000001,1.222000003,0.08679454800000001,0.132514611,1.1339999440000001,0.15408749900000002,0.16157937,1.217000008,-0.17598988100000001,-0.061383095,1.368000031,0.325615615,-0.037949782,1.217000008,-0.057600722,0.143810496,1.32099998,0.248033643,0.126117274,1.18599999,-0.021521444,-0.267477363,1.129999995,0.135223016,-0.242023945,1.101999998,0.130085647,0.187391594,1.1100000140000001,0.17242243899999998,0.18155379600000002,1.149000049,0.07602089599999999,0.24381589899999997,,,
1.57e+18,,29219.0,,1569265699.0,861515215.0,"""camera_color_frame""",1.095999956,0.063629411,-0.15833731,1.26699996,0.27281621100000003,-0.104986519,1.251000047,0.10508053699999999,0.135659382,1.167999983,0.190900445,0.170211047,1.159999967,-0.135774598,-0.049105097,1.376999974,0.329990387,-0.038199455,1.222000003,-0.032081003999999996,0.152325824,1.350000024,0.25347873600000004,0.126697287,1.157999992,-0.019135855,-0.251775712,1.052999973,0.13283772800000002,-0.227239177,1.136000037,0.16909386199999998,0.20422337899999998,1.152999997,0.212750852,0.192325473,1.184000015,0.10713131699999999,0.260840416,,,
1.57e+18,,29220.0,,1569265700.0,38776495.0,"""camera_color_frame""",1.083999991,0.054145157,-0.17593503,1.284999967,0.280858874,-0.100228265,1.26699996,0.11464136800000001,0.139448509,1.18900001,0.21939355100000002,0.17905421600000002,1.146999955,-0.11937571300000001,-0.042976189000000005,1.3980000019999999,0.341822743,-0.029716197000000003,1.233999968,-0.012388888999999998,0.159823388,1.368000031,0.259076446,0.130604416,1.146999955,-0.018954081,-0.258681715,1.027999997,0.123017043,-0.22351074199999998,1.151000023,0.195586503,0.206919983,1.184000015,0.24150674,0.19749641399999998,1.192999959,0.13695927,0.266691357,,,
1.57e+18,,29221.0,,1569265700.0,207124477.0,"""camera_color_frame""",1.10800004,0.069715366,-0.145700514,1.284999967,0.287109077,-0.09189523,1.271999955,0.119218431,0.139998823,1.205000043,0.228206947,0.17951013100000002,1.149000049,-0.134487078,-0.031874489,1.40199995,0.356439382,-0.020709461999999998,1.238999963,-0.006412620999999999,0.160470963,1.379999995,0.270298749,0.129512787,1.217000008,-0.012218215,-0.262630641,1.223999977,0.148456156,-0.258188188,1.161999941,0.20310764,0.208897501,1.205000043,0.255558699,0.199045733,1.200000048,0.143599659,0.268256187,,,
1.57e+18,,29222.0,,1569265700.0,366797609.0,"""camera_color_frame""",1.092000008,0.075790599,-0.159529805,1.274000049,0.297044724,-0.089043155,1.274000049,0.11527475,0.14228437800000002,1.200000048,0.21753208300000001,0.190438002,1.129999995,-0.123102702,-0.025851499,1.383000016,0.365062654,-0.018186672,1.243999958,-0.012489284,0.161118552,1.376999974,0.260780871,0.131463647,1.172999978,-0.011776472,-0.26074209800000003,1.1280000209999999,0.136812538,-0.241595581,1.166000009,0.194354489,0.217177927,1.192999959,0.24140827399999998,0.20866817199999999,1.205000043,0.12661472,0.269373924,,,
1.57e+18,,29223.0,,1569265700.0,534472002.0,"""camera_color_frame""",1.08099997,0.07853244200000001,-0.17544812,1.261000037,0.289924681,-0.08609020699999999,1.274000049,0.10701247300000001,0.146415219,1.18900001,0.192404971,0.18869231600000003,1.129999995,-0.11577431099999999,-0.03317938,1.3739999530000002,0.36268696200000006,-0.011385683,1.233999968,-0.022392462999999998,0.155822232,1.3739999530000002,0.253529638,0.144542515,1.143000007,-0.013328457,-0.257779598,1.0729999540000001,0.133621082,-0.236773893,1.152999997,0.171624318,0.220364332,1.182000041,0.21810191899999998,0.20866043899999998,1.1979999540000001,0.108398072,0.271693528,,,
1.57e+18,,29224.0,,1569265700.0,694707105.0,"""camera_color_frame""",1.067999959,0.089709044,-0.17853257100000003,1.2589999440000001,0.28334111,-0.073707022,1.2589999440000001,0.089422531,0.14673245,1.174999952,0.178709134,0.18837547300000002,1.111999989,-0.115733035,-0.03805922,1.368000031,0.350013316,0.0019709470000000002,1.218999982,-0.037931431,0.153928116,1.35800004,0.237366766,0.147262543,1.090000033,-0.007408695,-0.236990958,1.041000009,0.134699509,-0.211148098,1.149000049,0.154262796,0.221462622,1.182000041,0.204687074,0.212492988,1.182000041,0.093535513,0.269981176,,,
1.57e+18,,29225.0,,1569265700.0,874741880.0,"""camera_color_frame""",1.034999967,0.088615209,-0.201541334,1.2960000040000001,0.30217424,-0.035952426,1.248999953,0.08668723,0.14556697,1.172999978,0.15938681400000002,0.191858202,1.092000008,-0.113651507,-0.047996885999999996,1.39199996,0.353897005,0.038113162,1.218999982,-0.039907828,0.151951864,1.353000045,0.22991184899999997,0.148913845,1.052999973,-0.012278973,-0.222117767,1.0460000040000001,0.13873828900000001,-0.21216225600000002,1.1399999859999999,0.138267994,0.22157611,1.164000034,0.18835945399999998,0.216805413,1.182000041,0.078204259,0.269981176,,,
1.57e+18,,29226.0,,1569265701.0,46591881.0,"""camera_color_frame""",1.067999959,0.11221952,-0.18892128800000002,1.317999959,0.320125192,-0.028015698999999998,1.256000042,0.08717306699999999,0.146382809,1.166000009,0.162216589,0.198274598,1.103999972,-0.11132053300000001,-0.046734504,1.444000006,0.341364175,0.046560023,1.207000017,-0.03755803,0.150456026,1.3609999419999999,0.231271267,0.14758786599999998,1.0579999690000002,0.011677789,-0.221457213,1.057000041,0.143624768,-0.19725720600000002,1.1399999859999999,0.14196461400000002,0.23081702,1.167999983,0.190900445,0.223231182,1.18599999,0.078468911,0.276663095,,,
1.57e+18,,29227.0,,1569265701.0,212988274.0,"""camera_color_frame""",1.10800004,0.12540464099999998,-0.187015474,1.335000038,0.315596372,-0.056513194,1.26699996,0.10847871,0.14561075,1.166000009,0.162216589,0.222848937,1.131999969,-0.082943104,-0.047919802000000004,1.437000036,0.295442313,-0.011907733,1.230999947,-0.01235877,0.161430538,1.355999947,0.24581125399999998,0.13165712400000001,1.123999953,0.001472055,-0.248027831,1.093999982,0.130915031,-0.23786065,1.152999997,0.137975335,0.26148802,1.161999941,0.195571721,0.24657447600000001,1.223999977,0.094874606,0.285527498,1.167999983,0.21362493899999999,0.23080547199999998
