rosbagTimestamp,header,seq,stamp,secs,nsecs,frame_id,lwrist.x,lwrist.y,lwrist.z,rwrist.x,rwrist.y,rwrist.z,neck.x,neck.y,neck.z,nose.x,nose.y,nose.z,lelbow.x,lelbow.y,lelbow.z,relbow.x,-.3,name.3,x.3,y.3,z.3,-.4,name.4,x.4,y.4,z.4,-.5,name.5,x.5,y.5,z.5,-.6,name.6,x.6,y.6,z.6,-.7,name.7,x.7,y.7,z.7,-.8
1.57e+18,,39980.0,,1569267652.0,562788926.0,"""camera_color_frame""",1.190999985,-0.245607957,-0.14696057099999998,1.40199995,0.179137751,-0.109354109,1.200000048,-0.06652405900000001,0.130128905,1.1219999790000001,-0.038551353,0.179878533,1.2799999709999998,-0.324145108,-0.07493645,1.4479999540000001,0.147452459,-0.023736462000000003,1.246000052,-0.22462731600000002,0.110876821,1.315000057,0.07421164200000001,0.166050434,1.039000034,-0.124981016,-0.25453788,1.143000007,0.055238999000000004,-0.255926549,1.082999945,-0.056526177000000004,0.201718435,1.085999966,-0.014424543,0.193474025,1.1280000209999999,-0.111911692,0.257647008,,,
1.57e+18,,39981.0,,1569267652.0,730553462.0,"""camera_color_frame""",1.200000048,-0.11321822599999999,-0.161689296,1.368000031,0.21471698600000003,-0.10670214900000001,1.217000008,-0.028003436,0.131972402,1.149000049,0.012682211,0.16371665900000001,1.292999983,-0.28341338,-0.10714093599999999,1.437000036,0.195259035,-0.018896779,1.253999949,-0.18134042600000003,0.11768771,1.338000059,0.116726965,0.164616376,1.1100000140000001,-0.095728502,-0.264733523,1.192999959,0.08280053,-0.269056052,1.10800004,-0.014716753,0.190208182,1.118000031,0.035904381,0.182862282,1.18599999,-0.06382505599999999,0.23051689600000003,,,
1.57e+18,,39982.0,,1569267652.0,913788312.0,"""camera_color_frame""",1.174999952,-0.044182517000000004,-0.181179851,1.3289999959999999,0.266773671,-0.110123977,1.246000052,0.044055425,0.135117188,1.1710000040000001,0.066085041,0.16874979399999998,1.2799999709999998,-0.19340147100000002,-0.118514635,1.444000006,0.28283435100000004,-0.01430677,1.289999962,-0.10706902300000001,0.125249028,1.3609999419999999,0.202585161,0.158620223,1.065999985,-0.021072228,-0.276706338,1.200000048,0.141654074,-0.276471108,1.146999955,0.044274352,0.195043713,1.144999981,0.092464,0.181709602,1.213999987,0.0035582129999999997,0.235959113,,,
1.57e+18,,39983.0,,1569267653.0,65950056.0,"""camera_color_frame""",1.18599999,0.001553254,-0.179030493,1.2960000040000001,0.283263117,-0.117894977,1.243999958,0.10449256,0.134900302,1.1710000040000001,0.121143617,0.161156043,1.300999999,-0.141731516,-0.101476245,1.424000025,0.348179966,-0.018725827,1.300999999,-0.044701699000000004,0.13475383800000001,1.35800004,0.274796665,0.156068981,1.100000024,-0.019960867,-0.274831861,1.1339999440000001,0.15408749900000002,-0.275972843,1.149000049,0.09837572300000001,0.189795479,1.144999981,0.15372575800000002,0.174284443,1.18900001,0.065173112,0.244593337,,,
1.57e+18,,39984.0,,1569267653.0,231272928.0,"""camera_color_frame""",1.212000012,0.021237765,-0.17509564800000002,1.2960000040000001,0.306376725,-0.119996071,1.233999968,0.139665455,0.127814174,,,,1.317999959,-0.122214444,-0.098528706,1.414000034,0.36866042,-0.032348689,1.299000025,-0.017253665,0.132440731,1.353000045,0.319851607,0.140139848,1.113999963,0.0014589579999999998,-0.272911638,1.166000009,0.179230765,-0.274308771,,,,,,,1.159999967,0.11624416,0.298807055,,,
1.57e+18,,39985.0,,1569267653.0,402172766.0,"""camera_color_frame""",1.222000003,0.019431734,-0.198332652,1.289999962,0.30077529,-0.11734917,1.207000017,0.138566509,0.12110398,,,,1.309999943,-0.115100816,-0.10430201900000001,1.407999992,0.36709609600000004,-0.029928759,1.289999962,-0.017134126,0.125249028,1.353000045,0.319851607,0.142333344,1.090000033,-0.00033971800000000003,-0.282936126,1.152999997,0.177232489,-0.273119688,1.090000033,0.15164329099999999,0.287844062,,,,1.1160000559999999,0.133547679,0.287472993,,,
1.57e+18,,39986.0,,1569267653.0,573016499.0,"""camera_color_frame""",1.233999968,0.033627557999999995,-0.18027451600000002,1.284999967,0.272525251,-0.100228265,1.166000009,0.120626353,0.122661255,,,,1.292999983,-0.13037812699999998,-0.119718298,1.40199995,0.354166269,-0.013890645,1.264000058,-0.020887496000000002,0.124773845,1.335000038,0.30044511,0.14476841699999998,1.138000011,-0.015115221000000002,-0.271411479,1.230999947,0.181238785,-0.265651882,,,,,,,1.100000024,0.129849568,0.283351511,,,
1.57e+18,,39987.0,,1569267653.0,735979067.0,"""camera_color_frame""",1.223999977,0.021448039,-0.180797994,1.284999967,0.26002484600000003,-0.11689432699999999,1.1339999440000001,0.098930031,0.11561799800000001,,,,1.287999988,-0.148668364,-0.11925534900000001,1.383000016,0.326943666,-0.013702398000000001,1.2410000559999999,-0.040628067999999996,0.11646766199999999,1.312000036,0.28250581,0.144401312,1.118000031,-0.018474858,-0.281141639,1.192999959,0.167907119,-0.26518783,,,,,,,,,,,,
1.57e+18,,39988.0,,1569267653.0,905338455.0,"""camera_color_frame""",1.212000012,0.025167856000000002,-0.17902545600000003,1.289999962,0.238030002,-0.07970462,1.100000024,0.088830039,0.11036817,,,,1.2799999709999998,-0.156046137,-0.122664936,1.4049999709999998,0.316198766,0.002024254,1.235999942,-0.056496039000000005,0.11199077199999999,0.0,0.0,0.0,1.113999963,-0.052725725,-0.271105587,1.1549999709999998,0.132596776,-0.260485947,,,,,,,,,,,,
1.57e+18,,39989.0,,1569267654.0,75245106.0,"""camera_color_frame""",1.202999949,0.021080058,-0.181596696,1.292999983,0.226005331,-0.075697526,1.10800004,0.080493934,0.105781935,,,,1.264000058,-0.16229297199999998,-0.123180836,1.40199995,0.297338843,0.00883875,1.225999951,-0.060014437999999996,0.10710948699999999,0.98299998,0.19572641,0.106597267,1.1399999859999999,-0.057652928,-0.270040303,1.138000011,0.11403953300000001,-0.25111714,,,,,,,,,,,,
1.57e+18,,39990.0,,1569267654.0,238470777.0,"""camera_color_frame""",1.19599998,0.024835607000000003,-0.178601056,1.289999962,0.223389447,-0.075521894,1.126000047,0.079975992,0.10750041199999999,,,,1.269000053,-0.162934959,-0.125725418,1.39199996,0.29070425,0.008775706999999999,1.213999987,-0.059427022999999995,0.10015665,0.9909999970000001,0.192499101,0.109071411,1.174999952,-0.057517915999999995,-0.272616237,1.138000011,0.11403953300000001,-0.243737385,,,,,,,,,,,,
1.57e+18,,39991.0,,1569267654.0,405216748.0,"""camera_color_frame""",1.1979999540000001,0.020992443,-0.180841938,1.281999946,0.22200408600000002,-0.075053535,1.1280000209999999,0.080118045,0.102205172,,,,1.261000037,-0.161907792,-0.124932826,1.407999992,0.30317696899999996,0.011159243999999999,1.210000038,-0.059231214000000004,0.093941651,0.9869999890000001,0.186921373,0.107031025,1.149000049,-0.056245178,-0.272172183,1.138000011,0.11403953300000001,-0.247427255,,,,,,,,,,,,
1.57e+18,,39992.0,,1569267654.0,577589620.0,"""camera_color_frame""",1.192999959,0.020904828,-0.182021275,1.287999988,0.21886657199999998,-0.0754048,1.111999989,0.077178702,0.10075545300000001,,,,1.264000058,-0.158194274,-0.133426905,1.40199995,0.295065731,0.011111691000000002,1.213999987,-0.059427022999999995,0.098188505,0.984000027,0.18475784399999998,0.10351516300000001,1.1549999709999998,-0.056538887,-0.273593456,1.1399999859999999,0.11239164300000001,-0.246013924,,,,,,,,,,,,
1.57e+18,,39993.0,,1569267654.0,741512304.0,"""camera_color_frame""",1.18900001,0.020834737,-0.181410968,1.27699995,0.21699737,-0.07476081700000001,1.095999956,0.072514273,0.10285943,,,,1.261000037,-0.15577431,-0.133110225,1.39199996,0.292961121,0.011032433999999999,1.207000017,-0.062998243,0.09370873099999999,0.9750000240000001,0.183067977,0.10731042199999999,1.149000049,-0.059970986,-0.274034947,1.138000011,0.11403953300000001,-0.25111714,,,,,,,,,,,,
1.57e+18,,39994.0,,1569267654.0,911995703.0,"""camera_color_frame""",1.184000015,0.020747123,-0.18256761100000002,1.281999946,0.22200408600000002,-0.072975144,1.09800005,0.072646596,0.10304713199999999,,,,1.264000058,-0.158194274,-0.133426905,1.40199995,0.306431234,0.024749327,1.212000012,-0.06522426,0.092132017,0.953999996,0.17912498100000002,0.11118566199999999,1.1549999709999998,-0.060284149,-0.275465965,1.143000007,0.114540584,-0.255926549,,,,,,,,,,,,
1.57e+18,,39995.0,,1569267655.0,78157022.0,"""camera_color_frame""",1.18599999,0.020782169,-0.18095324899999998,1.2799999709999998,0.22165773800000002,-0.072861299,1.07099998,0.074333087,0.10051319,,,,1.261000037,-0.15372982599999999,-0.135154575,1.394999981,0.304901272,0.026887348,1.205000043,-0.062893853,0.09159989699999999,0.9440000059999999,0.17724736,0.108489774,1.1160000559999999,-0.06186737900000001,-0.27340158800000003,1.138000011,0.11219446400000001,-0.26403170800000003,,,,,,,,,,,,
1.57e+18,,39996.0,,1569267655.0,237151001.0,"""camera_color_frame""",1.190999985,0.020869782,-0.179785267,1.284999967,0.226690397,-0.06689614099999999,1.083999991,0.071720324,0.101733238,,,,1.26699996,-0.158569723,-0.133743584,1.39199996,0.308759332,0.03134298,1.202999949,-0.062789463,0.09144786699999999,0.934000015,0.17536974,0.113397367,1.120000005,-0.054825589,-0.27075001600000004,1.1399999859999999,0.114239953,-0.26449573,,,,,,,,,,,,
1.57e+18,,39997.0,,1569267655.0,404636294.0,"""camera_color_frame""",1.205000043,0.019161407,-0.181898609,1.281999946,0.226161152,-0.066739962,1.069000006,0.070727885,0.100325488,,,,1.256000042,-0.161265805,-0.132582426,1.3980000019999999,0.3123568,0.036010988,1.1979999540000001,-0.06252849099999999,0.091067784,0.935000002,0.17252562899999999,0.108971275,1.092000008,-0.056995921,-0.271062732,1.1339999440000001,0.111800104,-0.268619031,,,,,,,,,,,,
1.57e+18,,39998.0,,1569267655.0,571673861.0,"""camera_color_frame""",1.19599998,0.020957397,-0.176662087,1.281999946,0.22408261899999998,-0.066739962,1.07099998,0.07086020700000001,0.10051319,,,,1.253999949,-0.16304215800000002,-0.13033831099999998,1.39199996,0.308759332,0.035856437000000005,1.1979999540000001,-0.06252849099999999,0.091067784,0.92900002,0.17443093699999998,0.103753679,1.123999953,-0.056843765,-0.271716982,1.143000007,0.114540584,-0.265191793,,,,,,,,,,,,
1.57e+18,,39999.0,,1569267655.0,735663079.0,"""camera_color_frame""",1.190999985,0.020869782,-0.17592352600000002,1.271999955,0.21614772100000001,-0.072405919,1.06400001,0.073847249,0.096406296,,,,1.253999949,-0.161009014,-0.12423931099999999,1.379999995,0.310572475,0.033310056,1.19599998,-0.062424105,0.09091574699999999,0.938000023,0.176120788,0.10323812800000001,1.118000031,-0.054727685,-0.272079051,1.1399999859999999,0.11239164300000001,-0.260799378,,,,,,,,,,,,
1.57e+18,,40000.0,,1569267655.0,910887933.0,"""camera_color_frame""",1.190999985,0.020869782,-0.17592352600000002,1.26699996,0.21529808600000003,-0.07417538,1.059999943,0.070132419,0.099480838,,,,1.2589999440000001,-0.16573348599999999,-0.12473467699999999,1.368000031,0.307871819,0.030802585,1.19599998,-0.062424105,0.09091574699999999,0.920000017,0.169757828,0.107223071,1.1549999709999998,-0.056538887,-0.273593456,1.1399999859999999,0.11054333300000001,-0.26264756899999997,,,,,,,,,,,,
1.57e+18,,40001.0,,1569267656.0,64910036.0,"""camera_color_frame""",1.184000015,0.020747123,-0.178728595,1.264000058,0.214788303,-0.080147386,1.0460000040000001,0.069206141,0.098166943,,,,1.251000047,-0.168736935,-0.12799835199999998,1.368000031,0.30565387,0.028584767,1.18900001,-0.062058747000000004,0.08845601199999999,0.9129999879999999,0.168466195,0.10788741,1.1549999709999998,-0.056538887,-0.271720946,1.136000037,0.111997284,-0.245150715,,,,,,,,,,,,
1.57e+18,,40002.0,,1569267656.0,233010190.0,"""camera_color_frame""",1.184000015,0.020747123,-0.18256761100000002,1.269000053,0.211523026,-0.096922964,1.0460000040000001,0.067510232,0.098166943,,,,1.251000047,-0.168736935,-0.134082764,1.355999947,0.300774157,0.015143841000000002,1.18599999,-0.06382505599999999,0.08823283,0.9089999790000001,0.167728126,0.110362105,1.1549999709999998,-0.05841152,-0.271720946,1.1399999859999999,0.11239164300000001,-0.251558483,,,,,,,,,,,,
1.57e+18,,40003.0,,1569267656.0,401938823.0,"""camera_color_frame""",1.18599999,0.018859277,-0.182876006,1.287999988,0.21886657199999998,-0.13804844,1.0460000040000001,0.067510232,0.094775364,,,,1.2410000559999999,-0.167388126,-0.133010969,1.376999974,0.30543217100000003,0.0064487319999999996,1.18900001,-0.065914258,0.08845601199999999,0.912,0.168281674,0.106290698,1.095999956,-0.053650755,-0.26850193699999997,1.143000007,0.121953279,-0.261485696,,,,,,,,,,,,
1.57e+18,,40004.0,,1569267656.0,576116509.0,"""camera_color_frame""",1.179999948,0.016850703999999998,-0.18768993,1.292999983,0.22390894600000003,-0.119718298,1.04400003,0.072459139,0.094594151,,,,1.253999949,-0.16914157600000002,-0.132371306,1.3890000580000001,0.290077746,-0.01150998,1.190999985,-0.064094134,0.0886048,0.925000012,0.18267823800000002,0.10180731900000001,1.085999966,-0.053161241,-0.269573361,1.146999955,0.114941426,-0.256822199,,,,,,,,,,,,
1.57e+18,,40005.0,,1569267656.0,734494015.0,"""camera_color_frame""",1.184000015,0.018827474,-0.190245673,1.289999962,0.223389447,-0.081795983,1.0460000040000001,0.072597951,0.094775364,,,,1.251000047,-0.168736935,-0.138139039,1.3980000019999999,0.287424058,0.011079988,1.1979999540000001,-0.070297882,0.08718335599999999,0.9269999859999999,0.181570247,0.102027446,1.092000008,-0.05876641,-0.271062732,1.144999981,0.12216667099999999,-0.237811491,,,,,,,,,,,,
1.57e+18,,40006.0,,1569267656.0,905752363.0,"""camera_color_frame""",1.182000041,0.013046452,-0.18417550600000002,1.284999967,0.222523585,-0.075229168,1.0460000040000001,0.067510232,0.098166943,,,,1.2589999440000001,-0.169815987,-0.139022425,1.394999981,0.286807269,0.015579393,1.205000043,-0.07461603,0.089646339,0.0,0.0,0.0,1.092000008,-0.05876641,-0.274603456,1.1399999859999999,0.11608826400000001,-0.246013924,,,,,,,,,,,,
1.57e+18,,40007.0,,1569267657.0,63677484.0,"""camera_color_frame""",1.190999985,0.017007787,-0.185577855,1.284999967,0.218356788,-0.075229168,1.0460000040000001,0.062422517999999996,0.099862732,,,,1.251000047,-0.168736935,-0.138139039,1.3890000580000001,0.292329758,0.020016113000000002,1.207000017,-0.07865375299999999,0.089795128,0.0,0.0,0.0,1.093999982,-0.057100310999999994,-0.271559179,1.138000011,0.115884595,-0.247427255,,,,,,,,,,,,
1.57e+18,,40008.0,,1569267657.0,227790022.0,"""camera_color_frame""",1.192999959,0.018970588,-0.185889482,1.284999967,0.218356788,-0.075229168,1.042000055,0.06218380900000001,0.099480845,,,,1.256000042,-0.16941134600000002,-0.13869115699999998,1.3890000580000001,0.292329758,0.02451984,1.205000043,-0.07461603,0.089646339,0.0,0.0,0.0,1.105999947,-0.05772664,-0.270951748,1.1399999859999999,0.114239953,-0.247862101,,,,,,,,,,,,
1.57e+18,,40009.0,,1569267657.0,382973707.0,"""camera_color_frame""",1.18900001,0.016979227,-0.18526621199999999,1.281999946,0.217847005,-0.075053535,1.04400003,0.058917835,0.09967178900000001,,,,1.261000037,-0.170085758,-0.139243275,1.383000016,0.291066974,0.019929649,1.210000038,-0.07884924900000001,0.09001831699999999,0.0,0.0,0.0,1.126000047,-0.058770522,-0.274025947,1.144999981,0.11659742099999999,-0.247092932,,,,,,,,,,,,
1.57e+18,,40010.0,,1569267657.0,539452713.0,"""camera_color_frame""",1.192999959,0.017036347,-0.185889482,1.284999967,0.218356788,-0.075229168,1.039000034,0.058635663,0.09919443,,,,1.2589999440000001,-0.169815987,-0.139022425,1.39199996,0.295218021,0.024572799,1.207000017,-0.07865375299999999,0.089795128,0.0,0.0,0.0,1.09800005,-0.057309087,-0.272552073,1.143000007,0.11639376,-0.24851436899999998,,,,,,,,,,,,
1.57e+18,,40011.0,,1569267657.0,701623611.0,"""camera_color_frame""",1.18599999,0.016936386,-0.184798762,1.27699995,0.21492692800000002,-0.07476081700000001,1.042000055,0.05542612400000001,0.099480845,,,,1.256000042,-0.16941134600000002,-0.13869115699999998,1.394999981,0.302639514,0.024625757999999998,1.202999949,-0.07839309400000001,0.089497544,0.0,0.0,0.0,1.093999982,-0.053552851,-0.271559179,1.138000011,0.115884595,-0.247427255,,,,,,,,,,,,
1.57e+18,,40012.0,,1569267657.0,879617342.0,"""camera_color_frame""",1.18900001,0.016979227,-0.183338597,1.281999946,0.21576845600000003,-0.079210326,1.034999967,0.058409922,0.09881255,,,,1.251000047,-0.168736935,-0.138139039,1.383000016,0.29330927100000004,0.019929649,1.202999949,-0.074492186,0.089497544,0.0,0.0,0.0,1.1399999859999999,-0.053956307,-0.271888465,1.138000011,0.11403953300000001,-0.2400475,,,,,,,,,,,,
1.57e+18,,40013.0,,1569267658.0,34053459.0,"""camera_color_frame""",1.190999985,0.018938785,-0.185577855,1.274000049,0.214422017,-0.08284688,1.039000034,0.060320217,0.09919443,,,,1.2589999440000001,-0.169815987,-0.139022425,1.376999974,0.292036802,0.015378369,1.19599998,-0.07211963099999999,0.088976778,0.0,0.0,0.0,1.111999989,-0.052631065,-0.270618886,1.138000011,0.115884595,-0.23820255699999998,,,,,,,,,,,,
1.57e+18,,40014.0,,1569267658.0,203503647.0,"""camera_color_frame""",1.18599999,0.016936386,-0.182876006,1.269000053,0.205350637,-0.098980285,1.031999946,0.058240619,0.098526135,,,,1.2589999440000001,-0.169815987,-0.139022425,1.379999995,0.292673022,0.008700054,1.19599998,-0.07018052799999999,0.088976778,0.0,0.0,0.0,1.129999995,-0.057147200999999995,-0.273167431,1.136000037,0.10647180699999999,-0.252517521,,,,,,,,,,,,
1.57e+18,,40015.0,,1569267658.0,362929493.0,"""camera_color_frame""",1.184000015,0.016907824,-0.188326165,1.287999988,0.210513502,-0.13804844,1.04400003,0.053839844000000005,0.09797924,,,,1.264000058,-0.16639168599999998,-0.139574543,1.39199996,0.301988661,-0.009278112,1.19599998,-0.074058734,0.08703780900000001,0.9129999879999999,0.168466195,0.11084774900000001,1.082999945,-0.063549757,-0.274096012,1.123999953,0.10170237,-0.271716982,,,,,,,,,,,,
1.57e+18,,40016.0,,1569267658.0,517095444.0,"""camera_color_frame""",1.18599999,0.016936386,-0.19056704600000002,1.2960000040000001,0.21812474699999998,-0.136804804,1.039000034,0.055266548,0.097509995,,,,1.2589999440000001,-0.16573348599999999,-0.139022425,1.3890000580000001,0.285573691,-0.013761843999999999,1.207000017,-0.074739873,0.089795128,0.0,0.0,0.0,1.057000041,-0.055169132,-0.27265653,1.151000023,0.128405288,-0.263315856,,,,,,,,,,,,
1.57e+18,,40017.0,,1569267658.0,668214931.0,"""camera_color_frame""",1.184000015,0.016907824,-0.190245673,1.2960000040000001,0.22022599,-0.080075338,1.04400003,0.060610499000000005,0.09797924,,,,1.264000058,-0.164342329,-0.13547611199999998,1.40199995,0.288246453,0.01565757,1.207000017,-0.074739873,0.089795128,0.0,0.0,0.0,1.052999973,-0.068618394,-0.276746124,1.143000007,0.114540584,-0.25222048199999997,,,,,,,,,,,,
1.57e+18,,40018.0,,1569267658.0,838598003.0,"""camera_color_frame""",1.190999985,0.01314579,-0.18943958,1.292999983,0.217619836,-0.075697526,1.0460000040000001,0.057334799000000006,0.098166943,,,,1.261000037,-0.165996775,-0.135154575,1.407999992,0.289480031,0.020289911,1.217000008,-0.079305403,0.090539083,0.0,0.0,0.0,1.062000036,-0.069204874,-0.273946315,1.143000007,0.110834233,-0.25407350100000003,,,,,,,,,,,,
1.57e+18,,40019.0,,1569267659.0,2986477.0,"""camera_color_frame""",1.182000041,0.016879263999999998,-0.18800804,1.2960000040000001,0.21812474699999998,-0.07587315900000001,1.0460000040000001,0.055638890999999996,0.098166943,,,,1.26699996,-0.166786611,-0.13990581,1.394999981,0.286807269,0.024625757999999998,1.207000017,-0.074739873,0.089795128,0.0,0.0,0.0,1.082999945,-0.06530565,-0.272340238,1.138000011,0.106659256,-0.260341823,,,,,,,,,,,,
1.57e+18,,40020.0,,1569267659.0,162298370.0,"""camera_color_frame""",1.18599999,0.013090602,-0.18864429,1.292999983,0.217619836,-0.075697526,1.042000055,0.05542612400000001,0.099480845,,,,1.261000037,-0.170085758,-0.139243275,1.3980000019999999,0.287424058,0.024678716,1.212000012,-0.078979582,0.090167105,0.0,0.0,0.0,1.088000059,-0.060315151,-0.271833688,1.143000007,0.110834233,-0.261485696,,,,,,,,,,,,
1.57e+18,,40021.0,,1569267659.0,310736743.0,"""camera_color_frame""",1.184000015,0.018827474,-0.188326165,1.289999962,0.21711491,-0.075521894,1.049000025,0.055798467000000004,0.10014914,,,,1.261000037,-0.165996775,-0.139243275,1.4049999709999998,0.293419152,0.027080088999999998,1.212000012,-0.078979582,0.090167105,0.0,0.0,0.0,1.085999966,-0.063725792,-0.269573361,1.1339999440000001,0.104445778,-0.259426743,,,,,,,,,,,,
1.57e+18,,40022.0,,1569267659.0,472605727.0,"""camera_color_frame""",1.18599999,0.016936386,-0.18864429,1.292999983,0.217619836,-0.075697526,1.047999978,0.055745277999999995,0.09835463800000001,,,,1.264000058,-0.16639168599999998,-0.139574543,1.3980000019999999,0.294223905,0.024678716,1.210000038,-0.07884924900000001,0.09001831699999999,0.0,0.0,0.0,1.06400001,-0.06588503,-0.279637128,1.1399999859999999,0.10684671300000001,-0.26264756899999997,,,,,,,,,,,,
1.57e+18,,40023.0,,1569267659.0,635096753.0,"""camera_color_frame""",1.18599999,0.016936386,-0.18864429,1.274000049,0.20822531,-0.091108583,1.041000009,0.05537293099999999,0.09769769,,,,1.2589999440000001,-0.169815987,-0.139022425,1.3860000369999999,0.293945521,0.010984881,1.207000017,-0.074739873,0.089795128,0.0,0.0,0.0,1.04400003,-0.062953927,-0.274380773,1.1399999859999999,0.114239953,-0.26264756899999997,,,,,,,,,,,,
1.57e+18,,40024.0,,1569267659.0,810872548.0,"""camera_color_frame""",1.18599999,0.016936386,-0.19056704600000002,1.27699995,0.20457477899999998,-0.11823687,1.036999941,0.053478847999999995,0.097322293,,,,1.26699996,-0.166786611,-0.13990581,1.3860000369999999,0.300686985,0.0064908809999999996,1.205000043,-0.07461603,0.087692775,0.0,0.0,0.0,1.062000036,-0.058873795,-0.273946315,1.136000037,0.11383911199999999,-0.269092768,,,,,,,,,,,,
1.57e+18,,40025.0,,1569267659.0,976087647.0,"""camera_color_frame""",1.19599998,0.013200979,-0.194112822,1.292999983,0.20294521699999998,-0.136488125,1.041000009,0.05537293099999999,0.094322331,,,,1.264000058,-0.164342329,-0.139574543,1.3980000019999999,0.294223905,-0.011584559,1.202999949,-0.070591278,0.089497544,0.0,0.0,0.0,1.082999945,-0.067061543,-0.272340238,1.1399999859999999,0.11239164300000001,-0.26264756899999997,,,,,,,,,,,,
1.57e+18,,40026.0,,1569267660.0,135609573.0,"""camera_color_frame""",1.18599999,0.016936386,-0.19248980300000001,1.292999983,0.217619836,-0.09875602300000001,1.039000034,0.058635663,0.097509995,,,,1.264000058,-0.164342329,-0.139574543,1.3980000019999999,0.285157442,0.008813533,1.202999949,-0.072541736,0.087547228,0.0,0.0,0.0,1.050999999,-0.068488069,-0.2762205,1.152999997,0.11367329999999999,-0.265642673,,,,,,,,,,,,
1.57e+18,,40027.0,,1569267660.0,303201447.0,"""camera_color_frame""",1.190999985,0.01314579,-0.19716303100000002,1.300999999,0.218966275,-0.076165877,1.039000034,0.058635663,0.097509995,,,,1.26699996,-0.166786611,-0.13990581,1.3980000019999999,0.285157442,0.024678716,1.205000043,-0.072662339,0.087692775,0.0,0.0,0.0,1.059999943,-0.070793152,-0.27514889800000003,1.138000011,0.099278986,-0.245582327,,,,,,,,,,,,
1.57e+18,,40028.0,,1569267660.0,472192466.0,"""camera_color_frame""",1.190999985,0.011214793,-0.19716303100000002,1.2960000040000001,0.21812474699999998,-0.07587315900000001,1.050999999,0.054200839,0.09863618800000001,,,,1.26699996,-0.166786611,-0.13990581,1.4049999709999998,0.293419152,0.024802286,1.218999982,-0.079435728,0.08475910099999999,0.0,0.0,0.0,1.034999967,-0.069123507,-0.27201542300000003,1.138000011,0.097433917,-0.245582327,,,,,,,,,,,,
1.57e+18,,40029.0,,1569267660.0,640253055.0,"""camera_color_frame""",1.19599998,0.00544456,-0.19799076,1.30400002,0.219471201,-0.07634151,1.042000055,0.05542612400000001,0.09779153800000001,,,,1.26699996,-0.166786611,-0.13990581,1.407999992,0.294045687,0.027137911,1.212000012,-0.078979582,0.08623728900000001,0.0,0.0,0.0,1.049000025,-0.068357736,-0.275694877,1.144999981,0.103602499,-0.252661794,,,,,,,,,,,,
1.57e+18,,40030.0,,1569267660.0,809711529.0,"""camera_color_frame""",1.19599998,0.00544456,-0.194112822,1.299000025,0.216523573,-0.08026070099999999,1.042000055,0.053736705,0.09779153800000001,,,,1.269000053,-0.17116481100000003,-0.140126646,1.394999981,0.291330755,0.024625757999999998,1.207000017,-0.07865375299999999,0.08392471800000001,0.0,0.0,0.0,1.054999948,-0.070459224,-0.277271777,1.151000023,0.11347612,-0.253985792,,,,,,,,,,,,
1.57e+18,,40031.0,,1569267660.0,971585291.0,"""camera_color_frame""",1.190999985,0.009283794,-0.193301305,1.2799999709999998,0.198829487,-0.09361281199999999,1.04400003,0.052147184000000006,0.09797924,,,,1.26699996,-0.17089504,-0.13990581,1.3860000369999999,0.284956902,0.010984881,1.1979999540000001,-0.07806727299999999,0.08718335599999999,0.0,0.0,0.0,1.067999959,-0.07132744,-0.27549403899999997,1.143000007,0.110834233,-0.25222048199999997,,,,,,,,,,,,
1.57e+18,,40032.0,,1569267661.0,136128455.0,"""camera_color_frame""",1.192999959,0.005430903000000001,-0.197494119,1.274000049,0.19170077100000002,-0.117959097,1.0340000390000001,0.051647689000000004,0.09704074300000001,,,,1.269000053,-0.17116481100000003,-0.140126646,1.376999974,0.283106536,0.001983913,1.217000008,-0.081278555,0.088566065,0.0,0.0,0.0,1.06400001,-0.072785385,-0.279637128,1.143000007,0.114540584,-0.257779598,,,,,,,,,,,,
1.57e+18,,40033.0,,1569267661.0,298432492.0,"""camera_color_frame""",1.190999985,0.0034908,-0.208748221,1.289999962,0.198291332,-0.144536898,1.031999946,0.051547788,0.09350685800000001,,,,1.271999955,-0.17156945199999998,-0.1425201,1.383000016,0.282097816,-0.013702398000000001,1.212000012,-0.080944628,0.084272377,0.0,0.0,0.0,1.062000036,-0.084701501,-0.273946315,0.0,0.0,0.0,,,,,,,,,,,,
1.57e+18,,40034.0,,1569267661.0,456896800.0,"""camera_color_frame""",1.192999959,0.003496662,-0.20909875600000002,1.2960000040000001,0.211821035,-0.12629933699999998,1.041000009,0.051997334000000006,0.094322331,,,,1.264000058,-0.17253975600000002,-0.14162375,1.3980000019999999,0.28289082600000004,-0.009318104,1.202999949,-0.080343552,0.083646595,0.0,0.0,0.0,1.057000041,-0.07230653599999999,-0.27437016399999997,1.144999981,0.107315332,-0.263799518,,,,,,,,,,,,
1.57e+18,,40035.0,,1569267661.0,614604704.0,"""camera_color_frame""",1.190999985,0.0034908,-0.20102475600000003,1.299000025,0.216523573,-0.08026070099999999,1.034999967,0.05337571,0.09713459,,,,1.26699996,-0.17089504,-0.14195987599999998,1.4110000130000002,0.285521448,0.018045612,1.213999987,-0.081078194,0.08834774,0.0,0.0,0.0,1.059999943,-0.065637343,-0.27514889800000003,1.161999941,0.11644458,-0.25076156899999996,,,,,,,,,,,,
1.57e+18,,40036.0,,1569267661.0,781100678.0,"""camera_color_frame""",1.18599999,0.009244819,-0.19825807199999998,1.300999999,0.21263824399999998,-0.076165877,1.034999967,0.051697638,0.09713459,,,,1.271999955,-0.17156945199999998,-0.1425201,1.3980000019999999,0.28289082600000004,0.024678716,1.210000038,-0.082772858,0.088056646,0.0,0.0,0.0,1.054999948,-0.068748727,-0.272140622,1.143000007,0.09971518800000001,-0.246661335,,,,,,,,,,,,
1.57e+18,,40037.0,,1569267661.0,937411871.0,"""camera_color_frame""",1.192999959,0.003496662,-0.197494119,1.307000041,0.213618904,-0.076517142,1.036999941,0.050116222,0.097322293,,,,1.264000058,-0.17253975600000002,-0.14162375,1.40199995,0.283700258,0.027022267000000003,1.205000043,-0.082430817,0.087692775,0.0,0.0,0.0,1.047999978,-0.068292573,-0.270334959,1.1399999859999999,0.09575684400000001,-0.246013924,,,,,,,,,,,,
1.57e+18,,40038.0,,1569267662.0,106443216.0,"""camera_color_frame""",1.192999959,0.005430903000000001,-0.197494119,1.307000041,0.211499825,-0.076517142,1.041000009,0.051997334000000006,0.09769769,,,,1.26699996,-0.172949255,-0.14195987599999998,1.394999981,0.282283783,0.024625757999999998,1.210000038,-0.082772858,0.088056646,0.0,0.0,0.0,1.050999999,-0.068488069,-0.27110880600000004,1.138000011,0.097433917,-0.243737385,,,,,,,,,,,,
1.57e+18,,40039.0,,1569267662.0,271600478.0,"""camera_color_frame""",1.192999959,0.005430903000000001,-0.197494119,1.315000057,0.219190523,-0.076985493,1.039000034,0.051897436,0.097509995,,,,1.264000058,-0.170490399,-0.14162375,1.40199995,0.28597334,0.024749327,1.207000017,-0.082567632,0.085881524,0.0,0.0,0.0,1.065999985,-0.069465533,-0.276706338,1.144999981,0.098033249,-0.247092932,,,,,,,,,,,,
1.57e+18,,40040.0,,1569267662.0,440621863.0,"""camera_color_frame""",1.1979999540000001,0.001568969,-0.198321849,1.287999988,0.200072169,-0.079581045,1.042000055,0.052047282,0.09779153800000001,,,,1.261000037,-0.172130242,-0.139243275,1.3860000369999999,0.282709748,0.015478881000000002,1.205000043,-0.080477118,0.087692775,0.0,0.0,0.0,1.059999943,-0.065637343,-0.273430407,1.144999981,0.099889666,-0.252661794,,,,,,,,,,,,
1.57e+18,,40041.0,,1569267662.0,608241379.0,"""camera_color_frame""",1.192999959,0.003496662,-0.201362342,1.274000049,0.193766341,-0.113828249,1.027999997,0.04968126900000001,0.096477643,,,,1.269000053,-0.17322227399999998,-0.140126646,1.383000016,0.282097816,-0.000249579,1.205000043,-0.082430817,0.085739218,0.0,0.0,0.0,1.039000034,-0.074444316,-0.2730667,1.136000037,0.09542086,-0.263567686,,,,,,,,,,,,
1.57e+18,,40042.0,,1569267662.0,781119695.0,"""camera_color_frame""",1.190999985,0.0034908,-0.204886496,1.289999962,0.198291332,-0.142445534,1.0299999709999998,0.049777925,0.093325645,,,,1.261000037,-0.172130242,-0.139243275,1.39199996,0.28167671,-0.01153484,1.205000043,-0.082430817,0.087692775,0.0,0.0,0.0,1.050999999,-0.071896091,-0.2762205,1.126000047,0.096406497,-0.26672402,,,,,,,,,,,,
1.57e+18,,40043.0,,1569267662.0,942173234.0,"""camera_color_frame""",1.18599999,0.003476145,-0.205949098,1.281999946,0.197061613,-0.10207266400000001,1.04400003,0.05045452,0.09797924,,,,1.269000053,-0.17322227399999998,-0.140126646,1.3890000580000001,0.278817624,0.002001202,1.207000017,-0.082567632,0.087838322,0.0,0.0,0.0,1.0340000390000001,-0.070733167,-0.271752626,1.152999997,0.106195748,-0.260034889,,,,,,,,,,,,
1.57e+18,,40044.0,,1569267663.0,115430340.0,"""camera_color_frame""",1.190999985,0.001559802,-0.20681735899999998,1.30400002,0.21101436,-0.07634151,1.041000009,0.051997334000000006,0.094322331,,,,1.269000053,-0.17116481100000003,-0.142183974,1.40199995,0.283700258,0.024749327,1.212000012,-0.082909673,0.08820219300000001,0.0,0.0,0.0,1.0579999690000002,-0.07237494,-0.274629742,1.1549999709999998,0.104507327,-0.256740957,,,,,,,,,,,,
1.57e+18,,40045.0,,1569267663.0,276342304.0,"""camera_color_frame""",1.190999985,0.001559802,-0.20681735899999998,1.300999999,0.208419561,-0.074056678,1.041000009,0.051997334000000006,0.09769769,,,,1.264000058,-0.17253975600000002,-0.14162375,1.3980000019999999,0.28289082600000004,0.02694517,1.222000003,-0.083593741,0.090911061,0.0,0.0,0.0,1.050999999,-0.071896091,-0.2762205,1.157999992,0.104778774,-0.251775712,,,,,,,,,,,,
1.57e+18,,40046.0,,1569267663.0,448269823.0,"""camera_color_frame""",1.190999985,0.001559802,-0.204886496,1.312000036,0.21869047,-0.074682832,1.036999941,0.051797535,0.097322293,,,,1.269000053,-0.17322227399999998,-0.142183974,1.40199995,0.283700258,0.027022267000000003,1.213999987,-0.08304648099999999,0.08834774,0.0,0.0,0.0,1.069000006,-0.073127426,-0.277485043,1.1549999709999998,0.106379956,-0.251123458,,,,,,,,,,,,
1.57e+18,,40047.0,,1569267663.0,611937390.0,"""camera_color_frame""",1.192999959,-0.00037182,-0.20716466,1.299000025,0.20809915699999998,-0.073942833,1.041000009,0.051997334000000006,0.09769769,,,,1.26699996,-0.172949255,-0.14195987599999998,1.39199996,0.28393361,0.026829526,1.212000012,-0.082909673,0.090167105,0.0,0.0,0.0,1.069000006,-0.069661029,-0.277485043,1.164000034,0.114757784,-0.251193166,,,,,,,,,,,,
1.57e+18,,40048.0,,1569267663.0,780304362.0,"""camera_color_frame""",1.18900001,0.001557183,-0.20647005699999998,1.2960000040000001,0.20761856399999998,-0.073772065,1.039000034,0.050212879,0.097509995,,,,1.26699996,-0.172949255,-0.14195987599999998,1.383000016,0.284340113,0.028898196,1.210000038,-0.082772858,0.09001831699999999,0.0,0.0,0.0,1.036999941,-0.069257073,-0.272541076,1.161999941,0.10890866099999999,-0.25076156899999996,,,,,,,,,,,,
1.57e+18,,40049.0,,1569267663.0,940241454.0,"""camera_color_frame""",1.190999985,-0.00037119599999999996,-0.204886496,1.284999967,0.197522759,-0.075229168,1.039000034,0.046843763,0.097509995,,,,1.264000058,-0.17253975600000002,-0.14162375,1.379999995,0.283723325,0.026598237,1.207000017,-0.086481512,0.087838322,0.0,0.0,0.0,1.065999985,-0.07292219999999999,-0.276706338,1.152999997,0.098718196,-0.250688612,,,,,,,,,,,,
1.57e+18,,40050.0,,1569267664.0,103149430.0,"""camera_color_frame""",1.18599999,0.001553254,-0.205949098,1.274000049,0.189635202,-0.097304851,1.039000034,0.040105537000000004,0.09919443,,,,1.271999955,-0.173631772,-0.1425201,1.379999995,0.281485885,0.010937328,1.222000003,-0.08953752400000001,0.090911061,0.0,0.0,0.0,1.047999978,-0.071690872,-0.270334959,1.149000049,0.09837572300000001,-0.25354445,,,,,,,,,,,,
1.57e+18,,40051.0,,1569267664.0,277758894.0,"""camera_color_frame""",1.190999985,-0.00037119599999999996,-0.20681735899999998,1.281999946,0.190825999,-0.12493499400000001,1.0299999709999998,0.039758138,0.096665345,,,,1.269000053,-0.175279737,-0.142183974,1.376999974,0.280873954,-0.002480905,1.210000038,-0.088658266,0.09001831699999999,0.0,0.0,0.0,1.054999948,-0.075590715,-0.273851007,1.1280000209999999,0.096577734,-0.267197758,,,,,,,,,,,,
1.57e+18,,40052.0,,1569267664.0,434680017.0,"""camera_color_frame""",1.200000048,0.001571589,-0.20838020699999998,1.292999983,0.198752478,-0.14277680199999998,1.057000041,0.039086599,0.095772043,,,,1.26699996,-0.172949255,-0.14195987599999998,1.3980000019999999,0.28289082600000004,-0.009318104,1.223999977,-0.091668569,0.091059849,0.0,0.0,0.0,1.027999997,-0.078656331,-0.278508753,1.105999947,0.08931457300000001,-0.270951748,,,,,,,,,,,,
1.57e+18,,40053.0,,1569267664.0,592556216.0,"""camera_color_frame""",1.200000048,0.017136309,-0.194762021,1.281999946,0.20121869399999998,-0.143640548,1.093999982,0.049323462,0.102671735,,,,1.269000053,-0.17116481100000003,-0.142183974,1.4049999709999998,0.28202936100000003,-0.011642565,1.213999987,-0.08698306199999999,0.092284046,0.0,0.0,0.0,1.042000055,-0.074659266,-0.27723375,1.138000011,0.11219446400000001,-0.267721593,,,,,,,,,,,,
1.57e+18,,40054.0,,1569267664.0,755178779.0,"""camera_color_frame""",1.18900001,0.009268205,-0.204542428,1.289999962,0.24221302600000003,-0.136171445,1.161999941,0.058041210999999995,0.112821221,,,,1.274000049,-0.159445807,-0.13654792300000002,1.40199995,0.283700258,-0.018436523,1.2410000559999999,-0.082881421,0.11244381199999999,0.0,0.0,0.0,1.062000036,-0.077814117,-0.280833215,1.131999969,0.10426157,-0.262639642,,,,,,,1.103999972,0.055144146,0.273642957,,,
1.57e+18,,40055.0,,1569267664.0,904405636.0,"""camera_color_frame""",1.192999959,-0.00037182,-0.189757705,1.309999943,0.269331545,-0.097930655,1.212000012,0.080189139,0.115710922,1.1770000459999999,0.13512243300000001,0.106644936,1.2799999709999998,-0.164347321,-0.118514635,1.424000025,0.306622177,-0.014108615,1.269000053,-0.064176813,0.11909546,1.3739999530000002,0.251301944,0.131177232,1.062000036,-0.065761186,-0.272224575,1.105999947,0.109039612,-0.26736563399999996,,,,,,,,,,,,
1.57e+18,,40056.0,,1569267665.0,72621907.0,"""camera_color_frame""",1.18900001,0.036256778999999996,-0.181410968,1.317999959,0.315851361,-0.11989627800000001,1.2589999440000001,0.11391750699999999,0.12019806400000001,1.190999985,0.167625636,0.129152939,1.2960000040000001,-0.139085576,-0.101086251,1.434000015,0.33435019899999996,-0.037455875,1.289999962,-0.031774689,0.135705844,1.376999974,0.278641403,0.129231244,1.120000005,-0.04574617,-0.272565782,1.101999998,0.12651225900000002,-0.26997181800000003,1.164000034,0.137404442,0.154531404,1.1549999709999998,0.177539915,0.145846575,1.207000017,0.091599964,0.20916011899999998,,,
1.57e+18,,40057.0,,1569267665.0,234805098.0,"""camera_color_frame""",1.207000017,0.060288935999999994,-0.184157312,1.307000041,0.347120434,-0.163393036,1.256000042,0.162519276,0.123984136,1.200000048,0.20391294399999998,0.132074371,1.299000025,-0.10360381800000001,-0.092896424,1.414000034,0.377830654,-0.057565026,1.292999983,0.020560747,0.142310128,1.3710000519999999,0.326329678,0.122000098,1.172999978,0.001536228,-0.272152185,1.1219999790000001,0.16519083099999998,-0.265776485,1.166000009,0.175449833,0.166138932,1.174999952,0.22824062399999998,0.150276989,1.200000048,0.141654074,0.223510727,,,
1.57e+18,,40058.0,,1569267665.0,393417153.0,"""camera_color_frame""",1.207000017,0.060288935999999994,-0.176330104,1.26699996,0.344713867,-0.176879168,1.248999953,0.187938973,0.12126825,1.167999983,0.226880893,0.136126682,1.300999999,-0.088997923,-0.074056678,1.394999981,0.397632927,-0.07262265700000001,1.289999962,0.041428134,0.148254037,1.3609999419999999,0.361462057,0.112284355,1.161999941,0.018477639,-0.269600034,1.1280000209999999,0.175218478,-0.279998839,1.152999997,0.199665129,0.177371413,1.144999981,0.239120945,0.148296416,1.19599998,0.166390255,0.230521575,,,
1.57e+18,,40059.0,,1569267665.0,546947205.0,"""camera_color_frame""",1.1770000459999999,0.09886474199999999,-0.166222915,1.274000049,0.36520847700000003,-0.171660125,1.251000047,0.20852269199999998,0.119434297,,,,1.299000025,-0.067800097,-0.07604879099999999,1.3860000369999999,0.41753912,-0.076648124,1.292999983,0.062488209,0.156983718,1.343999982,0.383095831,0.10434510599999999,1.10800004,0.026601095,-0.267849118,1.120000005,0.193950519,-0.281644553,,,,,,,,,,,,
1.57e+18,,40060.0,,1569267665.0,713900966.0,"""camera_color_frame""",1.18900001,0.121078022,-0.171772867,1.289999962,0.37188661100000003,-0.165450528,1.251000047,0.216635808,0.121462435,1.088000059,0.273081154,0.204413608,1.281999946,-0.056520100999999996,-0.075053535,1.394999981,0.42251217399999996,-0.07714583700000001,1.287999988,0.072687902,0.158464789,1.353000045,0.39004850399999996,0.10285034,1.190999985,0.024731779,-0.26667413100000004,1.1339999440000001,0.20924498100000002,-0.275972843,1.093999982,0.251528621,0.264069885,1.062000036,0.299270421,0.218467727,1.164000034,0.222329453,0.286627769,,,
1.57e+18,,40061.0,,1569267665.0,875547013.0,"""camera_color_frame""",1.179999948,0.12398786099999999,-0.1666466,1.287999988,0.37548655299999995,-0.163105905,1.261000037,0.222456485,0.11834465699999999,1.167999983,0.276117295,0.12665881199999998,1.281999946,-0.050284485999999996,-0.075053535,1.414000034,0.42597428,-0.08278136,1.287999988,0.08104097099999999,0.15637666,1.355999947,0.39970743700000005,0.100880027,1.200000048,0.021027489,-0.270634741,1.123999953,0.18917609800000001,-0.279005945,1.144999981,0.25025945899999996,0.15572156,1.1339999440000001,0.293819785,0.143194824,1.18900001,0.211682528,0.23881048,,,
1.57e+18,,40062.0,,1569267666.0,35438940.0,"""camera_color_frame""",1.136000037,0.17093569,-0.18253301100000002,1.287999988,0.385927886,-0.163105905,1.2589999440000001,0.230268657,0.12019806400000001,1.143000007,0.27206042399999997,0.140625194,1.256000042,-0.022791682,-0.077603877,1.414000034,0.42597428,-0.080488965,1.2799999709999998,0.08883879300000001,0.155405387,1.3609999419999999,0.40559452799999995,0.101252005,1.205000043,0.021115104,-0.275669515,1.118000031,0.189978898,-0.27751660300000003,,,,,,,1.167999983,0.223093465,0.251634806,,,
1.57e+18,,40063.0,,1569267666.0,192005821.0,"""camera_color_frame""",1.126000047,0.17490781800000002,-0.18275170000000002,1.2960000040000001,0.39252743100000004,-0.162017897,1.261000037,0.23267895,0.12038900699999999,1.161999941,0.284118772,0.126008168,1.223999977,-0.012288492,-0.077611074,1.424000025,0.428986818,-0.083366804,1.2799999709999998,0.090914093,0.157480538,1.3639999630000001,0.40648853799999995,0.101475194,1.292999983,0.022657119,-0.285320252,1.120000005,0.183055222,-0.272565782,,,,,,,1.157999992,0.23244838399999998,0.240093589,,,
1.57e+18,,40064.0,,1569267666.0,354402712.0,"""camera_color_frame""",1.123999953,0.18917609800000001,-0.180604845,1.307000041,0.38950187,-0.163393036,1.2589999440000001,0.228227407,0.118156955,1.149000049,0.273488551,0.12832397199999998,1.202999949,-0.01207766,-0.07432919,1.4279999730000001,0.411669821,-0.083600976,1.2589999440000001,0.08738128099999999,0.148773551,1.368000031,0.394372761,0.097337134,1.307000041,0.018664297,-0.28417173,1.123999953,0.169130027,-0.279005945,,,,,,,1.174999952,0.224430501,0.22837887699999998,,,
1.57e+18,,40065.0,,1569267666.0,509879805.0,"""camera_color_frame""",1.136000037,0.143308312,-0.16595774900000002,1.324000001,0.377395004,-0.150492877,1.251000047,0.20852269199999998,0.11740616,1.174999952,0.260626584,0.12170311800000001,1.223999977,-0.04205602,-0.071657978,1.437000036,0.393295765,-0.074809149,1.281999946,0.068192221,0.15149141800000002,1.368000031,0.372193038,0.10177277,1.233999968,0.001616117,-0.2823039,1.118000031,0.18635360899999998,-0.26664149800000003,1.149000049,0.23436760899999998,0.156265572,1.1339999440000001,0.271756798,0.13951791800000002,1.179999948,0.200514406,0.227437675,,,
1.57e+18,,40066.0,,1569267666.0,676276003.0,"""camera_color_frame""",1.182000041,0.024544889,-0.149682581,1.315000057,0.332188785,-0.145206109,1.264000058,0.163554445,0.118626207,1.172999978,0.21644124399999998,0.131004378,1.300999999,-0.135403484,-0.05296471,1.437000036,0.358348131,-0.07014977900000001,1.284999967,0.020433534,0.14767940300000001,1.376999974,0.327757835,0.102442332,1.182000041,-0.019532453,-0.272324055,1.159999967,0.148216695,-0.267255425,1.144999981,0.194566935,0.174284443,,,,1.184000015,0.164720789,0.24356477,,,
1.57e+18,,40067.0,,1569267666.0,839494800.0,"""camera_color_frame""",1.217000008,-0.039842352000000004,-0.175817981,1.324000001,0.26791665,-0.141906947,1.2799999709999998,0.090914093,0.120127805,1.1100000140000001,0.201217175,0.183353335,1.3289999959999999,-0.200805113,-0.075650521,1.4539999959999999,0.289507836,-0.061550699,1.300999999,-0.05313907599999999,0.141081423,1.39199996,0.256850988,0.108071715,1.075000048,-0.064823247,-0.268585682,1.143000007,0.09786201300000001,-0.276310056,1.095999956,0.18446351600000002,0.22546199,,,,1.18599999,0.09000626199999999,0.236285165,,,
1.57e+18,,40068.0,,1569267667.0,8715719.0,"""camera_color_frame""",1.222000003,-0.061799890999999996,-0.18050256399999998,1.35800004,0.20213861800000002,-0.125736624,1.274000049,0.028520887999999998,0.12369555199999999,,,,1.32099998,-0.238148227,-0.096611351,1.4889999630000001,0.219223842,-0.050962392,1.2960000040000001,-0.11597196800000001,0.14053922900000002,1.4110000130000002,0.189438477,0.127847075,1.090000033,-0.10460712800000001,-0.272333384,1.113999963,0.059255954000000007,-0.263881475,,,,,,,1.184000015,0.034184664,0.251242846,,,
1.57e+18,,40069.0,,1569267667.0,181938220.0,"""camera_color_frame""",1.230999947,-0.060259197,-0.189814806,1.3710000519999999,0.166285455,-0.124717601,1.271999955,0.00372821,0.12968792,1.1280000209999999,0.091091171,0.20095644899999998,1.307000041,-0.235624313,-0.099825308,1.4969999790000001,0.188849077,-0.041528381,1.299000025,-0.13940753,0.142970502,1.4279999730000001,0.163937837,0.134017587,1.07099998,-0.11146590099999999,-0.26758629100000003,1.174999952,0.058690555,-0.270711303,1.138000011,0.058687493,0.245171592,1.105999947,0.112625979,0.214967698,1.207000017,0.01919321,0.273734629,,,
1.57e+18,,40070.0,,1569267667.0,347632225.0,"""camera_color_frame""",1.230999947,-0.064250901,-0.17784054600000002,1.35800004,0.180121019,-0.143349469,1.26699996,0.020147305,0.12301591,1.120000005,0.090445131,0.201346993,1.324000001,-0.238689065,-0.09468427300000001,1.4969999790000001,0.210693181,-0.04638228900000001,1.312000036,-0.132293969,0.142274275,1.407999992,0.170773089,0.127575248,1.093999982,-0.10144355099999999,-0.271559179,1.039000034,0.046843763,-0.25116899600000003,1.1399999859999999,0.058790635,0.256691575,1.095999956,0.115161605,0.22013144199999998,1.190999985,0.018938785,0.27203685,,,
1.57e+18,,40071.0,,1569267667.0,512057448.0,"""camera_color_frame""",1.248999953,-0.042915005,-0.182465866,1.35800004,0.206542134,-0.152155891,1.2410000559999999,0.043878637000000005,0.12250343699999999,,,,1.343999982,-0.209608719,-0.091756731,1.468000054,0.258973926,-0.052623589000000005,1.317999959,-0.10939300099999999,0.14292492,1.39199996,0.20945641399999998,0.13063898699999998,1.138000011,-0.07046725599999999,-0.27694630600000003,1.19599998,0.117912635,-0.267793655,1.144999981,0.064617738,0.285661727,,,,1.172999978,0.04337614,0.28313893100000004,,,
1.57e+18,,40072.0,,1569267667.0,686294315.0,"""camera_color_frame""",1.261000037,-0.024926902999999997,-0.184218943,1.338000059,0.231701612,-0.14991501,1.19599998,0.079130538,0.11612235800000001,1.07099998,0.116007626,0.22379179300000002,1.3710000519999999,-0.17603138100000001,-0.08693201099999999,1.430999994,0.30812943,-0.058257107,1.315000057,-0.06863520299999999,0.142599598,1.376999974,0.251850635,0.124766424,1.123999953,-0.044087179000000004,-0.275361478,1.1770000459999999,0.14084734,-0.27117207600000004,1.09800005,0.101130039,0.27037569899999997,,,,1.1549999709999998,0.074545242,0.28066659,,,
1.57e+18,,40073.0,,1569267667.0,842644971.0,"""camera_color_frame""",1.246000052,-0.020590048,-0.18000756199999998,1.309999943,0.25021612600000004,-0.155272931,1.1770000459999999,0.100773044,0.110461272,,,,1.3739999530000002,-0.165278077,-0.084894687,1.4110000130000002,0.328987539,-0.066593014,1.317999959,-0.043148905,0.138651401,1.368000031,0.279038191,0.12173313599999999,1.1219999790000001,-0.025817465,-0.273052484,1.167999983,0.162494823,-0.26909855,1.093999982,0.10963027199999999,0.271164328,,,,1.126000047,0.090929657,0.27179405100000004,,,
1.57e+18,,40074.0,,1569267668.0,7110810.0,"""camera_color_frame""",1.235999942,-0.034452502,-0.172551423,1.309999943,0.26295974899999996,-0.161644295,1.179999948,0.10676939,0.11074282199999999,,,,1.35800004,-0.178765759,-0.077301286,1.414000034,0.33656469,-0.066734605,1.324000001,-0.032612164,0.139282599,1.368000031,0.281256169,0.12173313599999999,1.111999989,-0.020178622,-0.276027232,1.161999941,0.16166009,-0.267716199,1.083999991,0.127960846,0.266928285,,,,1.129999995,0.102245264,0.27275958699999997,,,
1.57e+18,,40075.0,,1569267668.0,178269272.0,"""camera_color_frame""",1.256000042,-0.049264677,-0.16108982300000002,1.3289999959999999,0.24953573899999998,-0.155370384,1.18599999,0.101543613,0.11130592199999999,1.050999999,0.139401466,0.219612673,1.35800004,-0.202985108,-0.075099677,1.414000034,0.325101912,-0.062149815,1.317999959,-0.043148905,0.14292492,1.3739999530000002,0.27803432899999997,0.120039508,1.1100000140000001,-0.045337722000000004,-0.268332601,1.164000034,0.137404442,-0.26628989,1.077000022,0.128880695,0.261712492,,,,1.143000007,0.09600883699999999,0.27589753300000003,,,
1.57e+18,,40076.0,,1569267668.0,346769603.0,"""camera_color_frame""",1.238999963,-0.020474372,-0.140831336,1.325999975,0.22102405100000003,-0.14642076199999998,1.207000017,0.083772205,0.11523357,1.065999985,0.12065103699999999,0.222747013,1.3609999419999999,-0.18578054,-0.077472053,1.430999994,0.31044957,-0.062897019,1.317999959,-0.064517967,0.14292492,1.379999995,0.254636765,0.125038251,1.131999969,-0.059083685,-0.275486112,1.1399999859999999,0.10684671300000001,-0.27558484699999997,1.088000059,0.110793009,0.264385492,,,,1.164000034,0.080787778,0.282853603,,,
1.57e+18,,40077.0,,1569267668.0,513550540.0,"""camera_color_frame""",1.228999972,-0.05019825,-0.135709733,1.32099998,0.205198243,-0.12659405199999998,1.223999977,0.061138075,0.120825306,1.093999982,0.093666703,0.246333838,1.353000045,-0.213206008,-0.077016667,1.4279999730000001,0.268124193,-0.051189702000000004,1.325999975,-0.08855822699999999,0.14594216599999998,1.3890000580000001,0.224769145,0.125853717,1.120000005,-0.076616198,-0.263486981,1.18900001,0.096017197,-0.275864422,1.1219999790000001,0.07969187900000001,0.285380542,1.06400001,0.110074133,0.262003392,1.166000009,0.05824101,0.28712028300000003,,,
1.57e+18,,40078.0,,1569267668.0,681789875.0,"""camera_color_frame""",1.235999942,-0.09256728,-0.13648270099999998,1.343999982,0.210950017,-0.124440365,1.233999968,0.039629705,0.12181244,,,,1.3710000519999999,-0.26494485100000004,-0.066927873,1.4650000330000001,0.248943731,-0.050140969,1.309999943,-0.10872901199999999,0.142057389,1.394999981,0.20538432899999998,0.130920544,1.152999997,-0.095698126,-0.267511934,1.212000012,0.080189139,-0.273341089,1.138000011,0.064222701,0.28022545600000004,,,,1.159999967,0.048537627,0.280000985,,,
1.57e+18,,40079.0,,1569267668.0,848285649.0,"""camera_color_frame""",1.235999942,-0.09056332,-0.156520873,1.3710000519999999,0.204073668,-0.12694028,1.246000052,0.035974741,0.11895693800000001,,,,1.338000059,-0.258567631,-0.065316916,1.4889999630000001,0.243365377,-0.046134423,1.312000036,-0.11314936699999999,0.142274275,1.3980000019999999,0.19449295100000003,0.12666918300000002,1.123999953,-0.100580625,-0.268072486,1.18599999,0.061162889000000005,-0.273245633,,,,,,,,,,,,
1.57e+18,,40080.0,,1569267669.0,13967781.0,"""camera_color_frame""",1.225999951,-0.083867371,-0.16519255900000002,1.383000016,0.19240611800000001,-0.13253563599999998,1.228999972,0.035483912,0.117333934,,,,1.324000001,-0.26015541,-0.077512391,1.493000031,0.231915951,-0.051099297,1.312000036,-0.11314936699999999,0.144401312,1.40199995,0.19050324,0.12248572699999999,1.131999969,-0.104967184,-0.26998049,1.184000015,0.061059747000000004,-0.26894581300000003,1.103999972,0.071253635,0.268273503,,,,1.157999992,0.040943965,0.281395584,,,
1.57e+18,,40081.0,,1569267669.0,181225681.0,"""camera_color_frame""",1.238999963,-0.082747847,-0.166944191,1.353000045,0.192619756,-0.125273675,1.212000012,0.036958132000000005,0.119640745,,,,1.325999975,-0.251948863,-0.07333002200000001,1.4789999719999998,0.24892477699999999,-0.041029043,1.30400002,-0.112459429,0.143520802,1.3980000019999999,0.199026182,0.124402724,1.083999991,-0.100516275,-0.270834297,1.172999978,0.07570698099999999,-0.268348843,1.100000024,0.070995465,0.265518188,,,,1.149000049,0.040625747000000004,0.27734580600000003,,,
1.57e+18,,40082.0,,1569267669.0,348014532.0,"""camera_color_frame""",1.225999951,-0.060014437999999996,-0.179105803,1.332000017,0.20906654,-0.12332928900000001,1.190999985,0.042110762999999996,0.121429488,,,,1.32099998,-0.24457353399999998,-0.083761625,1.460999966,0.269582808,-0.035792522,1.299000025,-0.10570991800000001,0.142970502,1.3860000369999999,0.208553582,0.130075887,1.0729999540000001,-0.080359779,-0.266346425,1.182000041,0.083953477,-0.272324055,,,,,,,1.138000011,0.040236816,0.27653557100000004,,,
1.57e+18,,40083.0,,1569267669.0,515587270.0,"""camera_color_frame""",1.174999952,-0.070853315,-0.17165523800000002,1.324000001,0.20781087899999998,-0.122588575,1.167999983,0.04129754,0.12097808,,,,1.271999955,-0.256124794,-0.072405919,1.434000015,0.287850589,-0.037455875,1.307000041,-0.10636094199999999,0.141732067,1.376999974,0.211664468,0.131463647,1.0789999959999999,-0.096553825,-0.264337212,1.093999982,0.065287031,-0.26801195699999997,,,,,,,,,,,,
1.57e+18,,40084.0,,1569267669.0,687019584.0,"""camera_color_frame""",1.233999968,-0.08841606199999999,-0.17827394600000002,1.30400002,0.185643867,-0.120736785,1.1399999859999999,0.04400415,0.118077919,,,,1.317999959,-0.24615500899999998,-0.072887614,1.4210000040000001,0.280633271,-0.041723803,1.312000036,-0.104640648,0.142274275,1.368000031,0.21249900800000002,0.13282223,1.111999989,-0.090492249,-0.265210509,1.205000043,0.09535557800000001,-0.273715973,,,,,,,1.105999947,0.026553077999999997,0.266966462,,,
1.57e+18,,40085.0,,1569267669.0,848893507.0,"""camera_color_frame""",1.2410000559999999,-0.06678490299999999,-0.201416388,1.289999962,0.179467753,-0.11734917,1.100000024,0.03889323,0.11393483,,,,1.3639999630000001,-0.212727904,-0.093122154,1.4049999709999998,0.28658527100000003,-0.036698401,1.299000025,-0.10781601800000001,0.130334765,1.355999947,0.206237957,0.147045672,,,,1.1979999540000001,0.09480164199999999,-0.274068117,1.031999946,0.023103263,0.255796701,1.024999976,0.074464157,0.264032096,1.067999959,0.011788165,0.245673835,,,
1.57e+18,,40086.0,,1569267670.0,13510137.0,"""camera_color_frame""",1.225999951,-0.06597767,-0.198981866,1.299000025,0.180719852,-0.107638106,1.065999985,0.034234412,0.110413209,,,,1.3739999530000002,-0.21428749,-0.104942597,1.3980000019999999,0.30329033699999997,-0.027449742000000003,1.309999943,-0.112976879,0.12294329699999999,1.3470000030000002,0.19831733399999998,0.156988561,1.1399999859999999,-0.07613603,-0.279281199,1.18900001,0.10372822,-0.27200916399999997,,,,,,,,,,,,
1.57e+18,,40087.0,,1569267670.0,177150372.0,"""camera_color_frame""",1.212000012,-0.06325921400000001,-0.200639457,1.292999983,0.171499625,-0.119718298,1.077000022,0.031095341000000002,0.113298602,,,,1.3739999530000002,-0.209832087,-0.104942597,1.3980000019999999,0.30329033699999997,-0.027449742000000003,1.309999943,-0.115100816,0.12294329699999999,1.332000017,0.196108907,0.161718726,1.164000034,-0.077738896,-0.281386614,1.228999972,0.11518824800000001,-0.27119767699999997,,,,,,,,,,1.054999948,0.061249115,0.220448494
1.57e+18,,40088.0,,1569267670.0,343547141.0,"""camera_color_frame""",1.205000043,-0.060940154,-0.20143421,1.289999962,0.173193216,-0.119440533,1.0789999959999999,0.031153085,0.113508999,,,,1.368000031,-0.206697822,-0.10670214900000001,1.39199996,0.304245561,-0.022818478,1.30400002,-0.114573635,0.122380204,1.32099998,0.19448939,0.16038321,,,,1.2799999709999998,0.128269419,-0.27000069600000004,,,,,,,,,,,,
1.57e+18,,40089.0,,1569267670.0,517399449.0,"""camera_color_frame""",1.213999987,-0.06336359700000001,-0.200970545,1.287999988,0.172924697,-0.11925534900000001,1.07099998,0.02744923,0.110931098,,,,1.3639999630000001,-0.20609343100000002,-0.104178824,1.383000016,0.306763023,-0.027155217000000002,1.289999962,-0.11334355199999999,0.12106630199999999,1.315000057,0.187209889,0.161786646,1.149000049,-0.074874207,-0.27962327,1.27699995,0.127968788,-0.273508459,,,,,,,,,,,,
1.57e+18,,40090.0,,1569267670.0,687730955.0,"""camera_color_frame""",1.212000012,-0.06325921400000001,-0.200639457,1.284999967,0.172521934,-0.118977584,1.067999959,0.025640765,0.110620365,,,,1.3639999630000001,-0.208304927,-0.106390156,1.383000016,0.30900532,-0.027155217000000002,1.30400002,-0.11668784199999999,0.122380204,1.315000057,0.187209889,0.161786646,,,,1.2799999709999998,0.132420003,-0.274150997,,,,,,,,,,,,
1.57e+18,,40091.0,,1569267670.0,842596805.0,"""camera_color_frame""",1.212000012,-0.06325921400000001,-0.200639457,1.274000049,0.17104508,-0.122089945,1.075000048,0.031037597000000004,0.11134540300000001,,,,1.3639999630000001,-0.208304927,-0.101967491,1.376999974,0.309897304,-0.027037406,1.309999943,-0.112976879,0.12294329699999999,1.309999943,0.192869872,0.161171481,1.113999963,-0.061756503,-0.27652367899999997,1.202999949,0.12250366800000001,-0.271311343,,,,,,,,,,,,
1.57e+18,,40092.0,,1569267671.0,12621006.0,"""camera_color_frame""",1.223999977,-0.065870039,-0.19865725899999997,1.281999946,0.17211915600000002,-0.122856602,1.06400001,0.032445092,0.11020606,,,,1.3710000519999999,-0.2071511,-0.102490783,1.376999974,0.307664752,-0.031502225,1.2960000040000001,-0.111769497,0.121629402,1.309999943,0.194993809,0.161171481,1.093999982,-0.057100310999999994,-0.271559179,1.212000012,0.127350241,-0.269411296,,,,,,,,,,,,
1.57e+18,,40093.0,,1569267671.0,181961629.0,"""camera_color_frame""",1.235999942,-0.068519786,-0.198601067,1.2799999709999998,0.171850637,-0.122664936,1.07099998,0.034394987,0.110931098,,,,1.3639999630000001,-0.214939386,-0.095333487,1.3739999530000002,0.306994438,-0.031433592999999996,1.299000025,-0.10781601800000001,0.12191095199999999,1.309999943,0.197117746,0.15904769300000002,1.1100000140000001,-0.07413245,-0.271931708,1.230999947,0.123359106,-0.273634732,,,,,,,,,,,,
1.57e+18,,40094.0,,1569267671.0,349912855.0,"""camera_color_frame""",1.284999967,-0.104570627,-0.187725082,1.27699995,0.171447858,-0.12237744,1.065999985,0.034234412,0.112141423,,,,1.3710000519999999,-0.240493655,-0.066927873,1.376999974,0.307664752,-0.031502225,1.2960000040000001,-0.111769497,0.123730496,1.312000036,0.19741869,0.159290522,1.10800004,-0.08477745199999999,-0.276830643,1.1770000459999999,0.10268133900000001,-0.27308026,,,,,,,,,,,,
1.57e+18,,40095.0,,1569267671.0,519270619.0,"""camera_color_frame""",1.238999963,-0.102836065,-0.199083105,1.2799999709999998,0.165624753,-0.12474009400000001,1.065999985,0.034234412,0.112141423,,,,1.353000045,-0.252691746,-0.09675817199999999,1.3739999530000002,0.300311357,-0.031433592999999996,1.299000025,-0.112028219,0.12401690300000001,1.315000057,0.195738062,0.161786646,1.088000059,-0.079719163,-0.271833688,1.190999985,0.11741969,-0.270535856,,,,,,,1.069000006,-0.029797512999999998,0.240704626,,,
1.57e+18,,40096.0,,1569267671.0,685985994.0,"""camera_color_frame""",1.243999958,-0.095183343,-0.197869718,1.281999946,0.17004060699999998,-0.12493499400000001,1.065999985,0.030777747,0.112141423,0.9869999890000001,0.009293871,0.22544112800000002,1.338000059,-0.25639829,-0.10436219,1.3860000369999999,0.307428479,-0.027214121,1.2960000040000001,-0.11597196800000001,0.121629402,1.32099998,0.19234761600000003,0.16466645900000002,0.0,0.0,0.0,1.190999985,0.103902698,-0.274397582,1.001999974,-0.011684265,0.246736288,1.006999969,0.017645568,0.249600068,,,,,,
1.57e+18,,40097.0,,1569267671.0,854925016.0,"""camera_color_frame""",1.222000003,-0.09151878199999999,-0.18842704600000001,1.281999946,0.165883541,-0.12493499400000001,1.057000041,0.032231636,0.11462187800000001,0.9919999840000001,0.014166015,0.23140791100000002,1.307000041,-0.267410398,-0.084992841,1.379999995,0.306097597,-0.029333584,1.292999983,-0.119896263,0.125540301,1.32099998,0.196631163,0.162524834,1.144999981,-0.082039215,-0.27679354,1.19599998,0.100460693,-0.275549561,0.995000005,-0.003536546,0.256304324,1.00999999,0.030798442999999998,0.263443053,,,,,,
1.57e+18,,40098.0,,1569267672.0,11720184.0,"""camera_color_frame""",1.225999951,-0.09976933199999999,-0.19500665399999997,1.281999946,0.165883541,-0.131170183,1.069000006,0.030864364,0.110723943,,,,1.30400002,-0.266796589,-0.093253992,1.376999974,0.300967038,-0.029269816,1.2960000040000001,-0.124376915,0.121629402,1.32099998,0.196631163,0.156099975,1.09800005,-0.09113317,-0.268991888,1.18900001,0.08445067,-0.27393680800000003,0.999000013,0.001308348,0.245997548,1.011999965,0.030859429,0.250839382,1.0460000040000001,-0.017285064,0.23891735100000003,,,
1.57e+18,,40099.0,,1569267672.0,181507010.0,"""camera_color_frame""",1.228999972,-0.100013465,-0.195483834,1.27699995,0.165236562,-0.12858830400000001,1.062000036,0.030662257000000002,0.10827717199999999,0.9940000179999999,0.038368531000000004,0.227039993,1.312000036,-0.268433392,-0.100207195,1.3860000369999999,0.300686985,-0.031708121,1.292999983,-0.121992633,0.12134785199999999,1.317999959,0.196184605,0.14719843900000001,1.069000006,-0.09219258300000001,-0.26881966,1.18599999,0.08423759,-0.279013902,0.9940000179999999,0.014194576,0.24960078300000002,0.989000022,0.052606944,0.24674187600000003,1.057000041,-0.017466838000000002,0.241429865,0.989000022,0.078262791,0.224294573
1.57e+18,,40100.0,,1569267672.0,352907775.0,"""camera_color_frame""",1.225999951,-0.09976933199999999,-0.19500665399999997,1.284999967,0.16627171599999999,-0.127310619,1.062000036,0.032384105,0.10999890400000001,0.986000001,0.023672092999999998,0.22681123,1.300999999,-0.26618281,-0.099367045,1.379999995,0.299385309,-0.029333584,1.289999962,-0.119618081,0.125249028,1.317999959,0.196184605,0.145061672,1.069000006,-0.09219258300000001,-0.26881966,1.172999978,0.08331424,-0.277857244,1.0,0.002930982,0.25110742399999997,1.006999969,0.043768357,0.25123262399999996,1.052999973,-0.017400738,0.240516216,0.9750000240000001,0.070831761,0.222700208
1.57e+18,,40101.0,,1569267672.0,515701748.0,"""camera_color_frame""",1.222000003,-0.09944381599999999,-0.194370419,1.281999946,0.165883541,-0.133248568,1.059999943,0.030604513,0.10979174800000001,0.98299998,0.023600068,0.22293382899999997,1.300999999,-0.268292159,-0.099367045,1.383000016,0.302278459,-0.022670943,1.2960000040000001,-0.12227568,0.123730496,1.317999959,0.191910788,0.14719843900000001,1.057000041,-0.08773019900000001,-0.267515689,1.182000041,0.083953477,-0.278072864,1.004999995,0.002945637,0.249104336,1.0030000209999999,0.048473068,0.24860860399999998,1.065999985,-0.017615561999999998,0.243485555,0.977999985,0.074221015,0.22179988
