rosbagTimestamp,header,seq,stamp,secs,nsecs,frame_id,orientation,x,y,z,w,orientation_covariance,angular_velocity,x,y,z,angular_velocity_covariance,linear_acceleration,x,y,z,linear_acceleration_covariance
1569267652442519477,,17390,,1569267652,404803991,"""knife_link""",,-0.6205137085,-0.247270295995,-0.515957122888,-0.536291325329,"[0.0, 0.0, 0.0, 0.0, 0.0, 0.0, 0.0, 0.0, 0.0]",,-3.39042659369,-0.400683252383,0.478072812651,"[0.0, 0.0, 0.0, 0.0, 0.0, 0.0, 0.0, 0.0, 0.0]",,5.8113384,11.0533227,1.97310645,"[0.0, 0.0, 0.0, 0.0, 0.0, 0.0, 0.0, 0.0, 0.0]"
1569267652499296299,,17391,,1569267652,441832065,"""knife_link""",,-0.596235045395,-0.208070480349,-0.503958901129,-0.589267232945,"[0.0, 0.0, 0.0, 0.0, 0.0, 0.0, 0.0, 0.0, 0.0]",,-3.32235875287,-1.40424757228,-0.796017541309,"[0.0, 0.0, 0.0, 0.0, 0.0, 0.0, 0.0, 0.0, 0.0]",,3.32777655,9.4630578,3.19034625,"[0.0, 0.0, 0.0, 0.0, 0.0, 0.0, 0.0, 0.0, 0.0]"
1569267652555202632,,17392,,1569267652,498423099,"""knife_link""",,-0.622374615915,-0.168766836918,-0.445363836119,-0.621143015495,"[0.0, 0.0, 0.0, 0.0, 0.0, 0.0, 0.0, 0.0, 0.0]",,-0.346572378207,-2.65215798746,-0.734931017489,"[0.0, 0.0, 0.0, 0.0, 0.0, 0.0, 0.0, 0.0, 0.0]",,2.75842245,9.1881972,2.159619,"[0.0, 0.0, 0.0, 0.0, 0.0, 0.0, 0.0, 0.0, 0.0]"
1569267652593268461,,17393,,1569267652,554210901,"""knife_link""",,-0.629638827032,-0.115634882299,-0.37491876043,-0.670536683983,"[0.0, 0.0, 0.0, 0.0, 0.0, 0.0, 0.0, 0.0, 0.0]",,-1.2995221498,-3.08849030046,-1.05781692911,"[0.0, 0.0, 0.0, 0.0, 0.0, 0.0, 0.0, 0.0, 0.0]",,0.24541125,9.82626645,3.93639645,"[0.0, 0.0, 0.0, 0.0, 0.0, 0.0, 0.0, 0.0, 0.0]"
1569267652648378095,,17394,,1569267652,592470884,"""knife_link""",,-0.637141924793,-0.106546007287,-0.320141067551,-0.692970282818,"[0.0, 0.0, 0.0, 0.0, 0.0, 0.0, 0.0, 0.0, 0.0]",,-0.262796574111,-2.21233501596,-1.98284143267,"[0.0, 0.0, 0.0, 0.0, 0.0, 0.0, 0.0, 0.0, 0.0]",,0.55953765,10.00296255,7.01876175,"[0.0, 0.0, 0.0, 0.0, 0.0, 0.0, 0.0, 0.0, 0.0]"
1569267652705347126,,17395,,1569267652,647716999,"""knife_link""",,-0.644846920407,-0.123435319488,-0.259202031264,-0.708343474688,"[0.0, 0.0, 0.0, 0.0, 0.0, 0.0, 0.0, 0.0, 0.0]",,0.365521956609,-1.01154849058,-2.0072760422,"[0.0, 0.0, 0.0, 0.0, 0.0, 0.0, 0.0, 0.0, 0.0]",,-0.77549955,8.90352015,4.97694015,"[0.0, 0.0, 0.0, 0.0, 0.0, 0.0, 0.0, 0.0, 0.0]"
1569267652742634669,,17396,,1569267652,704489946,"""knife_link""",,-0.606356440846,-0.13796368556,-0.240385467455,-0.745327253727,"[0.0, 0.0, 0.0, 0.0, 0.0, 0.0, 0.0, 0.0, 0.0]",,-1.5613215376,0.253815217117,-1.28121907337,"[0.0, 0.0, 0.0, 0.0, 0.0, 0.0, 0.0, 0.0, 0.0]",,0.1177974,6.29234445,4.9278579,"[0.0, 0.0, 0.0, 0.0, 0.0, 0.0, 0.0, 0.0, 0.0]"
1569267652798821317,,17397,,1569267652,741861104,"""knife_link""",,-0.603334911092,-0.131013831149,-0.23767474656,-0.749888709045,"[0.0, 0.0, 0.0, 0.0, 0.0, 0.0, 0.0, 0.0, 0.0]",,-0.295957829899,-0.151101169347,0.0749017554386,"[0.0, 0.0, 0.0, 0.0, 0.0, 0.0, 0.0, 0.0, 0.0]",,1.2761385,9.1096656,3.09218175,"[0.0, 0.0, 0.0, 0.0, 0.0, 0.0, 0.0, 0.0, 0.0]"
1569267652855276737,,17398,,1569267652,797940969,"""knife_link""",,-0.62904034352,-0.100849170641,-0.20442506781,-0.743201239676,"[0.0, 0.0, 0.0, 0.0, 0.0, 0.0, 0.0, 0.0, 0.0]",,0.746003733545,-1.57354450973,-0.0333086581854,"[0.0, 0.0, 0.0, 0.0, 0.0, 0.0, 0.0, 0.0, 0.0]",,0.981645,12.5257902,4.89840855,"[0.0, 0.0, 0.0, 0.0, 0.0, 0.0, 0.0, 0.0, 0.0]"
1569267652892873990,,17399,,1569267652,854300975,"""knife_link""",,-0.633563039609,-0.107404375071,-0.137420150449,-0.753775747359,"[0.0, 0.0, 0.0, 0.0, 0.0, 0.0, 0.0, 0.0, 0.0]",,0.180517055897,-1.24018662259,-1.94968017688,"[0.0, 0.0, 0.0, 0.0, 0.0, 0.0, 0.0, 0.0, 0.0]",,-1.8062268,6.3610596,4.0443774,"[0.0, 0.0, 0.0, 0.0, 0.0, 0.0, 0.0, 0.0, 0.0]"
1569267652948554782,,17400,,1569267652,892134904,"""knife_link""",,-0.588145182902,-0.114279792549,-0.115280918346,-0.792297723529,"[0.0, 0.0, 0.0, 0.0, 0.0, 0.0, 0.0, 0.0, 0.0]",,-2.91918769565,-0.144119852339,-1.59712366798,"[0.0, 0.0, 0.0, 0.0, 0.0, 0.0, 0.0, 0.0, 0.0]",,-1.08962595,6.99912885,3.91676355,"[0.0, 0.0, 0.0, 0.0, 0.0, 0.0, 0.0, 0.0, 0.0]"
1569267653005388059,,17401,,1569267652,947850942,"""knife_link""",,-0.529289690094,-0.118380649012,-0.157862982538,-0.825177389804,"[0.0, 0.0, 0.0, 0.0, 0.0, 0.0, 0.0, 0.0, 0.0]",,-2.51601663844,1.27134217103,0.797468065767,"[0.0, 0.0, 0.0, 0.0, 0.0, 0.0, 0.0, 0.0, 0.0]",,0.32394285,5.4579462,6.05674965,"[0.0, 0.0, 0.0, 0.0, 0.0, 0.0, 0.0, 0.0, 0.0]"
1569267653042673148,,17402,,1569267653,4581928,"""knife_link""",,-0.540647148257,-0.120457322737,-0.176713279929,-0.813611154777,"[0.0, 0.0, 0.0, 0.0, 0.0, 0.0, 0.0, 0.0, 0.0]",,0.475477699485,0.531322568185,0.692748310647,"[0.0, 0.0, 0.0, 0.0, 0.0, 0.0, 0.0, 0.0, 0.0]",,-0.67733505,8.834805,3.6124536,"[0.0, 0.0, 0.0, 0.0, 0.0, 0.0, 0.0, 0.0, 0.0]"
1569267653098605320,,17403,,1569267653,41945934,"""knife_link""",,-0.580850355683,-0.12891855977,-0.16402343458,-0.786822204922,"[0.0, 0.0, 0.0, 0.0, 0.0, 0.0, 0.0, 0.0, 0.0]",,2.79152961689,-0.0132201584389,-0.186897632361,"[0.0, 0.0, 0.0, 0.0, 0.0, 0.0, 0.0, 0.0, 0.0]",,-1.03072725,7.3819704,5.9291358,"[0.0, 0.0, 0.0, 0.0, 0.0, 0.0, 0.0, 0.0, 0.0]"
1569267653155168842,,17404,,1569267653,97848892,"""knife_link""",,-0.6419983915,-0.151513578451,-0.177210392166,-0.730395904811,"[0.0, 0.0, 0.0, 0.0, 0.0, 0.0, 0.0, 0.0, 0.0]",,2.9765345176,0.950201588665,0.546140653479,"[0.0, 0.0, 0.0, 0.0, 0.0, 0.0, 0.0, 0.0, 0.0]",,-2.2774164,8.3636154,8.03967255,"[0.0, 0.0, 0.0, 0.0, 0.0, 0.0, 0.0, 0.0, 0.0]"
1569267653192762859,,17405,,1569267653,154319047,"""knife_link""",,-0.685982679956,-0.159460632488,-0.186075117173,-0.685110297876,"[0.0, 0.0, 0.0, 0.0, 0.0, 0.0, 0.0, 0.0, 0.0]",,2.17717372019,0.508633287909,0.579301909267,"[0.0, 0.0, 0.0, 0.0, 0.0, 0.0, 0.0, 0.0, 0.0]",,2.4344796,12.5846889,2.552277,"[0.0, 0.0, 0.0, 0.0, 0.0, 0.0, 0.0, 0.0, 0.0]"
1569267653248761295,,17406,,1569267653,191858053,"""knife_link""",,-0.692046632017,-0.142978671869,-0.17113709551,-0.686542535495,"[0.0, 0.0, 0.0, 0.0, 0.0, 0.0, 0.0, 0.0, 0.0]",,0.285236811017,-1.06739902665,0.108063011227,"[0.0, 0.0, 0.0, 0.0, 0.0, 0.0, 0.0, 0.0, 0.0]",,-0.00981645,7.6175652,4.711896,"[0.0, 0.0, 0.0, 0.0, 0.0, 0.0, 0.0, 0.0, 0.0]"
1569267653305166811,,17407,,1569267653,248115062,"""knife_link""",,-0.670694059902,-0.133556445634,-0.156736892796,-0.712576803073,"[0.0, 0.0, 0.0, 0.0, 0.0, 0.0, 0.0, 0.0, 0.0]",,-1.12673455385,-0.501912348999,-0.357939899057,"[0.0, 0.0, 0.0, 0.0, 0.0, 0.0, 0.0, 0.0, 0.0]",,-1.2172398,9.6397539,1.5902649,"[0.0, 0.0, 0.0, 0.0, 0.0, 0.0, 0.0, 0.0, 0.0]"
1569267653342659359,,17408,,1569267653,304454088,"""knife_link""",,-0.668148719728,-0.131965786895,-0.139679810384,-0.71878499566,"[0.0, 0.0, 0.0, 0.0, 0.0, 0.0, 0.0, 0.0, 0.0]",,-0.110952929187,-0.364031338091,-0.434734386145,"[0.0, 0.0, 0.0, 0.0, 0.0, 0.0, 0.0, 0.0, 0.0]",,0.0588987,8.3636154,2.2577835,"[0.0, 0.0, 0.0, 0.0, 0.0, 0.0, 0.0, 0.0, 0.0]"
1569267653398636294,,17409,,1569267653,341703891,"""knife_link""",,-0.668193367895,-0.149104002026,-0.121184545093,-0.718748861364,"[0.0, 0.0, 0.0, 0.0, 0.0, 0.0, 0.0, 0.0, 0.0]",,0.259056872237,0.128151510973,-1.31961631691,"[0.0, 0.0, 0.0, 0.0, 0.0, 0.0, 0.0, 0.0, 0.0]",,-0.8834805,7.41141975,1.89457485,"[0.0, 0.0, 0.0, 0.0, 0.0, 0.0, 0.0, 0.0, 0.0]"
1569267653455142860,,17410,,1569267653,397990942,"""knife_link""",,-0.768168322423,-0.192932666569,-0.0829620808975,-0.604823699709,"[0.0, 0.0, 0.0, 0.0, 0.0, 0.0, 0.0, 0.0, 0.0]",,5.71670144324,0.513869275665,-1.01941968557,"[0.0, 0.0, 0.0, 0.0, 0.0, 0.0, 0.0, 0.0, 0.0]",,-5.4186804,5.2223514,2.2970493,"[0.0, 0.0, 0.0, 0.0, 0.0, 0.0, 0.0, 0.0, 0.0]"
1569267653492608657,,17411,,1569267653,454492092,"""knife_link""",,-0.771538269877,-0.242559776558,-0.0452695367509,-0.586382231956,"[0.0, 0.0, 0.0, 0.0, 0.0, 0.0, 0.0, 0.0, 0.0]",,0.960679231541,0.260796534125,-2.11548645582,"[0.0, 0.0, 0.0, 0.0, 0.0, 0.0, 0.0, 0.0, 0.0]",,-4.01492805,14.02770705,1.63934715,"[0.0, 0.0, 0.0, 0.0, 0.0, 0.0, 0.0, 0.0, 0.0]"
1569267653548713251,,17412,,1569267653,491774082,"""knife_link""",,-0.782265970703,-0.235196625539,-0.0586420372184,-0.573849814747,"[0.0, 0.0, 0.0, 0.0, 0.0, 0.0, 0.0, 0.0, 0.0]",,0.634302661417,0.601135738265,0.846337284823,"[0.0, 0.0, 0.0, 0.0, 0.0, 0.0, 0.0, 0.0, 0.0]",,1.56081555,16.32475635,-1.0209108,"[0.0, 0.0, 0.0, 0.0, 0.0, 0.0, 0.0, 0.0, 0.0]"
1569267653605730652,,17413,,1569267653,547985076,"""knife_link""",,-0.790935399135,-0.256632146989,-0.039895927697,-0.554048238405,"[0.0, 0.0, 0.0, 0.0, 0.0, 0.0, 0.0, 0.0, 0.0]",,0.910064683233,0.156076779005,-0.902482625681,"[0.0, 0.0, 0.0, 0.0, 0.0, 0.0, 0.0, 0.0, 0.0]",,-2.7878718,16.0008135,0.16687965,"[0.0, 0.0, 0.0, 0.0, 0.0, 0.0, 0.0, 0.0, 0.0]"
1569267653642706263,,17414,,1569267653,605000972,"""knife_link""",,-0.779024067033,-0.250023722129,-0.0547890613592,-0.572370334759,"[0.0, 0.0, 0.0, 0.0, 0.0, 0.0, 0.0, 0.0, 0.0]",,-0.830028581011,0.232871266093,0.317502521467,"[0.0, 0.0, 0.0, 0.0, 0.0, 0.0, 0.0, 0.0, 0.0]",,-2.89585275,10.405437,1.18779045,"[0.0, 0.0, 0.0, 0.0, 0.0, 0.0, 0.0, 0.0, 0.0]"
1569267653698680413,,17415,,1569267653,641725063,"""knife_link""",,-0.781628272126,-0.23913205164,-0.0464869529623,-0.574205598455,"[0.0, 0.0, 0.0, 0.0, 0.0, 0.0, 0.0, 0.0, 0.0]",,0.136883824597,-0.576961506835,0.228490729615,"[0.0, 0.0, 0.0, 0.0, 0.0, 0.0, 0.0, 0.0, 0.0]",,-3.30814365,8.8544379,-0.32394285,"[0.0, 0.0, 0.0, 0.0, 0.0, 0.0, 0.0, 0.0, 0.0]"
1569267653754872922,,17416,,1569267653,697961091,"""knife_link""",,-0.771418136413,-0.242696479608,-0.0391367377368,-0.586924861765,"[0.0, 0.0, 0.0, 0.0, 0.0, 0.0, 0.0, 0.0, 0.0]",,-0.505397340139,-0.154591827851,-0.377138520829,"[0.0, 0.0, 0.0, 0.0, 0.0, 0.0, 0.0, 0.0, 0.0]",,-2.91548565,7.3427046,-1.1190753,"[0.0, 0.0, 0.0, 0.0, 0.0, 0.0, 0.0, 0.0, 0.0]"
1569267653792275310,,17417,,1569267653,754357099,"""knife_link""",,-0.766746648715,-0.24948196226,-0.0248525043547,-0.590965887525,"[0.0, 0.0, 0.0, 0.0, 0.0, 0.0, 0.0, 0.0, 0.0]",,-0.0934996366668,-0.208697034663,-0.551671446029,"[0.0, 0.0, 0.0, 0.0, 0.0, 0.0, 0.0, 0.0, 0.0]",,-2.50319475,5.36959815,-0.4122909,"[0.0, 0.0, 0.0, 0.0, 0.0, 0.0, 0.0, 0.0, 0.0]"
1569267653848797906,,17418,,1569267653,791518926,"""knife_link""",,-0.766855615419,-0.25580509922,-0.029353329855,-0.587906964017,"[0.0, 0.0, 0.0, 0.0, 0.0, 0.0, 0.0, 0.0, 0.0]",,0.0251827524692,0.531322568185,-0.125811108541,"[0.0, 0.0, 0.0, 0.0, 0.0, 0.0, 0.0, 0.0, 0.0]",,-3.2001627,8.56976085,-3.81859905,"[0.0, 0.0, 0.0, 0.0, 0.0, 0.0, 0.0, 0.0, 0.0]"
1569267653905255760,,17419,,1569267653,848179101,"""knife_link""",,-0.763408731249,-0.26440212299,-0.025350480858,-0.588774982087,"[0.0, 0.0, 0.0, 0.0, 0.0, 0.0, 0.0, 0.0, 0.0]",,-0.0184504788308,0.143859474241,-0.357939899057,"[0.0, 0.0, 0.0, 0.0, 0.0, 0.0, 0.0, 0.0, 0.0]",,-3.42594105,9.3648933,-0.1766961,"[0.0, 0.0, 0.0, 0.0, 0.0, 0.0, 0.0, 0.0, 0.0]"
1569267653942227123,,17420,,1569267653,904591083,"""knife_link""",,-0.762021592015,-0.266363919103,-0.0256769738181,-0.589672832101,"[0.0, 0.0, 0.0, 0.0, 0.0, 0.0, 0.0, 0.0, 0.0]",,-0.0254317958388,0.129896840225,-0.0629792554694,"[0.0, 0.0, 0.0, 0.0, 0.0, 0.0, 0.0, 0.0, 0.0]",,-3.8480484,8.9722353,-0.0981645,"[0.0, 0.0, 0.0, 0.0, 0.0, 0.0, 0.0, 0.0, 0.0]"
1569267653999237060,,17421,,1569267653,941507101,"""knife_link""",,-0.76144152254,-0.265574223458,-0.0251835279965,-0.590798552389,"[0.0, 0.0, 0.0, 0.0, 0.0, 0.0, 0.0, 0.0, 0.0]",,-0.0271771250908,0.0426303776251,-0.0350539874374,"[0.0, 0.0, 0.0, 0.0, 0.0, 0.0, 0.0, 0.0, 0.0]",,-2.5915428,10.29745605,-0.89329695,"[0.0, 0.0, 0.0, 0.0, 0.0, 0.0, 0.0, 0.0, 0.0]"
1569267654054968477,,17422,,1569267653,998368978,"""knife_link""",,-0.761036901797,-0.2636831241,-0.0205990279924,-0.592342573359,"[0.0, 0.0, 0.0, 0.0, 0.0, 0.0, 0.0, 0.0, 0.0]",,0.0199467647132,-0.0969959625349,-0.0559979384614,"[0.0, 0.0, 0.0, 0.0, 0.0, 0.0, 0.0, 0.0, 0.0]",,-3.533922,8.92315305,-0.1570632,"[0.0, 0.0, 0.0, 0.0, 0.0, 0.0, 0.0, 0.0, 0.0]"
1569267654092261190,,17423,,1569267654,54346084,"""knife_link""",,-0.762725064123,-0.259585413814,-0.0178092223676,-0.592071550653,"[0.0, 0.0, 0.0, 0.0, 0.0, 0.0, 0.0, 0.0, 0.0]",,0.105467898061,-0.0830333285189,0.0696657676826,"[0.0, 0.0, 0.0, 0.0, 0.0, 0.0, 0.0, 0.0, 0.0]",,-3.7695168,8.76608985,0.3337593,"[0.0, 0.0, 0.0, 0.0, 0.0, 0.0, 0.0, 0.0, 0.0]"
1569267654149178654,,17424,,1569267654,91588973,"""knife_link""",,-0.758892483937,-0.25924471244,-0.016512276827,-0.59716138657,"[0.0, 0.0, 0.0, 0.0, 0.0, 0.0, 0.0, 0.0, 0.0]",,-0.283740525135,-0.0184561461949,-0.0891591942494,"[0.0, 0.0, 0.0, 0.0, 0.0, 0.0, 0.0, 0.0, 0.0]",,-3.6909852,8.834805,-0.61843635,"[0.0, 0.0, 0.0, 0.0, 0.0, 0.0, 0.0, 0.0, 0.0]"
1569267654204955385,,17425,,1569267654,148387908,"""knife_link""",,-0.758383006487,-0.258509427554,-0.0139730977572,-0.598191310432,"[0.0, 0.0, 0.0, 0.0, 0.0, 0.0, 0.0, 0.0, 0.0]",,0.0182014354612,-0.0114748291869,-0.0402899751934,"[0.0, 0.0, 0.0, 0.0, 0.0, 0.0, 0.0, 0.0, 0.0]",,-3.8284155,8.94278595,0.30430995,"[0.0, 0.0, 0.0, 0.0, 0.0, 0.0, 0.0, 0.0, 0.0]"
1569267654242390745,,17426,,1569267654,204287052,"""knife_link""",,-0.751196683455,-0.262516460216,-0.0122392328118,-0.60550710323,"[0.0, 0.0, 0.0, 0.0, 0.0, 0.0, 0.0, 0.0, 0.0]",,-0.311665793167,0.0461210361291,-0.223549546653,"[0.0, 0.0, 0.0, 0.0, 0.0, 0.0, 0.0, 0.0, 0.0]",,-3.5535549,9.17838075,-0.28467705,"[0.0, 0.0, 0.0, 0.0, 0.0, 0.0, 0.0, 0.0, 0.0]"
1569267654298875671,,17427,,1569267654,241694927,"""knife_link""",,-0.749623295881,-0.263426365406,-0.0101805039627,-0.60709786824,"[0.0, 0.0, 0.0, 0.0, 0.0, 0.0, 0.0, 0.0, 0.0]",,-0.0463757468628,0.0304130728611,-0.129301767045,"[0.0, 0.0, 0.0, 0.0, 0.0, 0.0, 0.0, 0.0, 0.0]",,-3.91676355,9.37470975,-0.0588987,"[0.0, 0.0, 0.0, 0.0, 0.0, 0.0, 0.0, 0.0, 0.0]"
1569267654354805709,,17428,,1569267654,298202037,"""knife_link""",,-0.747913745586,-0.263035900851,-0.00879671809551,-0.609392945297,"[0.0, 0.0, 0.0, 0.0, 0.0, 0.0, 0.0, 0.0, 0.0]",,-0.0568477223748,0.00772379258507,-0.0280726704294,"[0.0, 0.0, 0.0, 0.0, 0.0, 0.0, 0.0, 0.0, 0.0]",,-4.19162415,8.56976085,0.20614545,"[0.0, 0.0, 0.0, 0.0, 0.0, 0.0, 0.0, 0.0, 0.0]"
1569267654392027479,,17429,,1569267654,354077100,"""knife_link""",,-0.749381529289,-0.263145934035,-0.00706590987421,-0.607562024718,"[0.0, 0.0, 0.0, 0.0, 0.0, 0.0, 0.0, 0.0, 0.0]",,0.126411849085,0.0426303776251,-0.0385446459414,"[0.0, 0.0, 0.0, 0.0, 0.0, 0.0, 0.0, 0.0, 0.0]",,-3.3768588,9.4826907,0.1177974,"[0.0, 0.0, 0.0, 0.0, 0.0, 0.0, 0.0, 0.0, 0.0]"
1569267654449426574,,17430,,1569267654,391278028,"""knife_link""",,-0.74887809354,-0.262709485967,-0.00497816134202,-0.608391769265,"[0.0, 0.0, 0.0, 0.0, 0.0, 0.0, 0.0, 0.0, 0.0]",,-0.000997186310774,-0.00449351217893,-0.0594885969654,"[0.0, 0.0, 0.0, 0.0, 0.0, 0.0, 0.0, 0.0, 0.0]",,-4.13272545,9.41397555,-0.7067844,"[0.0, 0.0, 0.0, 0.0, 0.0, 0.0, 0.0, 0.0, 0.0]"
1569267654504618061,,17431,,1569267654,448700904,"""knife_link""",,-0.749779686365,-0.262549419966,-3.3483215753e-05,-0.607369922591,"[0.0, 0.0, 0.0, 0.0, 0.0, 0.0, 0.0, 0.0, 0.0]",,0.115939873573,-0.0568533897389,-0.0891591942494,"[0.0, 0.0, 0.0, 0.0, 0.0, 0.0, 0.0, 0.0, 0.0]",,-4.1032761,8.88388725,-0.0588987,"[0.0, 0.0, 0.0, 0.0, 0.0, 0.0, 0.0, 0.0, 0.0]"
1569267654542984532,,17432,,1569267654,504009962,"""knife_link""",,-0.749674976273,-0.26082211681,0.00356108719167,-0.608232333891,"[0.0, 0.0, 0.0, 0.0, 0.0, 0.0, 0.0, 0.0, 0.0]",,0.0374000572332,-0.0743066822589,-0.0280726704294,"[0.0, 0.0, 0.0, 0.0, 0.0, 0.0, 0.0, 0.0, 0.0]",,-4.0247445,8.43233055,0.1374303,"[0.0, 0.0, 0.0, 0.0, 0.0, 0.0, 0.0, 0.0, 0.0]"
1569267654598951710,,17433,,1569267654,542262077,"""knife_link""",,-0.751220788204,-0.259417125921,0.00669061291667,-0.606898111588,"[0.0, 0.0, 0.0, 0.0, 0.0, 0.0, 0.0, 0.0, 0.0]",,0.199715677669,-0.0620893774949,-0.0385446459414,"[0.0, 0.0, 0.0, 0.0, 0.0, 0.0, 0.0, 0.0, 0.0]",,-3.4946562,9.55140585,0.4319238,"[0.0, 0.0, 0.0, 0.0, 0.0, 0.0, 0.0, 0.0, 0.0]"
1569267654654808480,,17434,,1569267654,598340988,"""knife_link""",,-0.750102737877,-0.25825595024,0.010126290966,-0.608725886607,"[0.0, 0.0, 0.0, 0.0, 0.0, 0.0, 0.0, 0.0, 0.0]",,-0.0254317958388,-0.0743066822589,-0.0490166214534,"[0.0, 0.0, 0.0, 0.0, 0.0, 0.0, 0.0, 0.0, 0.0]",,-4.319238,9.08021625,-0.65770215,"[0.0, 0.0, 0.0, 0.0, 0.0, 0.0, 0.0, 0.0, 0.0]"
1569267654692375066,,17435,,1569267654,654129028,"""knife_link""",,-0.754249926377,-0.2572369661,0.0164234949391,-0.603876196455,"[0.0, 0.0, 0.0, 0.0, 0.0, 0.0, 0.0, 0.0, 0.0]",,0.321888725309,-0.0708160237549,-0.0751965602334,"[0.0, 0.0, 0.0, 0.0, 0.0, 0.0, 0.0, 0.0, 0.0]",,-4.0247445,8.9133366,0.8834805,"[0.0, 0.0, 0.0, 0.0, 0.0, 0.0, 0.0, 0.0, 0.0]"
1569267654748519765,,17436,,1569267654,691721916,"""knife_link""",,-0.753768641322,-0.256217700915,0.0182768057469,-0.60485641558,"[0.0, 0.0, 0.0, 0.0, 0.0, 0.0, 0.0, 0.0, 0.0]",,-0.00972383257077,-0.0306734509589,-0.0158553656654,"[0.0, 0.0, 0.0, 0.0, 0.0, 0.0, 0.0, 0.0, 0.0]",,-4.38795315,8.7170076,-0.8442147,"[0.0, 0.0, 0.0, 0.0, 0.0, 0.0, 0.0, 0.0, 0.0]"
1569267654805251422,,17437,,1569267654,747895956,"""knife_link""",,-0.753591884941,-0.255022353941,0.0201686569025,-0.605521341672,"[0.0, 0.0, 0.0, 0.0, 0.0, 0.0, 0.0, 0.0, 0.0]",,0.0321640694772,-0.0202014754469,-0.0141100364134,"[0.0, 0.0, 0.0, 0.0, 0.0, 0.0, 0.0, 0.0, 0.0]",,-3.8873142,9.0900327,0.40247445,"[0.0, 0.0, 0.0, 0.0, 0.0, 0.0, 0.0, 0.0, 0.0]"
1569267654842324534,,17438,,1569267654,804543972,"""knife_link""",,-0.751346121493,-0.254997597453,0.0228237241094,-0.608222252658,"[0.0, 0.0, 0.0, 0.0, 0.0, 0.0, 0.0, 0.0, 0.0]",,-0.0812823319028,-0.0394000972189,-0.0734512309814,"[0.0, 0.0, 0.0, 0.0, 0.0, 0.0, 0.0, 0.0, 0.0]",,-4.21125705,8.9133366,-0.6871515,"[0.0, 0.0, 0.0, 0.0, 0.0, 0.0, 0.0, 0.0, 0.0]"
1569267654898914717,,17439,,1569267654,841741085,"""knife_link""",,-0.751291407926,-0.254088468364,0.0247252853365,-0.608595868279,"[0.0, 0.0, 0.0, 0.0, 0.0, 0.0, 0.0, 0.0, 0.0]",,0.0670706545172,-0.0184561461949,-0.0263273411774,"[0.0, 0.0, 0.0, 0.0, 0.0, 0.0, 0.0, 0.0, 0.0]",,-4.21125705,9.2470959,0.59880345,"[0.0, 0.0, 0.0, 0.0, 0.0, 0.0, 0.0, 0.0, 0.0]"
1569267654974119872,,17440,,1569267654,898235082,"""knife_link""",,-0.748013683768,-0.254629464109,0.0271651276066,-0.612291940781,"[0.0, 0.0, 0.0, 0.0, 0.0, 0.0, 0.0, 0.0, 0.0]",,-0.133642209463,-0.0376547679669,-0.0961405112574,"[0.0, 0.0, 0.0, 0.0, 0.0, 0.0, 0.0, 0.0, 0.0]",,-4.0051116,9.02131755,-0.73623375,"[0.0, 0.0, 0.0, 0.0, 0.0, 0.0, 0.0, 0.0, 0.0]"
1569267654991999800,,17441,,1569267654,973402976,"""knife_link""",,-0.747537169824,-0.254764381898,0.0334339457608,-0.612507518908,"[0.0, 0.0, 0.0, 0.0, 0.0, 0.0, 0.0, 0.0, 0.0]",,0.0565986790052,-0.0777973407629,-0.106612486769,"[0.0, 0.0, 0.0, 0.0, 0.0, 0.0, 0.0, 0.0, 0.0]",,-4.25052285,8.74645695,0.59880345,"[0.0, 0.0, 0.0, 0.0, 0.0, 0.0, 0.0, 0.0, 0.0]"
1569267655049210262,,17442,,1569267654,991409063,"""knife_link""",,-0.746899879648,-0.254266205976,0.0347458947286,-0.613418282316,"[0.0, 0.0, 0.0, 0.0, 0.0, 0.0, 0.0, 0.0, 0.0]",,0.0496173619972,0.0321584021131,-0.0612339262174,"[0.0, 0.0, 0.0, 0.0, 0.0, 0.0, 0.0, 0.0, 0.0]",,-4.05419385,8.442147,0.981645,"[0.0, 0.0, 0.0, 0.0, 0.0, 0.0, 0.0, 0.0, 0.0]"
1569267655104843596,,17443,,1569267655,48381090,"""knife_link""",,-0.748191071009,-0.253501393348,0.0354631439726,-0.612118885718,"[0.0, 0.0, 0.0, 0.0, 0.0, 0.0, 0.0, 0.0, 0.0]",,0.0827786177852,0.0286677436091,0.0103245731146,"[0.0, 0.0, 0.0, 0.0, 0.0, 0.0, 0.0, 0.0, 0.0]",,-3.99529515,8.9526024,-0.7067844,"[0.0, 0.0, 0.0, 0.0, 0.0, 0.0, 0.0, 0.0, 0.0]"
1569267655141947025,,17444,,1569267655,104140996,"""knife_link""",,-0.74829141536,-0.252551382523,0.0377314362062,-0.612253293667,"[0.0, 0.0, 0.0, 0.0, 0.0, 0.0, 0.0, 0.0, 0.0]",,0.0548533497532,-0.0254374632029,-0.0245820119254,"[0.0, 0.0, 0.0, 0.0, 0.0, 0.0, 0.0, 0.0, 0.0]",,-4.1621748,8.98205175,0.46137315,"[0.0, 0.0, 0.0, 0.0, 0.0, 0.0, 0.0, 0.0, 0.0]"
1569267655198964636,,17445,,1569267655,141307115,"""knife_link""",,-0.749907333612,-0.251783391546,0.0399819834062,-0.610447013048,"[0.0, 0.0, 0.0, 0.0, 0.0, 0.0, 0.0, 0.0, 0.0]",,0.201461006921,0.000742475577068,-0.0176006949174,"[0.0, 0.0, 0.0, 0.0, 0.0, 0.0, 0.0, 0.0, 0.0]",,-4.54501635,8.84462145,0.18651255,"[0.0, 0.0, 0.0, 0.0, 0.0, 0.0, 0.0, 0.0, 0.0]"
1569267655236523026,,17446,,1569267655,198160886,"""knife_link""",,-0.747562652767,-0.252062614323,0.0390587851891,-0.61326089876,"[0.0, 0.0, 0.0, 0.0, 0.0, 0.0, 0.0, 0.0, 0.0]",,-0.112698258439,0.0496116946331,-0.00189273164942,"[0.0, 0.0, 0.0, 0.0, 0.0, 0.0, 0.0, 0.0, 0.0]",,-4.319238,8.8740708,-0.38284155,"[0.0, 0.0, 0.0, 0.0, 0.0, 0.0, 0.0, 0.0, 0.0]"
1569267655291943862,,17447,,1569267655,235730886,"""knife_link""",,-0.747066774078,-0.25122130927,0.0396494432709,-0.614171808606,"[0.0, 0.0, 0.0, 0.0, 0.0, 0.0, 0.0, 0.0, 0.0]",,-0.00623317406677,0.0129597803411,0.00683391461058,"[0.0, 0.0, 0.0, 0.0, 0.0, 0.0, 0.0, 0.0, 0.0]",,-4.27015575,9.27654525,-0.0981645,"[0.0, 0.0, 0.0, 0.0, 0.0, 0.0, 0.0, 0.0, 0.0]"
1569267655349035633,,17448,,1569267655,291441917,"""knife_link""",,-0.746025649647,-0.251420923954,0.0422072628792,-0.615184359381,"[0.0, 0.0, 0.0, 0.0, 0.0, 0.0, 0.0, 0.0, 0.0]",,-0.00448784481477,-0.0271827924549,-0.0664699139734,"[0.0, 0.0, 0.0, 0.0, 0.0, 0.0, 0.0, 0.0, 0.0]",,-4.2603393,8.6581089,-0.2355948,"[0.0, 0.0, 0.0, 0.0, 0.0, 0.0, 0.0, 0.0, 0.0]"
1569267655386267622,,17449,,1569267655,348397970,"""knife_link""",,-0.743391185008,-0.249898184887,0.0421358956631,-0.618987083499,"[0.0, 0.0, 0.0, 0.0, 0.0, 0.0, 0.0, 0.0, 0.0]",,-0.126660892455,-0.0219468046989,0.0277778656346,"[0.0, 0.0, 0.0, 0.0, 0.0, 0.0, 0.0, 0.0, 0.0]",,-4.2407064,8.638476,0.1570632,"[0.0, 0.0, 0.0, 0.0, 0.0, 0.0, 0.0, 0.0, 0.0]"
1569267655442593160,,17450,,1569267655,385567903,"""knife_link""",,-0.741556107168,-0.248958235203,0.0432625306026,-0.621484264075,"[0.0, 0.0, 0.0, 0.0, 0.0, 0.0, 0.0, 0.0, 0.0]",,-0.0969902951708,-0.0463814142269,-0.0158553656654,"[0.0, 0.0, 0.0, 0.0, 0.0, 0.0, 0.0, 0.0, 0.0]",,-4.122909,8.72682405,0.28467705,"[0.0, 0.0, 0.0, 0.0, 0.0, 0.0, 0.0, 0.0, 0.0]"
1569267655517281809,,17451,,1569267655,441745996,"""knife_link""",,-0.736891224242,-0.248085404844,0.0454446785623,-0.627199917673,"[0.0, 0.0, 0.0, 0.0, 0.0, 0.0, 0.0, 0.0, 0.0]",,-0.191238074779,-0.0830333285189,-0.0525072799574,"[0.0, 0.0, 0.0, 0.0, 0.0, 0.0, 0.0, 0.0, 0.0]",,-4.05419385,8.11820415,1.0798095,"[0.0, 0.0, 0.0, 0.0, 0.0, 0.0, 0.0, 0.0, 0.0]"
1569267655536594126,,17452,,1569267655,516563892,"""knife_link""",,-0.737407482812,-0.247491878656,0.048956663366,-0.626563021096,"[0.0, 0.0, 0.0, 0.0, 0.0, 0.0, 0.0, 0.0, 0.0]",,0.0653253252652,-0.0376547679669,-0.0437806336974,"[0.0, 0.0, 0.0, 0.0, 0.0, 0.0, 0.0, 0.0, 0.0]",,-4.2407064,8.8544379,0.3141264,"[0.0, 0.0, 0.0, 0.0, 0.0, 0.0, 0.0, 0.0, 0.0]"
1569267655592358243,,17453,,1569267655,536026954,"""knife_link""",,-0.735424977122,-0.247146115973,0.0504903801958,-0.628903507616,"[0.0, 0.0, 0.0, 0.0, 0.0, 0.0, 0.0, 0.0, 0.0]",,-0.224399330567,-0.0865239870229,-0.110103145273,"[0.0, 0.0, 0.0, 0.0, 0.0, 0.0, 0.0, 0.0, 0.0]",,-4.0640103,8.53049505,-0.40247445,"[0.0, 0.0, 0.0, 0.0, 0.0, 0.0, 0.0, 0.0, 0.0]"
1569267655649054504,,17454,,1569267655,591624975,"""knife_link""",,-0.731648337364,-0.250266260852,0.055689574083,-0.631629781162,"[0.0, 0.0, 0.0, 0.0, 0.0, 0.0, 0.0, 0.0, 0.0]",,-0.0934996366668,-0.0533627312349,-0.221804217401,"[0.0, 0.0, 0.0, 0.0, 0.0, 0.0, 0.0, 0.0, 0.0]",,-4.711896,8.84462145,0.20614545,"[0.0, 0.0, 0.0, 0.0, 0.0, 0.0, 0.0, 0.0, 0.0]"
1569267655686277406,,17455,,1569267655,648271083,"""knife_link""",,-0.728244613984,-0.250887025002,0.059244096583,-0.634984739902,"[0.0, 0.0, 0.0, 0.0, 0.0, 0.0, 0.0, 0.0, 0.0]",,-0.117934246195,-0.0708160237549,-0.117084462281,"[0.0, 0.0, 0.0, 0.0, 0.0, 0.0, 0.0, 0.0, 0.0]",,-4.58428215,9.02131755,-0.1374303,"[0.0, 0.0, 0.0, 0.0, 0.0, 0.0, 0.0, 0.0, 0.0]"
1569267655742953530,,17456,,1569267655,685651063,"""knife_link""",,-0.725571473464,-0.25023526286,0.0596664176579,-0.638254078499,"[0.0, 0.0, 0.0, 0.0, 0.0, 0.0, 0.0, 0.0, 0.0]",,-0.184256757771,-0.0132201584389,-0.00189273164942,"[0.0, 0.0, 0.0, 0.0, 0.0, 0.0, 0.0, 0.0, 0.0]",,-4.85914275,8.6581089,0.28467705,"[0.0, 0.0, 0.0, 0.0, 0.0, 0.0, 0.0, 0.0, 0.0]"
1569267655798667694,,17457,,1569267655,742050886,"""knife_link""",,-0.72651001967,-0.249532385393,0.0605353480617,-0.637379205493,"[0.0, 0.0, 0.0, 0.0, 0.0, 0.0, 0.0, 0.0, 0.0]",,0.0827786177852,0.0216864266011,-0.000147402397418,"[0.0, 0.0, 0.0, 0.0, 0.0, 0.0, 0.0, 0.0, 0.0]",,-4.23088995,9.19801365,0.8834805,"[0.0, 0.0, 0.0, 0.0, 0.0, 0.0, 0.0, 0.0, 0.0]"
1569267655836498423,,17458,,1569267655,797909975,"""knife_link""",,-0.723392616441,-0.250727472483,0.0625190970562,-0.640257932027,"[0.0, 0.0, 0.0, 0.0, 0.0, 0.0, 0.0, 0.0, 0.0]",,-0.109207599935,-0.0184561461949,-0.118829791533,"[0.0, 0.0, 0.0, 0.0, 0.0, 0.0, 0.0, 0.0, 0.0]",,-3.4553904,9.66920325,0.2552277,"[0.0, 0.0, 0.0, 0.0, 0.0, 0.0, 0.0, 0.0, 0.0]"
1569267655892104986,,17459,,1569267655,835637092,"""knife_link""",,-0.724597743309,-0.251228755265,0.0647249657008,-0.638477017389,"[0.0, 0.0, 0.0, 0.0, 0.0, 0.0, 0.0, 0.0, 0.0]",,0.184007714401,0.0199410973491,-0.155481705825,"[0.0, 0.0, 0.0, 0.0, 0.0, 0.0, 0.0, 0.0, 0.0]",,-2.0810874,10.55268375,0.8638476,"[0.0, 0.0, 0.0, 0.0, 0.0, 0.0, 0.0, 0.0, 0.0]"
1569267655948814241,,17460,,1569267655,891577005,"""knife_link""",,-0.718959843188,-0.255550558273,0.0646427385204,-0.643126715668,"[0.0, 0.0, 0.0, 0.0, 0.0, 0.0, 0.0, 0.0, 0.0]",,-0.261051244859,0.0810276211691,-0.138028413305,"[0.0, 0.0, 0.0, 0.0, 0.0, 0.0, 0.0, 0.0, 0.0]",,-4.99657305,8.37343185,-0.8638476,"[0.0, 0.0, 0.0, 0.0, 0.0, 0.0, 0.0, 0.0, 0.0]"
1569267655986348376,,17461,,1569267655,948029041,"""knife_link""",,-0.71903125906,-0.256481402346,0.0676368358289,-0.642367960894,"[0.0, 0.0, 0.0, 0.0, 0.0, 0.0, 0.0, 0.0, 0.0]",,0.0565986790052,0.000742475577068,-0.0926498527534,"[0.0, 0.0, 0.0, 0.0, 0.0, 0.0, 0.0, 0.0, 0.0]",,-4.5548328,8.62865955,0.04908225,"[0.0, 0.0, 0.0, 0.0, 0.0, 0.0, 0.0, 0.0, 0.0]"
1569267656042781244,,17462,,1569267655,985654115,"""knife_link""",,-0.723310167292,-0.253808499846,0.0643801918409,-0.63895135824,"[0.0, 0.0, 0.0, 0.0, 0.0, 0.0, 0.0, 0.0, 0.0]",,0.217168970189,0.147350132745,0.249434680639,"[0.0, 0.0, 0.0, 0.0, 0.0, 0.0, 0.0, 0.0, 0.0]",,-6.27271155,10.798095,1.9240242,"[0.0, 0.0, 0.0, 0.0, 0.0, 0.0, 0.0, 0.0, 0.0]"
1569267656098307086,,17463,,1569267656,42049884,"""knife_link""",,-0.722270124999,-0.250969489511,0.0598882202608,-0.641680280936,"[0.0, 0.0, 0.0, 0.0, 0.0, 0.0, 0.0, 0.0, 0.0]",,-0.102226282927,0.0670649871531,0.184857498315,"[0.0, 0.0, 0.0, 0.0, 0.0, 0.0, 0.0, 0.0, 0.0]",,-4.6333644,7.9316916,0.5497212,"[0.0, 0.0, 0.0, 0.0, 0.0, 0.0, 0.0, 0.0, 0.0]"
1569267656136221922,,17464,,1569267656,97783088,"""knife_link""",,-0.728205284607,-0.243220704206,0.0516755419015,-0.638662971281,"[0.0, 0.0, 0.0, 0.0, 0.0, 0.0, 0.0, 0.0, 0.0]",,0.143865141605,0.105462230697,0.430948922847,"[0.0, 0.0, 0.0, 0.0, 0.0, 0.0, 0.0, 0.0, 0.0]",,-4.3977696,5.3597817,0.18651255,"[0.0, 0.0, 0.0, 0.0, 0.0, 0.0, 0.0, 0.0, 0.0]"
1569267656192379386,,17465,,1569267656,135677099,"""knife_link""",,-0.737926806259,-0.224441542269,0.0348567672397,-0.635511627341,"[0.0, 0.0, 0.0, 0.0, 0.0, 0.0, 0.0, 0.0, 0.0]",,0.266038189245,0.126406181721,1.3961159992,"[0.0, 0.0, 0.0, 0.0, 0.0, 0.0, 0.0, 0.0, 0.0]",,-3.34740945,5.3401488,-0.53990475,"[0.0, 0.0, 0.0, 0.0, 0.0, 0.0, 0.0, 0.0, 0.0]"
1569267656248553200,,17466,,1569267656,191803932,"""knife_link""",,-0.762462109866,-0.160732998585,-0.0140899062993,-0.626592298648,"[0.0, 0.0, 0.0, 0.0, 0.0, 0.0, 0.0, 0.0, 0.0]",,0.470241711729,-0.0202014754469,2.97214831376,"[0.0, 0.0, 0.0, 0.0, 0.0, 0.0, 0.0, 0.0, 0.0]",,-1.81604325,3.8284155,0.06871515,"[0.0, 0.0, 0.0, 0.0, 0.0, 0.0, 0.0, 0.0, 0.0]"
1569267656285967090,,17467,,1569267656,247901916,"""knife_link""",,-0.768830202854,-0.117710366381,-0.0478077801265,-0.626704719134,"[0.0, 0.0, 0.0, 0.0, 0.0, 0.0, 0.0, 0.0, 0.0]",,-0.0812823319028,-0.00623884143093,1.95287603059,"[0.0, 0.0, 0.0, 0.0, 0.0, 0.0, 0.0, 0.0, 0.0]",,1.8847584,19.60345065,-1.01109435,"[0.0, 0.0, 0.0, 0.0, 0.0, 0.0, 0.0, 0.0, 0.0]"
1569267656342546521,,17468,,1569267656,285507917,"""knife_link""",,-0.759882732207,-0.12743972479,-0.037783352599,-0.636325206247,"[0.0, 0.0, 0.0, 0.0, 0.0, 0.0, 0.0, 0.0, 0.0]",,-0.610117095259,-0.0585987189909,-0.825688138593,"[0.0, 0.0, 0.0, 0.0, 0.0, 0.0, 0.0, 0.0, 0.0]",,-1.2565056,13.2325746,-2.09090385,"[0.0, 0.0, 0.0, 0.0, 0.0, 0.0, 0.0, 0.0, 0.0]"
1569267656398595662,,17469,,1569267656,341819047,"""knife_link""",,-0.737902205531,-0.160909490009,-0.00987784084258,-0.655370810579,"[0.0, 0.0, 0.0, 0.0, 0.0, 0.0, 0.0, 0.0, 0.0]",,-0.847481873531,-0.00972949993493,-1.66868216731,"[0.0, 0.0, 0.0, 0.0, 0.0, 0.0, 0.0, 0.0, 0.0]",,-4.97694015,10.98460755,1.5902649,"[0.0, 0.0, 0.0, 0.0, 0.0, 0.0, 0.0, 0.0, 0.0]"
1569267656436084151,,17470,,1569267656,398082017,"""knife_link""",,-0.742707791676,-0.158554530125,-0.0401869022261,-0.649330894114,"[0.0, 0.0, 0.0, 0.0, 0.0, 0.0, 0.0, 0.0, 0.0]",,0.0880146055412,0.814065907009,0.797468065767,"[0.0, 0.0, 0.0, 0.0, 0.0, 0.0, 0.0, 0.0, 0.0]",,-2.95475145,10.92570885,-2.0221887,"[0.0, 0.0, 0.0, 0.0, 0.0, 0.0, 0.0, 0.0, 0.0]"
1569267656492697397,,17471,,1569267656,435385942,"""knife_link""",,-0.747092558623,-0.163971804732,-0.0360487196682,-0.643169064798,"[0.0, 0.0, 0.0, 0.0, 0.0, 0.0, 0.0, 0.0, 0.0]",,0.522601589289,0.138623486485,-0.288126728977,"[0.0, 0.0, 0.0, 0.0, 0.0, 0.0, 0.0, 0.0, 0.0]",,-2.3952138,8.56976085,1.3939359,"[0.0, 0.0, 0.0, 0.0, 0.0, 0.0, 0.0, 0.0, 0.0]"
1569267656548508663,,17472,,1569267656,492088079,"""knife_link""",,-0.751327507187,-0.168591563104,-0.0180437072593,-0.637776047232,"[0.0, 0.0, 0.0, 0.0, 0.0, 0.0, 0.0, 0.0, 0.0]",,0.342832676333,-0.313416789783,-0.504547556225,"[0.0, 0.0, 0.0, 0.0, 0.0, 0.0, 0.0, 0.0, 0.0]",,-2.20870125,6.80279985,-0.5693541,"[0.0, 0.0, 0.0, 0.0, 0.0, 0.0, 0.0, 0.0, 0.0]"
1569267656585963509,,17473,,1569267656,547928094,"""knife_link""",,-0.747515246076,-0.183535045697,0.00583942019791,-0.638358633572,"[0.0, 0.0, 0.0, 0.0, 0.0, 0.0, 0.0, 0.0, 0.0]",,0.0461267034932,-0.280255533995,-0.975786454265,"[0.0, 0.0, 0.0, 0.0, 0.0, 0.0, 0.0, 0.0, 0.0]",,-3.0038337,7.19545785,-0.1374303,"[0.0, 0.0, 0.0, 0.0, 0.0, 0.0, 0.0, 0.0, 0.0]"
1569267656642545396,,17474,,1569267656,585304021,"""knife_link""",,-0.748363023265,-0.182185755616,0.0114318498973,-0.637675817848,"[0.0, 0.0, 0.0, 0.0, 0.0, 0.0, 0.0, 0.0, 0.0]",,0.129902507589,-0.226150327183,-0.129301767045,"[0.0, 0.0, 0.0, 0.0, 0.0, 0.0, 0.0, 0.0, 0.0]",,-2.8860363,10.17965865,-0.93256275,"[0.0, 0.0, 0.0, 0.0, 0.0, 0.0, 0.0, 0.0, 0.0]"
1569267656699069705,,17475,,1569267656,641916036,"""knife_link""",,-0.746071010263,-0.186623057023,0.0167744728309,-0.638958918315,"[0.0, 0.0, 0.0, 0.0, 0.0, 0.0, 0.0, 0.0, 0.0]",,-0.0132144910748,-0.0202014754469,-0.239257509921,"[0.0, 0.0, 0.0, 0.0, 0.0, 0.0, 0.0, 0.0, 0.0]",,-3.3768588,8.9722353,0.73623375,"[0.0, 0.0, 0.0, 0.0, 0.0, 0.0, 0.0, 0.0, 0.0]"
1569267656736195826,,17476,,1569267656,698149919,"""knife_link""",,-0.74506126963,-0.188134569626,0.0200267607828,-0.63959988826,"[0.0, 0.0, 0.0, 0.0, 0.0, 0.0, 0.0, 0.0, 0.0]",,-0.00448784481477,-0.0306734509589,-0.103121828265,"[0.0, 0.0, 0.0, 0.0, 0.0, 0.0, 0.0, 0.0, 0.0]",,-3.81859905,9.17838075,-0.61843635,"[0.0, 0.0, 0.0, 0.0, 0.0, 0.0, 0.0, 0.0, 0.0]"
1569267656792568623,,17477,,1569267656,735353946,"""knife_link""",,-0.745841284477,-0.189880749859,0.023534087362,-0.638053466361,"[0.0, 0.0, 0.0, 0.0, 0.0, 0.0, 0.0, 0.0, 0.0]",,0.182262385149,-0.0184561461949,-0.172934998345,"[0.0, 0.0, 0.0, 0.0, 0.0, 0.0, 0.0, 0.0, 0.0]",,-3.40630815,9.4826907,0.7460502,"[0.0, 0.0, 0.0, 0.0, 0.0, 0.0, 0.0, 0.0, 0.0]"
1569267656848697833,,17478,,1569267656,791810035,"""knife_link""",,-0.74366930421,-0.192657772341,0.0261291700336,-0.639653199168,"[0.0, 0.0, 0.0, 0.0, 0.0, 0.0, 0.0, 0.0, 0.0]",,-0.0568477223748,0.00597846333307,-0.131047096297,"[0.0, 0.0, 0.0, 0.0, 0.0, 0.0, 0.0, 0.0, 0.0]",,-3.6517194,8.86425435,-0.36320865,"[0.0, 0.0, 0.0, 0.0, 0.0, 0.0, 0.0, 0.0, 0.0]"
1569267656886039458,,17479,,1569267656,848094940,"""knife_link""",,-0.744204427637,-0.194621589538,0.0295774776185,-0.638284716712,"[0.0, 0.0, 0.0, 0.0, 0.0, 0.0, 0.0, 0.0, 0.0]",,0.0967412518012,-0.0132201584389,-0.118829791533,"[0.0, 0.0, 0.0, 0.0, 0.0, 0.0, 0.0, 0.0, 0.0]",,-4.1032761,10.1894751,0.4908225,"[0.0, 0.0, 0.0, 0.0, 0.0, 0.0, 0.0, 0.0, 0.0]"
1569267656943053572,,17480,,1569267656,885335922,"""knife_link""",,-0.74458055422,-0.195662315725,0.0302133081445,-0.637497617637,"[0.0, 0.0, 0.0, 0.0, 0.0, 0.0, 0.0, 0.0, 0.0]",,0.0810332885332,0.0635743286491,-0.0472712922014,"[0.0, 0.0, 0.0, 0.0, 0.0, 0.0, 0.0, 0.0, 0.0]",,-3.24924495,8.245818,-0.22577835,"[0.0, 0.0, 0.0, 0.0, 0.0, 0.0, 0.0, 0.0, 0.0]"
1569267657017498436,,17481,,1569267656,942110061,"""knife_link""",,-0.74205636715,-0.195394564926,0.0288942878908,-0.640576640299,"[0.0, 0.0, 0.0, 0.0, 0.0, 0.0, 0.0, 0.0, 0.0]",,-0.126660892455,0.0251770851051,0.0312685241386,"[0.0, 0.0, 0.0, 0.0, 0.0, 0.0, 0.0, 0.0, 0.0]",,-3.6124536,9.45324135,-0.392658,"[0.0, 0.0, 0.0, 0.0, 0.0, 0.0, 0.0, 0.0, 0.0]"
1569267657036244675,,17482,,1569267657,16815900,"""knife_link""",,-0.740158620978,-0.196112321063,0.0323965517739,-0.642382780554,"[0.0, 0.0, 0.0, 0.0, 0.0, 0.0, 0.0, 0.0, 0.0]",,-0.0306677835948,-0.0498720727309,-0.0664699139734,"[0.0, 0.0, 0.0, 0.0, 0.0, 0.0, 0.0, 0.0, 0.0]",,-4.23088995,8.92315305,0.0981645,"[0.0, 0.0, 0.0, 0.0, 0.0, 0.0, 0.0, 0.0, 0.0]"
1569267657092557007,,17483,,1569267657,35409927,"""knife_link""",,-0.739492968725,-0.19628050619,0.0330167219466,-0.643066099377,"[0.0, 0.0, 0.0, 0.0, 0.0, 0.0, 0.0, 0.0, 0.0]",,-0.0132144910748,0.0251770851051,-0.0106193779094,"[0.0, 0.0, 0.0, 0.0, 0.0, 0.0, 0.0, 0.0, 0.0]",,-3.93639645,8.5599444,0.04908225,"[0.0, 0.0, 0.0, 0.0, 0.0, 0.0, 0.0, 0.0, 0.0]"
1569267657148296358,,17484,,1569267657,92020034,"""knife_link""",,-0.738540771642,-0.197596984228,0.0336009051347,-0.643726603163,"[0.0, 0.0, 0.0, 0.0, 0.0, 0.0, 0.0, 0.0, 0.0]",,-0.0167051495788,0.0269224143571,-0.0507619507054,"[0.0, 0.0, 0.0, 0.0, 0.0, 0.0, 0.0, 0.0, 0.0]",,-3.4750233,9.84589935,-0.3533922,"[0.0, 0.0, 0.0, 0.0, 0.0, 0.0, 0.0, 0.0, 0.0]"
1569267657186108232,,17485,,1569267657,147814989,"""knife_link""",,-0.735639231406,-0.199690279246,0.0370619041842,-0.64620827049,"[0.0, 0.0, 0.0, 0.0, 0.0, 0.0, 0.0, 0.0, 0.0]",,-0.0865183196588,-0.0428907557229,-0.134537754801,"[0.0, 0.0, 0.0, 0.0, 0.0, 0.0, 0.0, 0.0, 0.0]",,-4.15235835,8.9722353,0.0196329,"[0.0, 0.0, 0.0, 0.0, 0.0, 0.0, 0.0, 0.0, 0.0]"
1569267657242606392,,17486,,1569267657,185379981,"""knife_link""",,-0.735272459815,-0.200686890082,0.038788428092,-0.646215629517,"[0.0, 0.0, 0.0, 0.0, 0.0, 0.0, 0.0, 0.0, 0.0]",,0.0513626912492,0.00946912183707,-0.0751965602334,"[0.0, 0.0, 0.0, 0.0, 0.0, 0.0, 0.0, 0.0, 0.0]",,-3.7891497,7.8924258,0.6282528,"[0.0, 0.0, 0.0, 0.0, 0.0, 0.0, 0.0, 0.0, 0.0]"
1569267657298757023,,17487,,1569267657,241971015,"""knife_link""",,-0.737754019137,-0.201403088399,0.0399034349766,-0.643089044462,"[0.0, 0.0, 0.0, 0.0, 0.0, 0.0, 0.0, 0.0, 0.0]",,0.159573104873,0.0286677436091,-0.0315633289334,"[0.0, 0.0, 0.0, 0.0, 0.0, 0.0, 0.0, 0.0, 0.0]",,-3.40630815,9.8360829,-0.6675186,"[0.0, 0.0, 0.0, 0.0, 0.0, 0.0, 0.0, 0.0, 0.0]"
1569267657335985266,,17488,,1569267657,297946929,"""knife_link""",,-0.735986471902,-0.200962505205,0.0425565524605,-0.645079006419,"[0.0, 0.0, 0.0, 0.0, 0.0, 0.0, 0.0, 0.0, 0.0]",,-0.0481210761148,-0.0777973407629,-0.0263273411774,"[0.0, 0.0, 0.0, 0.0, 0.0, 0.0, 0.0, 0.0, 0.0]",,-4.40758605,7.68628035,0.0392658,"[0.0, 0.0, 0.0, 0.0, 0.0, 0.0, 0.0, 0.0, 0.0]"
1569267657392485470,,17489,,1569267657,335290908,"""knife_link""",,-0.736386654845,-0.199883127627,0.0425931581405,-0.644955233126,"[0.0, 0.0, 0.0, 0.0, 0.0, 0.0, 0.0, 0.0, 0.0]",,0.0845239470372,0.00597846333307,0.0539578044146,"[0.0, 0.0, 0.0, 0.0, 0.0, 0.0, 0.0, 0.0, 0.0]",,-3.8087826,9.6986526,1.1190753,"[0.0, 0.0, 0.0, 0.0, 0.0, 0.0, 0.0, 0.0, 0.0]"
1569267657448651860,,17490,,1569267657,391858100,"""knife_link""",,-0.735836275781,-0.201667399812,0.0426165627603,-0.64502640541,"[0.0, 0.0, 0.0, 0.0, 0.0, 0.0, 0.0, 0.0, 0.0]",,-0.0114691618228,0.0461210361291,-0.0577432677134,"[0.0, 0.0, 0.0, 0.0, 0.0, 0.0, 0.0, 0.0, 0.0]",,-2.8467705,9.21764655,-1.18779045,"[0.0, 0.0, 0.0, 0.0, 0.0, 0.0, 0.0, 0.0, 0.0]"
1569267657486648479,,17491,,1569267657,448066949,"""knife_link""",,-0.739901349844,-0.200166271446,0.0454531679397,-0.640635204932,"[0.0, 0.0, 0.0, 0.0, 0.0, 0.0, 0.0, 0.0, 0.0]",,0.262547530741,-0.0533627312349,-0.000147402397418,"[0.0, 0.0, 0.0, 0.0, 0.0, 0.0, 0.0, 0.0, 0.0]",,-3.4161246,9.1489314,0.22577835,"[0.0, 0.0, 0.0, 0.0, 0.0, 0.0, 0.0, 0.0, 0.0]"
1569267657543111654,,17492,,1569267657,485985040,"""knife_link""",,-0.739061346417,-0.200159710722,0.0444586274971,-0.641675811354,"[0.0, 0.0, 0.0, 0.0, 0.0, 0.0, 0.0, 0.0, 0.0]",,-0.0446304176108,0.0583383408931,0.0504671459106,"[0.0, 0.0, 0.0, 0.0, 0.0, 0.0, 0.0, 0.0, 0.0]",,-4.19162415,9.1096656,-0.08834805,"[0.0, 0.0, 0.0, 0.0, 0.0, 0.0, 0.0, 0.0, 0.0]"
1569267657598710693,,17493,,1569267657,542396068,"""knife_link""",,-0.736774167004,-0.202141985228,0.0427930775088,-0.643794374906,"[0.0, 0.0, 0.0, 0.0, 0.0, 0.0, 0.0, 0.0, 0.0]",,-0.109207599935,0.0810276211691,-0.0158553656654,"[0.0, 0.0, 0.0, 0.0, 0.0, 0.0, 0.0, 0.0, 0.0]",,-3.87749775,9.13911495,-0.77549955,"[0.0, 0.0, 0.0, 0.0, 0.0, 0.0, 0.0, 0.0, 0.0]"
1569267657636321210,,17494,,1569267657,598062038,"""knife_link""",,-0.734707781867,-0.203767800373,0.0446160096853,-0.645517289059,"[0.0, 0.0, 0.0, 0.0, 0.0, 0.0, 0.0, 0.0, 0.0]",,-0.0428850883588,-0.00972949993493,-0.0961405112574,"[0.0, 0.0, 0.0, 0.0, 0.0, 0.0, 0.0, 0.0, 0.0]",,-3.24924495,8.9133366,0.7067844,"[0.0, 0.0, 0.0, 0.0, 0.0, 0.0, 0.0, 0.0, 0.0]"
1569267657692420935,,17495,,1569267657,635473966,"""knife_link""",,-0.730418960541,-0.206564569039,0.0441683442818,-0.649513955403,"[0.0, 0.0, 0.0, 0.0, 0.0, 0.0, 0.0, 0.0, 0.0]",,-0.320392439427,0.0810276211691,-0.120575120785,"[0.0, 0.0, 0.0, 0.0, 0.0, 0.0, 0.0, 0.0, 0.0]",,-3.6124536,8.62865955,-1.32522075,"[0.0, 0.0, 0.0, 0.0, 0.0, 0.0, 0.0, 0.0, 0.0]"
1569267657748581615,,17496,,1569267657,691811084,"""knife_link""",,-0.731727456303,-0.208302276801,0.0485379586745,-0.647170114993,"[0.0, 0.0, 0.0, 0.0, 0.0, 0.0, 0.0, 0.0, 0.0]",,0.145610470857,-0.0359094387149,-0.129301767045,"[0.0, 0.0, 0.0, 0.0, 0.0, 0.0, 0.0, 0.0, 0.0]",,-4.5940986,9.9538803,0.53990475,"[0.0, 0.0, 0.0, 0.0, 0.0, 0.0, 0.0, 0.0, 0.0]"
1569267657786017145,,17497,,1569267657,747715950,"""knife_link""",,-0.727848571536,-0.20901055305,0.0496156846399,-0.651221413549,"[0.0, 0.0, 0.0, 0.0, 0.0, 0.0, 0.0, 0.0, 0.0]",,-0.156331489739,-0.0219468046989,-0.0350539874374,"[0.0, 0.0, 0.0, 0.0, 0.0, 0.0, 0.0, 0.0, 0.0]",,-4.6726302,7.92187515,0.69696795,"[0.0, 0.0, 0.0, 0.0, 0.0, 0.0, 0.0, 0.0, 0.0]"
1569267657842622446,,17498,,1569267657,785376071,"""knife_link""",,-0.729113635744,-0.209052522862,0.0502555174692,-0.649742050217,"[0.0, 0.0, 0.0, 0.0, 0.0, 0.0, 0.0, 0.0, 0.0]",,0.114194544321,0.0129597803411,-0.0158553656654,"[0.0, 0.0, 0.0, 0.0, 0.0, 0.0, 0.0, 0.0, 0.0]",,-3.9462129,10.6802976,-0.4319238,"[0.0, 0.0, 0.0, 0.0, 0.0, 0.0, 0.0, 0.0, 0.0]"
1569267657899093575,,17499,,1569267657,842010974,"""knife_link""",,-0.728117291004,-0.210722870537,0.0542136449735,-0.650001510054,"[0.0, 0.0, 0.0, 0.0, 0.0, 0.0, 0.0, 0.0, 0.0]",,0.0182014354612,-0.0481267434789,-0.125811108541,"[0.0, 0.0, 0.0, 0.0, 0.0, 0.0, 0.0, 0.0, 0.0]",,-4.01492805,7.5586665,0.48100605,"[0.0, 0.0, 0.0, 0.0, 0.0, 0.0, 0.0, 0.0, 0.0]"
1569267657936168521,,17500,,1569267657,898247003,"""knife_link""",,-0.727386545073,-0.211497872573,0.0554808354986,-0.650460868028,"[0.0, 0.0, 0.0, 0.0, 0.0, 0.0, 0.0, 0.0, 0.0]",,0.00772945994923,0.00248780482907,-0.0298179996814,"[0.0, 0.0, 0.0, 0.0, 0.0, 0.0, 0.0, 0.0, 0.0]",,-4.60391505,8.245818,0.4319238,"[0.0, 0.0, 0.0, 0.0, 0.0, 0.0, 0.0, 0.0, 0.0]"
1569267657992632858,,17501,,1569267657,935287952,"""knife_link""",,-0.725581553294,-0.213154014609,0.0561085053617,-0.651880825919,"[0.0, 0.0, 0.0, 0.0, 0.0, 0.0, 0.0, 0.0, 0.0]",,-0.0917543074148,0.0426303776251,-0.0769418894854,"[0.0, 0.0, 0.0, 0.0, 0.0, 0.0, 0.0, 0.0, 0.0]",,-4.2996051,8.29490025,-0.1570632,"[0.0, 0.0, 0.0, 0.0, 0.0, 0.0, 0.0, 0.0, 0.0]"
1569267658048642766,,17502,,1569267657,991931915,"""knife_link""",,-0.724926524229,-0.213172746272,0.0553249542824,-0.652669950395,"[0.0, 0.0, 0.0, 0.0, 0.0, 0.0, 0.0, 0.0, 0.0]",,-0.0236864665868,0.0304130728611,0.0365045118946,"[0.0, 0.0, 0.0, 0.0, 0.0, 0.0, 0.0, 0.0, 0.0]",,-4.27015575,7.68628035,-0.08834805,"[0.0, 0.0, 0.0, 0.0, 0.0, 0.0, 0.0, 0.0, 0.0]"
1569267658085946639,,17503,,1569267658,48039913,"""knife_link""",,-0.726063277495,-0.209717805278,0.0526077515332,-0.652750322636,"[0.0, 0.0, 0.0, 0.0, 0.0, 0.0, 0.0, 0.0, 0.0]",,0.0251827524692,0.0251770851051,0.293067911939,"[0.0, 0.0, 0.0, 0.0, 0.0, 0.0, 0.0, 0.0, 0.0]",,-8.33416605,4.0051116,0.2748606,"[0.0, 0.0, 0.0, 0.0, 0.0, 0.0, 0.0, 0.0, 0.0]"
1569267658142944764,,17504,,1569267658,85412979,"""knife_link""",,-0.731242094383,-0.195601822881,0.040020051793,-0.652244832668,"[0.0, 0.0, 0.0, 0.0, 0.0, 0.0, 0.0, 0.0, 0.0]",,0.0915052640452,0.0373943898691,1.04181416105,"[0.0, 0.0, 0.0, 0.0, 0.0, 0.0, 0.0, 0.0, 0.0]",,-3.4553904,5.33033235,-1.5117333,"[0.0, 0.0, 0.0, 0.0, 0.0, 0.0, 0.0, 0.0, 0.0]"
1569267658198924255,,17505,,1569267658,142215013,"""knife_link""",,-0.750264024505,-0.148988760532,0.000384440046918,-0.644132047778,"[0.0, 0.0, 0.0, 0.0, 0.0, 0.0, 0.0, 0.0, 0.0]",,0.435335126689,0.0478663653811,2.23212871091,"[0.0, 0.0, 0.0, 0.0, 0.0, 0.0, 0.0, 0.0, 0.0]",,-2.89585275,3.93639645,0.42210735,"[0.0, 0.0, 0.0, 0.0, 0.0, 0.0, 0.0, 0.0, 0.0]"
1569267658236171774,,17506,,1569267658,198009967,"""knife_link""",,-0.7592200589,-0.10817077069,-0.0329585316529,-0.640935037054,"[0.0, 0.0, 0.0, 0.0, 0.0, 0.0, 0.0, 0.0, 0.0]",,0.112449215069,-0.00798417068293,1.91447878705,"[0.0, 0.0, 0.0, 0.0, 0.0, 0.0, 0.0, 0.0, 0.0]",,-0.8442147,19.60345065,-0.2355948,"[0.0, 0.0, 0.0, 0.0, 0.0, 0.0, 0.0, 0.0, 0.0]"
1569267658292597789,,17507,,1569267658,235434055,"""knife_link""",,-0.745596387126,-0.103552566616,-0.0392217315372,-0.657133585527,"[0.0, 0.0, 0.0, 0.0, 0.0, 0.0, 0.0, 0.0, 0.0]",,-1.15291449263,0.0688103164051,0.305285216703,"[0.0, 0.0, 0.0, 0.0, 0.0, 0.0, 0.0, 0.0, 0.0]",,-1.4921004,10.51341795,-0.6675186,"[0.0, 0.0, 0.0, 0.0, 0.0, 0.0, 0.0, 0.0, 0.0]"
1569267658368347823,,17508,,1569267658,291917085,"""knife_link""",,-0.724711110475,-0.113378844835,-0.0271250757764,-0.679119484452,"[0.0, 0.0, 0.0, 0.0, 0.0, 0.0, 0.0, 0.0, 0.0]",,-1.01154282322,-0.116194584307,-0.651155213393,"[0.0, 0.0, 0.0, 0.0, 0.0, 0.0, 0.0, 0.0, 0.0]",,-0.83439825,16.22659185,1.67861295,"[0.0, 0.0, 0.0, 0.0, 0.0, 0.0, 0.0, 0.0, 0.0]"
1569267658385858491,,17509,,1569267658,367361068,"""knife_link""",,-0.708221701383,-0.125478838763,-0.0639998445992,-0.691795564169,"[0.0, 0.0, 0.0, 0.0, 0.0, 0.0, 0.0, 0.0, 0.0]",,-0.643278351047,0.925766979137,0.375098386783,"[0.0, 0.0, 0.0, 0.0, 0.0, 0.0, 0.0, 0.0, 0.0]",,-2.0614545,11.31836685,0.3141264,"[0.0, 0.0, 0.0, 0.0, 0.0, 0.0, 0.0, 0.0, 0.0]"
1569267658442811782,,17510,,1569267658,385411977,"""knife_link""",,-0.713861893905,-0.126528540999,-0.0592584830953,-0.686207080206,"[0.0, 0.0, 0.0, 0.0, 0.0, 0.0, 0.0, 0.0, 0.0]",,0.939735280517,-0.201715717655,-0.330014631025,"[0.0, 0.0, 0.0, 0.0, 0.0, 0.0, 0.0, 0.0, 0.0]",,-4.0640103,11.2496517,3.79896615,"[0.0, 0.0, 0.0, 0.0, 0.0, 0.0, 0.0, 0.0, 0.0]"
1569267658498957293,,17511,,1569267658,442137002,"""knife_link""",,-0.725567713842,-0.134444472014,-0.0368837076186,-0.673881123557,"[0.0, 0.0, 0.0, 0.0, 0.0, 0.0, 0.0, 0.0, 0.0]",,0.709351819253,-0.334360740807,-0.663372518157,"[0.0, 0.0, 0.0, 0.0, 0.0, 0.0, 0.0, 0.0, 0.0]",,-2.44429605,6.1450977,-1.4528346,"[0.0, 0.0, 0.0, 0.0, 0.0, 0.0, 0.0, 0.0, 0.0]"
1569267658536707151,,17512,,1569267658,498116016,"""knife_link""",,-0.732002478888,-0.155599114015,-0.00746216449248,-0.663253799627,"[0.0, 0.0, 0.0, 0.0, 0.0, 0.0, 0.0, 0.0, 0.0]",,0.599396076377,-0.206951705411,-1.21315123254,"[0.0, 0.0, 0.0, 0.0, 0.0, 0.0, 0.0, 0.0, 0.0]",,-2.32649865,6.4592241,-1.5313662,"[0.0, 0.0, 0.0, 0.0, 0.0, 0.0, 0.0, 0.0, 0.0]"
1569267658592571336,,17513,,1569267658,535784959,"""knife_link""",,-0.729909241625,-0.166274369016,0.00279666333626,-0.66300641918,"[0.0, 0.0, 0.0, 0.0, 0.0, 0.0, 0.0, 0.0, 0.0]",,0.0234374232172,-0.0132201584389,-0.794272212057,"[0.0, 0.0, 0.0, 0.0, 0.0, 0.0, 0.0, 0.0, 0.0]",,-1.52154975,7.4408691,0.16687965,"[0.0, 0.0, 0.0, 0.0, 0.0, 0.0, 0.0, 0.0, 0.0]"
1569267658648797608,,17514,,1569267658,591878890,"""knife_link""",,-0.731825828214,-0.168955496395,0.0154900170692,-0.660034133032,"[0.0, 0.0, 0.0, 0.0, 0.0, 0.0, 0.0, 0.0, 0.0]",,0.231131604205,-0.241858290451,-0.361430557561,"[0.0, 0.0, 0.0, 0.0, 0.0, 0.0, 0.0, 0.0, 0.0]",,-2.3166822,9.72810195,0.61843635,"[0.0, 0.0, 0.0, 0.0, 0.0, 0.0, 0.0, 0.0, 0.0]"
1569267658686112132,,17515,,1569267658,648186922,"""knife_link""",,-0.730566566479,-0.171749818981,0.0155361184249,-0.66070653141,"[0.0, 0.0, 0.0, 0.0, 0.0, 0.0, 0.0, 0.0, 0.0]",,-0.0498664053668,0.0670649871531,-0.0559979384614,"[0.0, 0.0, 0.0, 0.0, 0.0, 0.0, 0.0, 0.0, 0.0]",,-3.4161246,8.049489,-1.08962595,"[0.0, 0.0, 0.0, 0.0, 0.0, 0.0, 0.0, 0.0, 0.0]"
1569267658742805617,,17516,,1569267658,685578107,"""knife_link""",,-0.729000454959,-0.177688080155,0.019163430748,-0.660770796693,"[0.0, 0.0, 0.0, 0.0, 0.0, 0.0, 0.0, 0.0, 0.0]",,0.0129654477052,0.0688103164051,-0.343977265041,"[0.0, 0.0, 0.0, 0.0, 0.0, 0.0, 0.0, 0.0, 0.0]",,-4.0443774,10.0520448,0.40247445,"[0.0, 0.0, 0.0, 0.0, 0.0, 0.0, 0.0, 0.0, 0.0]"
1569267658798679029,,17517,,1569267658,741947889,"""knife_link""",,-0.729775904658,-0.181429158327,0.020971362552,-0.658840490136,"[0.0, 0.0, 0.0, 0.0, 0.0, 0.0, 0.0, 0.0, 0.0]",,0.0880146055412,0.0548476823891,-0.113593803777,"[0.0, 0.0, 0.0, 0.0, 0.0, 0.0, 0.0, 0.0, 0.0]",,-3.54373845,8.47159635,-0.63806925,"[0.0, 0.0, 0.0, 0.0, 0.0, 0.0, 0.0, 0.0, 0.0]"
1569267658836803197,,17518,,1569267658,797974109,"""knife_link""",,-0.727137715251,-0.181911579711,0.0202079066685,-0.661642320846,"[0.0, 0.0, 0.0, 0.0, 0.0, 0.0, 0.0, 0.0, 0.0]",,-0.123170233951,0.0112144510891,0.00683391461058,"[0.0, 0.0, 0.0, 0.0, 0.0, 0.0, 0.0, 0.0, 0.0]",,-3.6124536,9.51214005,-0.32394285,"[0.0, 0.0, 0.0, 0.0, 0.0, 0.0, 0.0, 0.0, 0.0]"
1569267658892791674,,17519,,1569267658,835916042,"""knife_link""",,-0.727249416393,-0.183534652271,0.0215296703599,-0.661029342062,"[0.0, 0.0, 0.0, 0.0, 0.0, 0.0, 0.0, 0.0, 0.0]",,0.0670706545172,0.0251770851051,-0.0891591942494,"[0.0, 0.0, 0.0, 0.0, 0.0, 0.0, 0.0, 0.0, 0.0]",,-3.4946562,9.5219565,-0.0785316,"[0.0, 0.0, 0.0, 0.0, 0.0, 0.0, 0.0, 0.0, 0.0]"
1569267658948799097,,17520,,1569267658,891515016,"""knife_link""",,-0.725306512331,-0.184973355484,0.0211998367973,-0.662771369215,"[0.0, 0.0, 0.0, 0.0, 0.0, 0.0, 0.0, 0.0, 0.0]",,-0.0830276611548,0.0339037313651,-0.0123647071614,"[0.0, 0.0, 0.0, 0.0, 0.0, 0.0, 0.0, 0.0, 0.0]",,-3.93639645,8.35379895,-0.46137315,"[0.0, 0.0, 0.0, 0.0, 0.0, 0.0, 0.0, 0.0, 0.0]"
1569267658986029173,,17521,,1569267658,948043107,"""knife_link""",,-0.728991542681,-0.180931270859,0.0174959651585,-0.659946283517,"[0.0, 0.0, 0.0, 0.0, 0.0, 0.0, 0.0, 0.0, 0.0]",,0.157827775621,0.0234317558531,0.228490729615,"[0.0, 0.0, 0.0, 0.0, 0.0, 0.0, 0.0, 0.0, 0.0]",,-3.97566225,10.19929155,0.04908225,"[0.0, 0.0, 0.0, 0.0, 0.0, 0.0, 0.0, 0.0, 0.0]"
1569267659042271435,,17522,,1569267658,985399007,"""knife_link""",,-0.728979705357,-0.181931985088,0.0181783702687,-0.65966574023,"[0.0, 0.0, 0.0, 0.0, 0.0, 0.0, 0.0, 0.0, 0.0]",,0.0443813742412,0.0129597803411,-0.0402899751934,"[0.0, 0.0, 0.0, 0.0, 0.0, 0.0, 0.0, 0.0, 0.0]",,-3.52410555,9.5219565,-0.2748606,"[0.0, 0.0, 0.0, 0.0, 0.0, 0.0, 0.0, 0.0, 0.0]"
1569267659098520269,,17523,,1569267659,41521072,"""knife_link""",,-0.729567531795,-0.183202281952,0.0193693153326,-0.658629615233,"[0.0, 0.0, 0.0, 0.0, 0.0, 0.0, 0.0, 0.0, 0.0]",,0.0705613130212,0.00423313408107,-0.0350539874374,"[0.0, 0.0, 0.0, 0.0, 0.0, 0.0, 0.0, 0.0, 0.0]",,-3.70080165,8.8740708,-0.10798095,"[0.0, 0.0, 0.0, 0.0, 0.0, 0.0, 0.0, 0.0, 0.0]"
1569267659136258826,,17524,,1569267659,97940921,"""knife_link""",,-0.724215624536,-0.186130522459,0.0233742836146,-0.663566726601,"[0.0, 0.0, 0.0, 0.0, 0.0, 0.0, 0.0, 0.0, 0.0]",,-0.198219391787,-0.0708160237549,-0.202605595629,"[0.0, 0.0, 0.0, 0.0, 0.0, 0.0, 0.0, 0.0, 0.0]",,-2.3166822,8.4225141,0.52027185,"[0.0, 0.0, 0.0, 0.0, 0.0, 0.0, 0.0, 0.0, 0.0]"
1569267659192413053,,17525,,1569267659,135575056,"""knife_link""",,-0.726954006801,-0.187017229805,0.0263786432707,-0.660201934965,"[0.0, 0.0, 0.0, 0.0, 0.0, 0.0, 0.0, 0.0, 0.0]",,0.306180762041,-0.0428907557229,-0.0996311697614,"[0.0, 0.0, 0.0, 0.0, 0.0, 0.0, 0.0, 0.0, 0.0]",,-3.46520685,9.45324135,0.6282528,"[0.0, 0.0, 0.0, 0.0, 0.0, 0.0, 0.0, 0.0, 0.0]"
1569267659248613236,,17526,,1569267659,191617012,"""knife_link""",,-0.727014091231,-0.18789997087,0.0270097388143,-0.65985951998,"[0.0, 0.0, 0.0, 0.0, 0.0, 0.0, 0.0, 0.0, 0.0]",,0.0164561062092,-0.00274818292693,-0.0315633289334,"[0.0, 0.0, 0.0, 0.0, 0.0, 0.0, 0.0, 0.0, 0.0]",,-2.75842245,8.03967255,-1.0994424,"[0.0, 0.0, 0.0, 0.0, 0.0, 0.0, 0.0, 0.0, 0.0]"
1569267659286160355,,17527,,1569267659,247842073,"""knife_link""",,-0.728237742359,-0.186435651828,0.0280728668631,-0.658880453859,"[0.0, 0.0, 0.0, 0.0, 0.0, 0.0, 0.0, 0.0, 0.0]",,0.0880146055412,-0.0620893774949,0.0173058901226,"[0.0, 0.0, 0.0, 0.0, 0.0, 0.0, 0.0, 0.0, 0.0]",,-2.7093402,9.92443095,-0.0785316,"[0.0, 0.0, 0.0, 0.0, 0.0, 0.0, 0.0, 0.0, 0.0]"
1569267659342752210,,17528,,1569267659,285542011,"""knife_link""",,-0.723724715877,-0.186791141935,0.0262742025414,-0.663808158435,"[0.0, 0.0, 0.0, 0.0, 0.0, 0.0, 0.0, 0.0, 0.0]",,-0.337845731947,0.0129597803411,0.0399951703986,"[0.0, 0.0, 0.0, 0.0, 0.0, 0.0, 0.0, 0.0, 0.0]",,-3.4946562,8.5795773,-0.2748606,"[0.0, 0.0, 0.0, 0.0, 0.0, 0.0, 0.0, 0.0, 0.0]"
1569267659398928058,,17529,,1569267659,341820955,"""knife_link""",,-0.721570710201,-0.18754761609,0.0276222128321,-0.665881832788,"[0.0, 0.0, 0.0, 0.0, 0.0, 0.0, 0.0, 0.0, 0.0]",,-0.0690650271388,-0.0376547679669,-0.0420353044454,"[0.0, 0.0, 0.0, 0.0, 0.0, 0.0, 0.0, 0.0, 0.0]",,-3.7695168,8.74645695,0.22577835,"[0.0, 0.0, 0.0, 0.0, 0.0, 0.0, 0.0, 0.0, 0.0]"
1569267659436653671,,17530,,1569267659,398348093,"""knife_link""",,-0.714387995439,-0.189762146564,0.0282456233345,-0.67293558716,"[0.0, 0.0, 0.0, 0.0, 0.0, 0.0, 0.0, 0.0, 0.0]",,-0.344827048955,-0.0236921339509,-0.0961405112574,"[0.0, 0.0, 0.0, 0.0, 0.0, 0.0, 0.0, 0.0, 0.0]",,-3.34740945,8.2261851,-0.79513245,"[0.0, 0.0, 0.0, 0.0, 0.0, 0.0, 0.0, 0.0, 0.0]"
1569267659492266215,,17531,,1569267659,435781955,"""knife_link""",,-0.706568971588,-0.190713394136,0.0258890401567,-0.680968756468,"[0.0, 0.0, 0.0, 0.0, 0.0, 0.0, 0.0, 0.0, 0.0]",,-0.599645119747,0.0286677436091,0.0242872071306,"[0.0, 0.0, 0.0, 0.0, 0.0, 0.0, 0.0, 0.0, 0.0]",,-4.1818077,8.4617799,-0.24541125,"[0.0, 0.0, 0.0, 0.0, 0.0, 0.0, 0.0, 0.0, 0.0]"
1569267659548677002,,17532,,1569267659,491708040,"""knife_link""",,-0.698446987454,-0.186822529176,0.0217937304153,-0.690502846934,"[0.0, 0.0, 0.0, 0.0, 0.0, 0.0, 0.0, 0.0, 0.0]",,-0.435584170059,-0.0568533897389,0.190093486071,"[0.0, 0.0, 0.0, 0.0, 0.0, 0.0, 0.0, 0.0, 0.0]",,-4.99657305,8.9918682,1.14852465,"[0.0, 0.0, 0.0, 0.0, 0.0, 0.0, 0.0, 0.0, 0.0]"
1569267659586558155,,17533,,1569267659,548038005,"""knife_link""",,-0.698653836077,-0.181504657766,0.0163613654345,-0.6918606668,"[0.0, 0.0, 0.0, 0.0, 0.0, 0.0, 0.0, 0.0, 0.0]",,-0.0585930516268,-0.00623884143093,0.272123960915,"[0.0, 0.0, 0.0, 0.0, 0.0, 0.0, 0.0, 0.0, 0.0]",,-3.30814365,7.3034388,0.0196329,"[0.0, 0.0, 0.0, 0.0, 0.0, 0.0, 0.0, 0.0, 0.0]"
1569267659642423011,,17534,,1569267659,585797071,"""knife_link""",,-0.697017842957,-0.177488788992,0.0118097219377,-0.694639753289,"[0.0, 0.0, 0.0, 0.0, 0.0, 0.0, 0.0, 0.0, 0.0]",,-0.205200708795,0.000742475577068,0.301794558199,"[0.0, 0.0, 0.0, 0.0, 0.0, 0.0, 0.0, 0.0, 0.0]",,-2.5326441,6.9893124,-0.14724675,"[0.0, 0.0, 0.0, 0.0, 0.0, 0.0, 0.0, 0.0, 0.0]"
1569267659698668619,,17535,,1569267659,641801118,"""knife_link""",,-0.704573774078,-0.15099787178,-0.0121992716477,-0.693272397669,"[0.0, 0.0, 0.0, 0.0, 0.0, 0.0, 0.0, 0.0, 0.0]",,0.0932505932972,-0.0394000972189,1.31583085361,"[0.0, 0.0, 0.0, 0.0, 0.0, 0.0, 0.0, 0.0, 0.0]",,-2.944935,10.4839686,0.55953765,"[0.0, 0.0, 0.0, 0.0, 0.0, 0.0, 0.0, 0.0, 0.0]"
1569267659736581091,,17536,,1569267659,698020935,"""knife_link""",,-0.714180771239,-0.11930932277,-0.0455217346445,-0.688214271261,"[0.0, 0.0, 0.0, 0.0, 0.0, 0.0, 0.0, 0.0, 0.0]",,0.199715677669,0.0914995966811,1.68234999653,"[0.0, 0.0, 0.0, 0.0, 0.0, 0.0, 0.0, 0.0, 0.0]",,-1.71787875,10.5625002,1.2957714,"[0.0, 0.0, 0.0, 0.0, 0.0, 0.0, 0.0, 0.0, 0.0]"
1569267659792217279,,17537,,1569267659,735786914,"""knife_link""",,-0.713523528342,-0.116747327082,-0.0484623447734,-0.689133976278,"[0.0, 0.0, 0.0, 0.0, 0.0, 0.0, 0.0, 0.0, 0.0]",,-0.0847729904068,0.0269224143571,0.197074803079,"[0.0, 0.0, 0.0, 0.0, 0.0, 0.0, 0.0, 0.0, 0.0]",,-1.1190753,16.491636,0.16687965,"[0.0, 0.0, 0.0, 0.0, 0.0, 0.0, 0.0, 0.0, 0.0]"
1569267659848805278,,17538,,1569267659,791584968,"""knife_link""",,-0.690280879701,-0.123142230713,-0.0470968445715,-0.711428271413,"[0.0, 0.0, 0.0, 0.0, 0.0, 0.0, 0.0, 0.0, 0.0]",,-1.1284798831,0.0740463041611,-0.333505289529,"[0.0, 0.0, 0.0, 0.0, 0.0, 0.0, 0.0, 0.0, 0.0]",,-1.7276952,12.5257902,-1.40375235,"[0.0, 0.0, 0.0, 0.0, 0.0, 0.0, 0.0, 0.0, 0.0]"
1569267659886238774,,17539,,1569267659,848160028,"""knife_link""",,-0.678265188638,-0.148662612918,-0.0372751059088,-0.718655917587,"[0.0, 0.0, 0.0, 0.0, 0.0, 0.0, 0.0, 0.0, 0.0]",,-0.334355073443,0.417876166805,-0.897246637925,"[0.0, 0.0, 0.0, 0.0, 0.0, 0.0, 0.0, 0.0, 0.0]",,-4.05419385,9.0703998,4.48611765,"[0.0, 0.0, 0.0, 0.0, 0.0, 0.0, 0.0, 0.0, 0.0]"
1569267659942410875,,17540,,1569267659,885755062,"""knife_link""",,-0.689989564752,-0.14824397495,-0.0458827446414,-0.706988612474,"[0.0, 0.0, 0.0, 0.0, 0.0, 0.0, 0.0, 0.0, 0.0]",,0.796618281853,0.388205569521,0.460619520131,"[0.0, 0.0, 0.0, 0.0, 0.0, 0.0, 0.0, 0.0, 0.0]",,-3.8284155,12.28037895,1.60008135,"[0.0, 0.0, 0.0, 0.0, 0.0, 0.0, 0.0, 0.0, 0.0]"
1569267659998747653,,17541,,1569267659,941752910,"""knife_link""",,-0.693550935215,-0.162403904164,-0.031893330217,-0.701138279987,"[0.0, 0.0, 0.0, 0.0, 0.0, 0.0, 0.0, 0.0, 0.0]",,0.349813993341,0.0426303776251,-0.638937908629,"[0.0, 0.0, 0.0, 0.0, 0.0, 0.0, 0.0, 0.0, 0.0]",,-3.38667525,8.5010457,0.8245818,"[0.0, 0.0, 0.0, 0.0, 0.0, 0.0, 0.0, 0.0, 0.0]"
1569267660036466553,,17542,,1569267659,998147964,"""knife_link""",,-0.700545569471,-0.168696930046,-0.00505333179116,-0.693362614168,"[0.0, 0.0, 0.0, 0.0, 0.0, 0.0, 0.0, 0.0, 0.0]",,0.527837577045,-0.470496422463,-0.773328261033,"[0.0, 0.0, 0.0, 0.0, 0.0, 0.0, 0.0, 0.0, 0.0]",,-2.0221887,6.1647306,0.2355948,"[0.0, 0.0, 0.0, 0.0, 0.0, 0.0, 0.0, 0.0, 0.0]"
1569267660092770039,,17543,,1569267660,35857915,"""knife_link""",,-0.703704877428,-0.177022770812,0.00907073380386,-0.688026239243,"[0.0, 0.0, 0.0, 0.0, 0.0, 0.0, 0.0, 0.0, 0.0]",,0.452788419209,-0.184262425135,-0.797762870561,"[0.0, 0.0, 0.0, 0.0, 0.0, 0.0, 0.0, 0.0, 0.0]",,-2.2185177,8.2261851,-0.1570632,"[0.0, 0.0, 0.0, 0.0, 0.0, 0.0, 0.0, 0.0, 0.0]"
1569267660148816916,,17544,,1569267660,92041015,"""knife_link""",,-0.694691845675,-0.188483748458,0.0252035071621,-0.693716007705,"[0.0, 0.0, 0.0, 0.0, 0.0, 0.0, 0.0, 0.0, 0.0]",,-0.261051244859,-0.177281108127,-0.736676346741,"[0.0, 0.0, 0.0, 0.0, 0.0, 0.0, 0.0, 0.0, 0.0]",,-1.7473281,6.1254648,0.89329695,"[0.0, 0.0, 0.0, 0.0, 0.0, 0.0, 0.0, 0.0, 0.0]"
1569267660186444345,,17545,,1569267660,148225069,"""knife_link""",,-0.698470868572,-0.191152068373,0.0261398070063,-0.689141526105,"[0.0, 0.0, 0.0, 0.0, 0.0, 0.0, 0.0, 0.0, 0.0]",,0.206696994677,0.0653196579011,-0.0577432677134,"[0.0, 0.0, 0.0, 0.0, 0.0, 0.0, 0.0, 0.0, 0.0]",,-3.5928207,9.57103875,-0.89329695,"[0.0, 0.0, 0.0, 0.0, 0.0, 0.0, 0.0, 0.0, 0.0]"
1569267660242734536,,17546,,1569267660,185786962,"""knife_link""",,-0.700544366021,-0.193502797058,0.0281033513022,-0.686297647099,"[0.0, 0.0, 0.0, 0.0, 0.0, 0.0, 0.0, 0.0, 0.0]",,0.239858250465,0.0321584021131,-0.113593803777,"[0.0, 0.0, 0.0, 0.0, 0.0, 0.0, 0.0, 0.0, 0.0]",,-3.6320865,8.3047167,0.6871515,"[0.0, 0.0, 0.0, 0.0, 0.0, 0.0, 0.0, 0.0, 0.0]"
1569267660299462747,,17547,,1569267660,242043018,"""knife_link""",,-0.706207386992,-0.193950420666,0.0298503512174,-0.680267092703,"[0.0, 0.0, 0.0, 0.0, 0.0, 0.0, 0.0, 0.0, 0.0]",,0.316652737553,0.0112144510891,-0.00363806090142,"[0.0, 0.0, 0.0, 0.0, 0.0, 0.0, 0.0, 0.0, 0.0]",,-4.01492805,9.3845262,0.10798095,"[0.0, 0.0, 0.0, 0.0, 0.0, 0.0, 0.0, 0.0, 0.0]"
1569267660336823798,,17548,,1569267660,298351049,"""knife_link""",,-0.704996087959,-0.197095609348,0.0297095603497,-0.680625578981,"[0.0, 0.0, 0.0, 0.0, 0.0, 0.0, 0.0, 0.0, 0.0]",,-0.0271771250908,0.0670649871531,-0.0734512309814,"[0.0, 0.0, 0.0, 0.0, 0.0, 0.0, 0.0, 0.0, 0.0]",,-3.36704235,8.76608985,-0.04908225,"[0.0, 0.0, 0.0, 0.0, 0.0, 0.0, 0.0, 0.0, 0.0]"
1569267660392919396,,17549,,1569267660,335962057,"""knife_link""",,-0.70588124648,-0.198682553641,0.0310760676826,-0.679184206799,"[0.0, 0.0, 0.0, 0.0, 0.0, 0.0, 0.0, 0.0, 0.0]",,0.117685202825,0.00423313408107,-0.0734512309814,"[0.0, 0.0, 0.0, 0.0, 0.0, 0.0, 0.0, 0.0, 0.0]",,-4.0443774,9.0703998,-0.26504415,"[0.0, 0.0, 0.0, 0.0, 0.0, 0.0, 0.0, 0.0, 0.0]"
1569267660448843763,,17550,,1569267660,392199039,"""knife_link""",,-0.706133829806,-0.200416513017,0.0306325408243,-0.678431929641,"[0.0, 0.0, 0.0, 0.0, 0.0, 0.0, 0.0, 0.0, 0.0]",,0.0374000572332,0.0513570238851,-0.0158553656654,"[0.0, 0.0, 0.0, 0.0, 0.0, 0.0, 0.0, 0.0, 0.0]",,-3.85786485,8.9918682,0.0196329,"[0.0, 0.0, 0.0, 0.0, 0.0, 0.0, 0.0, 0.0, 0.0]"
1569267660486069020,,17551,,1569267660,448211908,"""knife_link""",,-0.704573638908,-0.201433952407,0.0284056224033,-0.679848123326,"[0.0, 0.0, 0.0, 0.0, 0.0, 0.0, 0.0, 0.0, 0.0]",,-0.0847729904068,0.0531023531371,0.0312685241386,"[0.0, 0.0, 0.0, 0.0, 0.0, 0.0, 0.0, 0.0, 0.0]",,-3.64190295,9.04095045,-0.69696795,"[0.0, 0.0, 0.0, 0.0, 0.0, 0.0, 0.0, 0.0, 0.0]"
1569267660542626521,,17552,,1569267660,485402107,"""knife_link""",,-0.704359423138,-0.20221412819,0.0289630167771,-0.679814969721,"[0.0, 0.0, 0.0, 0.0, 0.0, 0.0, 0.0, 0.0, 0.0]",,0.0269280817212,-0.0184561461949,-0.0594885969654,"[0.0, 0.0, 0.0, 0.0, 0.0, 0.0, 0.0, 0.0, 0.0]",,-2.748606,9.3256275,-0.0392658,"[0.0, 0.0, 0.0, 0.0, 0.0, 0.0, 0.0, 0.0, 0.0]"
1569267660598946007,,17553,,1569267660,542046070,"""knife_link""",,-0.704063874572,-0.200528466715,0.0277837378136,-0.680669125547,"[0.0, 0.0, 0.0, 0.0, 0.0, 0.0, 0.0, 0.0, 0.0]",,-0.0167051495788,-0.0289281217069,0.0749017554386,"[0.0, 0.0, 0.0, 0.0, 0.0, 0.0, 0.0, 0.0, 0.0]",,-3.5535549,9.90479805,0.0588987,"[0.0, 0.0, 0.0, 0.0, 0.0, 0.0, 0.0, 0.0, 0.0]"
1569267660636054195,,17554,,1569267660,598248958,"""knife_link""",,-0.698806788239,-0.200404467108,0.0264677464606,-0.686153467288,"[0.0, 0.0, 0.0, 0.0, 0.0, 0.0, 0.0, 0.0, 0.0]",,-0.268032561867,-0.0254374632029,0.0330138533906,"[0.0, 0.0, 0.0, 0.0, 0.0, 0.0, 0.0, 0.0, 0.0]",,-4.21125705,8.0691219,-0.40247445,"[0.0, 0.0, 0.0, 0.0, 0.0, 0.0, 0.0, 0.0, 0.0]"
1569267660692684423,,17555,,1569267660,635473012,"""knife_link""",,-0.701068430448,-0.199309813124,0.0276061923535,-0.684117352773,"[0.0, 0.0, 0.0, 0.0, 0.0, 0.0, 0.0, 0.0, 0.0]",,0.185753043653,-0.0743066822589,0.0207965486266,"[0.0, 0.0, 0.0, 0.0, 0.0, 0.0, 0.0, 0.0, 0.0]",,-3.3964917,10.51341795,-0.3337593,"[0.0, 0.0, 0.0, 0.0, 0.0, 0.0, 0.0, 0.0, 0.0]"
