rosbagTimestamp,header,seq,stamp,secs,nsecs,frame_id,lwrist.x,lwrist.y,lwrist.z,rwrist.x,rwrist.y,rwrist.z,neck.x,neck.y,neck.z,nose.x,nose.y,nose.z,lelbow.x,lelbow.y,lelbow.z,relbow.x,-.3,name.3,x.3,y.3,z.3,-.4,name.4,x.4,y.4,z.4,-.5,name.5,x.5,y.5,z.5,-.6,name.6,x.6,y.6,z.6,-.7,name.7,x.7,y.7,z.7,-.8
1.57e+18,,46906.0,,1569268972.0,30349837.0,"""camera_color_frame""",1.205000043,0.013300316999999999,-0.176037923,1.284999967,0.24127420800000002,-0.118977584,1.120000005,0.095892787,0.101480313,,,,1.261000037,-0.170085758,-0.100400642,1.39199996,0.322300643,-0.031845387,1.212000012,-0.039678659,0.094096921,1.292999983,0.278414667,0.12134785199999999,1.1339999440000001,-0.038963664,-0.285165131,1.093999982,0.118498914,-0.282200813,,,,,,,1.136000037,0.082528077,0.12503039800000001,,,
1.57e+18,,46907.0,,1569268972.0,193495665.0,"""camera_color_frame""",1.192999959,0.017036347,-0.17428484600000002,1.284999967,0.24127420800000002,-0.12314409800000001,1.123999953,0.09805762800000001,0.101842746,1.167999983,0.14166404300000002,0.05280934599999999,1.264000058,-0.170490399,-0.10473793,1.407999992,0.323722422,-0.029928759,1.217000008,-0.039842352000000004,0.094485112,1.289999962,0.27358567699999997,0.123157665,1.120000005,-0.038482632,-0.281644553,1.103999972,0.124951914,-0.282990515,,,,,,,1.118000031,0.093908906,0.11217419099999999,,,
1.57e+18,,46908.0,,1569268972.0,353875942.0,"""camera_color_frame""",1.200000048,0.017136309,-0.175307482,1.2799999709999998,0.23618480600000002,-0.12474009400000001,1.136000037,0.09910450900000001,0.10293003199999999,1.149000049,0.144948289,0.057538606,1.26699996,-0.17089504,-0.104986519,1.4110000130000002,0.326699853,-0.029992527999999997,1.222000003,-0.040006042,0.09487330199999999,1.289999962,0.27358567699999997,0.12106630199999999,1.1219999790000001,-0.031274843999999996,-0.28214749699999997,1.10800004,0.132590353,-0.280423254,,,,,,,1.1219999790000001,0.094244897,0.11803253,,,
1.57e+18,,46909.0,,1569268972.0,505679261.0,"""camera_color_frame""",1.233999968,0.543809891,-0.136261851,,,,,,,,,,1.368000031,0.5984262229999999,-0.080088332,,,,1.4539999959999999,0.7114835979999999,0.051596947000000004,,,,,,,,,,,,,,,,,,,,,
1.57e+18,,46910.0,,1569268972.0,653115965.0,"""camera_color_frame""",0.986000001,0.437716335,-0.21118195399999998,,,,,,,,,,1.179999948,0.500881076,-0.114994772,,,,1.307000041,0.616242528,0.03578585,,,,,,,,,,,,,,,,,,,,,
1.57e+18,,46911.0,,1569268972.0,815300747.0,"""camera_color_frame""",0.917999983,0.38520336200000005,-0.257636875,,,,,,,,,,1.085999966,0.459219605,-0.149850085,,,,1.2589999440000001,0.5793221,0.022224966000000002,,,,,,,,,,,,,,,,,,,,,
1.57e+18,,46912.0,,1569268972.0,969935090.0,"""camera_color_frame""",0.885999978,0.345918894,-0.277383924,,,,,,,,,,1.04400003,0.429611087,-0.167750418,,,,1.1979999540000001,0.549310923,0.005610444,,,,,,,,,,,,,,,,,,,,,
1.57e+18,,46913.0,,1569268973.0,135434359.0,"""camera_color_frame""",0.896000028,0.375971913,-0.268893838,,,,,,,,,,1.0789999959999999,0.438765556,-0.155881345,,,,1.19599998,0.548393905,0.009479017,,,,,,,,,,,,,,,,,,,,,
1.57e+18,,46914.0,,1569268973.0,292194927.0,"""camera_color_frame""",0.9309999940000001,0.42386630200000003,-0.259775966,,,,,,,,,,1.09800005,0.446491718,-0.16040633599999998,,,,1.18900001,0.545184195,0.009423538,,,,,,,,,,,,,,,,,,,,,
1.57e+18,,46915.0,,1569268973.0,465263140.0,"""camera_color_frame""",1.024999976,0.473310113,-0.22950545,,,,,,,,,,1.18900001,0.502773583,-0.15442428,,,,1.207000017,0.55343765,0.021307017999999997,,,,,,,,,,,,,,,,,,,,,
1.57e+18,,46916.0,,1569268973.0,622464242.0,"""camera_color_frame""",1.0729999540000001,0.491995513,-0.22459696199999998,,,,,,,,,,1.246000052,0.5046544079999999,-0.163847327,,,,1.213999987,0.5723935960000001,0.031271346,,,,,,,,,,,,,,,,,,,,,
1.57e+18,,46917.0,,1569268973.0,784382375.0,"""camera_color_frame""",1.075000048,0.47025454,-0.20758757,,,,,,,,,,1.26699996,0.5069971679999999,-0.148122117,,,,1.228999972,0.5814586279999999,0.031657729,,,,,,,,,,,,,,,,,,,,,
1.57e+18,,46918.0,,1569268973.0,940595761.0,"""camera_color_frame""",1.082999945,0.475510001,-0.209132403,,,,,,,,,,1.300999999,0.518493116,-0.139441788,,,,1.2410000559999999,0.58713603,0.03397876,,,,,,,,,,,,,,,,,,,,,
1.57e+18,,46919.0,,1569268974.0,103998299.0,"""camera_color_frame""",1.120000005,0.49357137100000004,-0.21990880399999999,,,,,,,,,,1.32099998,0.530747354,-0.139443785,,,,1.2589999440000001,0.593610823,0.03651271,,,,,,,,,,3.000999928,1.5317275519999998,0.335161239,,,,3.000999928,1.5317275519999998,0.335161239,,,
1.57e+18,,46920.0,,1569268974.0,258617343.0,"""camera_color_frame""",1.166000009,0.511952579,-0.227050439,,,,,,,,,,1.3609999419999999,0.540198565,-0.14366614800000002,,,,1.269000053,0.5942108629999999,0.036802724,,,,,,,,,,,,,,,,2.8880000110000004,1.474051714,0.303812772,,,
1.57e+18,,46921.0,,1569268974.0,433469902.0,"""camera_color_frame""",1.18900001,0.523978889,-0.22574625899999998,,,,,,,,,,1.3710000519999999,0.555281878,-0.133608326,,,,1.284999967,0.607953072,0.045599777,,,,,,,,,,,,,,,,,,,,,
1.57e+18,,46922.0,,1569268974.0,597919629.0,"""camera_color_frame""",1.19599998,0.527063727,-0.223197356,,,,,,,,,,1.39199996,0.566044152,-0.128884673,,,,1.30400002,0.616942286,0.050502135999999996,,,,,,,,,,,,,,,,,,,,,
1.57e+18,,46923.0,,1569268974.0,772889388.0,"""camera_color_frame""",1.210000038,0.52930975,-0.212078378,,,,,,,,,,1.414000034,0.5749902729999999,-0.121752061,,,,1.32099998,0.624985218,0.053302142999999996,,,,,,,,,,,,,,,,,,,,,
1.57e+18,,46924.0,,1569268974.0,933859568.0,"""camera_color_frame""",1.217000008,0.536318183,-0.193575114,,,,,,,,,,1.4479999540000001,0.586468339,-0.138764709,,,,1.35800004,0.6226746439999999,0.052593481,,,,,,,,,,,,,,,,2.84800005,1.453635454,0.355011404,,,
1.57e+18,,46925.0,,1569268975.0,105456399.0,"""camera_color_frame""",1.225999951,0.599916697,-0.185068622,,,,,,,,,,1.481999993,0.5954334139999999,-0.16364672800000002,,,,1.434000015,0.641247571,0.05088722,,,,1.4049999709999998,0.64422524,-0.348757446,,,,,,,,,,1.309999943,0.668631494,0.163295269,,,
1.57e+18,,46926.0,,1569268975.0,259232207.0,"""camera_color_frame""",1.379999995,0.632762194,-0.154620871,,,,1.430999994,0.7303905490000001,0.029901171,,,,1.544999957,0.603210747,-0.193146333,,,,1.5,0.639145195,0.036206581,,,,1.4650000330000001,0.666986167,-0.358900845,,,,,,,,,,1.3860000369999999,0.7074223159999999,0.190744892,,,
1.57e+18,,46927.0,,1569268975.0,412000961.0,"""camera_color_frame""",1.434000015,0.68774718,-0.162996069,,,,1.4789999719999998,0.754890025,0.026108597999999997,,,,1.569000006,0.610037148,-0.196146652,,,,1.557000041,0.648286343,0.03000975,,,,1.519000053,0.6964969040000001,-0.379517823,,,,,,,,,,,,,,,
1.57e+18,,46928.0,,1569268975.0,562735822.0,"""camera_color_frame""",1.450999975,0.7405986790000001,-0.169633135,,,,1.5149999859999999,0.7732646470000001,0.039024785,,,,1.6139999630000001,0.627533436,-0.199155644,,,,1.5889999869999998,0.6564575429999999,0.035778735,,,,1.557000041,0.716445208,-0.41173005100000004,,,,,,,,,,1.4859999419999999,0.758462906,0.221370995,,,
1.57e+18,,46929.0,,1569268975.0,733023064.0,"""camera_color_frame""",,,,,,,1.5260000230000001,0.778879106,0.051677983,,,,1.626999974,0.63258791,-0.182295755,,,,1.593000054,0.665858388,0.041033982999999996,,,,1.569000006,0.7423177959999999,-0.374204397,,,,,,,,,,1.503999949,0.767650187,0.236243993,,,
1.57e+18,,46930.0,,1569268975.0,899871566.0,"""camera_color_frame""",1.4859999419999999,0.7343699929999999,-0.188179627,,,,1.549000025,0.79061842,0.054968134,,,,1.656999946,0.6442521210000001,-0.182970732,,,,1.5970000030000002,0.675298095,0.041137017000000005,,,,1.569000006,0.757580936,-0.381835431,,,,,,,,,,1.5149999859999999,0.7732646470000001,0.24288411399999998,,,
1.57e+18,,46931.0,,1569268976.0,64881731.0,"""camera_color_frame""",1.205000043,-0.00037556,-0.176037923,1.281999946,0.217847005,-0.118699811,1.136000037,0.075160779,0.106613427,,,,1.26699996,-0.179111913,-0.121419124,1.4049999709999998,0.307086915,-0.011642565,1.238999963,-0.064668447,0.096193142,0.0,0.0,0.0,1.1160000559999999,-0.04377339,-0.278829426,1.105999947,0.11441916199999999,-0.283503175,,,,,,,,,,,,
1.57e+18,,46932.0,,1569268976.0,227914739.0,"""camera_color_frame""",1.5260000230000001,0.778879106,-0.20066694899999998,,,,,,,,,,1.6219999790000001,0.72268647,-0.189624354,,,,1.58099997,0.7556851509999999,0.035598602,,,,,,,,,,,,,,,,,,,,,
1.57e+18,,46933.0,,1569268976.0,396683321.0,"""camera_color_frame""",1.192999959,-0.03131967,-0.172350749,1.292999983,0.217619836,-0.123910755,1.217000008,0.080519952,0.114215262,,,,1.26699996,-0.19349144399999998,-0.098824285,1.434000015,0.290175587,-0.021182147999999998,1.26699996,-0.066129886,0.114799604,1.343999982,0.24581499399999998,0.130492017,1.085999966,-0.056682758,-0.28541910600000003,1.1339999440000001,0.109961525,-0.27781128899999996,,,,,,,,,,,,
1.57e+18,,46934.0,,1569268976.0,561585945.0,"""camera_color_frame""",1.174999952,-0.021321835,-0.177370012,1.299000025,0.216523573,-0.124485746,1.2410000559999999,0.082107857,0.11244381199999999,1.1979999540000001,0.16084145,0.091067784,1.261000037,-0.200753123,-0.09835629900000001,1.444000006,0.289857924,-0.030693984,1.2589999440000001,-0.06162983599999999,0.114074744,1.238999963,0.22460188,0.112262599,1.111999989,-0.050828150999999995,-0.28504118300000003,1.123999953,0.112636581,-0.275361478,1.159999967,0.136932269,0.12014946300000001,1.157999992,0.168613583,0.108678125,1.19599998,0.084947854,0.216948792,,,
1.57e+18,,46935.0,,1569268976.0,735761398.0,"""camera_color_frame""",1.1770000459999999,-0.019449828,-0.17194742,1.299000025,0.218629673,-0.120273836,1.253999949,0.087034255,0.105489708,1.182000041,0.16827535600000001,0.091767788,1.256000042,-0.191811576,-0.095930062,1.434000015,0.283200651,-0.035131056,1.253999949,-0.059351935999999994,0.11362171199999999,1.205000043,0.21843846100000003,0.09159989699999999,1.157999992,-0.043543282999999995,-0.274304092,1.1280000209999999,0.11852399300000001,-0.274512678,1.143000007,0.15345725400000002,0.125800833,1.159999967,0.18018922199999998,0.097582184,1.202999949,0.10104867099999999,0.192864418,,,
1.57e+18,,46936.0,,1569268976.0,904462635.0,"""camera_color_frame""",1.172999978,-0.019383729,-0.171363056,1.2960000040000001,0.21812474699999998,-0.12419825,1.2589999440000001,0.091463782,0.103869215,1.202999949,0.18101728,0.075845316,1.253999949,-0.191506132,-0.09577730300000001,1.424000025,0.285843283,-0.039503284,1.2410000559999999,-0.048676323,0.11244381199999999,1.159999967,0.214042485,0.088179156,1.1549999709999998,-0.056538887,-0.279210955,1.131999969,0.113438264,-0.26998049,1.164000034,0.15816389,0.103579953,1.161999941,0.195571721,0.090215035,1.192999959,0.11761687,0.18739301,,,
1.57e+18,,46937.0,,1569268977.0,68865774.0,"""camera_color_frame""",1.166000009,-0.019268055,-0.17034043399999999,1.292999983,0.217619836,-0.123910755,1.261000037,0.095698059,0.104034215,1.200000048,0.18251146399999998,0.07565617599999999,1.248999953,-0.188717529,-0.095395416,1.434000015,0.290175587,-0.039780695,1.253999949,-0.043086804000000006,0.11362171199999999,1.184000015,0.222310245,0.088084035,1.1710000040000001,-0.047829252,-0.277383476,1.144999981,0.114741005,-0.263799518,1.164000034,0.15816389,0.109241225,1.166000009,0.198135421,0.09052559,1.200000048,0.120252579,0.188492551,,,
1.57e+18,,46938.0,,1569268977.0,230412733.0,"""camera_color_frame""",1.146999955,-0.018954081,-0.16942426600000002,1.292999983,0.21971620600000002,-0.123910755,1.253999949,0.099233106,0.103456706,1.192999959,0.17757833,0.084885381,1.2410000559999999,-0.193544954,-0.098808251,1.434000015,0.292500556,-0.039780695,1.253999949,-0.047153089,0.11158870900000001,1.200000048,0.225314438,0.09121981300000001,1.111999989,-0.038207754,-0.28504118300000003,1.1219999790000001,0.116074413,-0.278509498,1.161999941,0.15789213800000002,0.112821221,1.159999967,0.195235118,0.095701583,1.190999985,0.115488693,0.190940589,,,
1.57e+18,,46939.0,,1569268977.0,403229195.0,"""camera_color_frame""",1.182000041,-0.027198077999999997,-0.178426683,1.292999983,0.21971620600000002,-0.123910755,1.256000042,0.08717306699999999,0.11176668099999999,1.18900001,0.169271901,0.092311256,1.264000058,-0.19303330800000001,-0.09654107699999999,1.430999994,0.291888624,-0.037377518,1.253999949,-0.04918623,0.11158870900000001,1.152999997,0.212750852,0.10447035699999999,1.077000022,-0.043989840999999995,-0.283053726,1.120000005,0.11223574,-0.281644553,1.161999941,0.150356218,0.11658892,1.149000049,0.17848053600000002,0.107833475,1.182000041,0.11078316699999999,0.20866043899999998,,,
1.57e+18,,46940.0,,1569268977.0,559119175.0,"""camera_color_frame""",1.205000043,-0.016005132,-0.195573524,1.284999967,0.218356788,-0.12314409800000001,1.256000042,0.08717306699999999,0.10565795,1.19599998,0.162512049,0.088976778,1.2799999709999998,-0.17472380399999998,-0.11021403199999999,1.430999994,0.294208735,-0.03505756,1.269000053,-0.055946965,0.106751546,1.18900001,0.21939355100000002,0.107732229,1.0460000040000001,-0.046115465,-0.285081148,1.123999953,0.11810369,-0.279005945,1.166000009,0.139531001,0.11320959,1.152999997,0.177232489,0.108208872,1.18900001,0.099872708,0.190619946,,,
1.57e+18,,46941.0,,1569268977.0,718924528.0,"""camera_color_frame""",1.200000048,-0.019829901,-0.19087111899999998,1.289999962,0.219206423,-0.123623259,1.253999949,0.087034255,0.105489708,1.207000017,0.162049785,0.089795128,1.274000049,-0.182167053,-0.107631974,1.440999985,0.293928385,-0.037638716,1.269000053,-0.060061887,0.110866182,0.0,0.0,0.0,1.024999976,-0.04518963,-0.282681197,1.118000031,0.1156606,-0.281141639,1.164000034,0.137404442,0.118676677,1.161999941,0.17861591300000002,0.10905352199999999,1.200000048,0.094959907,0.19821982100000002,,,
1.57e+18,,46942.0,,1569268977.0,875272846.0,"""camera_color_frame""",1.192999959,-0.03131967,-0.154943779,1.2960000040000001,0.22022599,-0.12419825,1.251000047,0.08682604099999999,0.111321747,1.19599998,0.160572931,0.096732661,1.2799999709999998,-0.19132617100000002,-0.10191342199999999,1.434000015,0.290175587,-0.037455875,1.274000049,-0.06029854,0.113368429,1.325999975,0.24467270100000002,0.11799571699999999,1.07099998,-0.042008332999999995,-0.281476825,1.1339999440000001,0.11547727099999999,-0.275972843,1.164000034,0.137404442,0.126225039,1.182000041,0.17977379300000002,0.11284679199999999,1.18599999,0.099620715,0.20552104699999998,,,
1.57e+18,,46943.0,,1569268978.0,39294321.0,"""camera_color_frame""",1.172999978,-0.046009127000000004,-0.152346238,1.299000025,0.220735773,-0.124485746,1.248999953,0.08668723,0.111143775,1.1979999540000001,0.158899114,0.106605478,1.281999946,-0.193703651,-0.108307846,1.440999985,0.291592062,-0.037638716,1.2799999709999998,-0.062657818,0.11390235300000001,1.35800004,0.248375565,0.120843276,1.157999992,-0.052930754,-0.281813532,1.1710000040000001,0.117346473,-0.267891288,1.172999978,0.134663224,0.136709422,1.164000034,0.17703612100000002,0.12245085800000001,1.210000038,0.085942224,0.21360331800000001,,,
1.57e+18,,46944.0,,1569268978.0,193479404.0,"""camera_color_frame""",1.172999978,-0.040303685,-0.15044455199999998,1.299000025,0.220735773,-0.124485746,1.256000042,0.083100297,0.113802925,1.205000043,0.15982756,0.109181948,1.281999946,-0.193703651,-0.10207266400000001,1.440999985,0.291592062,-0.03530255,1.284999967,-0.06290257,0.11434727900000001,1.3739999530000002,0.249074236,0.124494597,1.1710000040000001,-0.044032108,-0.275485039,1.174999952,0.117747314,-0.266901463,1.172999978,0.134663224,0.13861109300000002,1.1710000040000001,0.176202193,0.126984134,1.222000003,0.084813289,0.219683945,,,
1.57e+18,,46945.0,,1569268978.0,346057021.0,"""camera_color_frame""",1.179999948,-0.02332573,-0.15708144,1.289999962,0.21711491,-0.123623259,1.261000037,0.08343111,0.112211615,1.210000038,0.156567141,0.10963498099999999,1.284999967,-0.192073539,-0.10856129199999999,1.4479999540000001,0.29300853600000004,-0.03547404,1.27699995,-0.06251096,0.113635391,1.3710000519999999,0.24408473100000003,0.124222778,1.083999991,-0.037245691000000004,-0.284893453,1.131999969,0.120779626,-0.27365091399999997,1.167999983,0.13408921699999998,0.136126682,1.1770000459999999,0.175196722,0.127634779,1.218999982,0.084605068,0.217168361,,,
1.57e+18,,46946.0,,1569268978.0,496191079.0,"""camera_color_frame""",1.159999967,-0.019168904,-0.167583287,1.2960000040000001,0.22022599,-0.12419825,1.2589999440000001,0.083298787,0.114074744,1.217000008,0.161419213,0.11026923400000001,1.2799999709999998,-0.185100287,-0.11643948400000001,1.450999975,0.293615609,-0.035547536,1.2799999709999998,-0.062657818,0.11390235300000001,1.376999974,0.249618068,0.124766424,1.101999998,-0.03786416,-0.286051005,1.129999995,0.12056623400000001,-0.273167431,1.1770000459999999,0.13512243300000001,0.139083773,1.182000041,0.17785738399999998,0.128176972,1.213999987,0.08425804199999999,0.21234129399999999,,,
1.57e+18,,46947.0,,1569268978.0,657899790.0,"""camera_color_frame""",1.159999967,-0.021049641,-0.167583287,1.300999999,0.221075624,-0.12467741199999999,1.2589999440000001,0.083298787,0.112033643,1.210000038,0.156567141,0.10963498099999999,1.2799999709999998,-0.189250872,-0.11643948400000001,1.450999975,0.293615609,-0.037899911,1.284999967,-0.06290257,0.116430536,1.379999995,0.250161886,0.125038251,1.041000009,-0.035768232999999997,-0.28203073100000003,1.126000047,0.12013945,-0.272200465,1.174999952,0.134892836,0.136942506,1.1770000459999999,0.175196722,0.127634779,1.223999977,0.084952094,0.216074765,,,
1.57e+18,,46948.0,,1569268978.0,811559149.0,"""camera_color_frame""",1.157999992,-0.021013349,-0.167294353,1.299000025,0.220735773,-0.124485746,1.261000037,0.08343111,0.11425595699999999,1.205000043,0.15592017800000002,0.109181948,1.281999946,-0.18954657,-0.11662142,1.444000006,0.292199105,-0.037717073999999996,1.287999988,-0.063049428,0.116702363,1.379999995,0.245687038,0.125038251,1.049000025,-0.034342337,-0.285898775,1.123999953,0.119926058,-0.275361478,1.174999952,0.134892836,0.13884744,1.1770000459999999,0.175196722,0.127634779,1.222000003,0.084813289,0.21770282100000002,,,
1.57e+18,,46949.0,,1569268978.0,979425595.0,"""camera_color_frame""",1.164000034,-0.021122226,-0.17004825199999998,1.2960000040000001,0.22022599,-0.12419825,1.253999949,0.082967974,0.11362171199999999,1.217000008,0.157472908,0.11026923400000001,1.284999967,-0.192073539,-0.11689432699999999,1.450999975,0.293615609,-0.037899911,1.284999967,-0.06290257,0.116430536,1.379999995,0.245687038,0.125038251,1.0789999959999999,-0.044071532999999996,-0.28357937899999996,1.126000047,0.116488226,-0.275851429,1.1710000040000001,0.134433627,0.142171636,1.184000015,0.176238671,0.128393859,1.213999987,0.08425804199999999,0.22611835600000002,,,
1.57e+18,,46950.0,,1569268979.0,138639571.0,"""camera_color_frame""",1.157999992,-0.022890842999999998,-0.167294353,1.299000025,0.220735773,-0.124485746,1.2589999440000001,0.083298787,0.112033643,1.213999987,0.155116439,0.109997414,1.2799999709999998,-0.19340147100000002,-0.11643948400000001,1.444000006,0.292199105,-0.037717073999999996,1.289999962,-0.06523884099999999,0.116883576,1.3739999530000002,0.24239112399999999,0.124494597,1.0579999690000002,-0.034636982000000004,-0.28492119899999996,1.118000031,0.117473245,-0.27751660300000003,1.167999983,0.13408921699999998,0.141807407,1.174999952,0.17489902699999998,0.127417892,1.212000012,0.084119231,0.215921298,,,
1.57e+18,,46951.0,,1569268979.0,311670574.0,"""camera_color_frame""",1.172999978,-0.021285542999999997,-0.171363056,1.299000025,0.220735773,-0.124485746,1.2589999440000001,0.083298787,0.112033643,1.212000012,0.154860884,0.109816194,1.281999946,-0.191625118,-0.11662142,1.4539999959999999,0.294222653,-0.037978273,1.274000049,-0.06649524,0.113368429,1.3739999530000002,0.24239112399999999,0.124494597,1.054999948,-0.036249265,-0.284113288,1.126000047,0.12013945,-0.279502392,1.174999952,0.13298776699999998,0.13884744,1.179999948,0.173730105,0.127960101,1.213999987,0.08425804199999999,0.216277599,,,
1.57e+18,,46952.0,,1569268979.0,478497526.0,"""camera_color_frame""",1.157999992,-0.022890842999999998,-0.163539618,1.300999999,0.221075624,-0.12467741199999999,1.261000037,0.081386618,0.112211615,1.207000017,0.146394268,0.109363161,1.284999967,-0.194156945,-0.11689432699999999,1.450999975,0.293615609,-0.040252291,1.287999988,-0.067225963,0.11461424099999999,1.3860000369999999,0.242260933,0.12558189,1.0789999959999999,-0.044071532999999996,-0.285328656,1.1160000559999999,0.117263094,-0.282447964,1.182000041,0.124198012,0.143507153,1.179999948,0.166077465,0.129873127,1.202999949,0.08349458900000001,0.214317918,,,
1.57e+18,,46953.0,,1569268979.0,651381193.0,"""camera_color_frame""",1.161999941,-0.022969915,-0.16787222,1.292999983,0.21971620600000002,-0.126006976,1.261000037,0.08343111,0.112211615,1.210000038,0.144796327,0.113558315,1.289999962,-0.190729395,-0.11734917,1.4479999540000001,0.29300853600000004,-0.040169067999999995,1.287999988,-0.067225963,0.11461424099999999,1.383000016,0.24173654600000002,0.125310063,1.075000048,-0.043908153,-0.284270912,1.111999989,0.11864571300000001,-0.28504118300000003,1.1770000459999999,0.123672634,0.14480827699999999,1.184000015,0.166640431,0.13031336699999999,1.213999987,0.080321468,0.21430945399999998,,,
1.57e+18,,46954.0,,1569268979.0,818812996.0,"""camera_color_frame""",1.174999952,-0.019416779,-0.169750318,1.299000025,0.220735773,-0.124485746,1.264000058,0.08158024400000001,0.11042936099999999,1.210000038,0.14675812400000002,0.113558315,1.289999962,-0.18654637,-0.119440533,1.4479999540000001,0.29300853600000004,-0.040169067999999995,1.299000025,-0.067800097,0.115593091,1.3860000369999999,0.242260933,0.12558189,1.077000022,-0.040497508,-0.284799784,1.118000031,0.119285889,-0.279329121,1.167999983,0.124620676,0.14559456699999998,1.182000041,0.172108158,0.130093247,1.212000012,0.080189139,0.21395638600000003,,,
1.57e+18,,46955.0,,1569268979.0,985680154.0,"""camera_color_frame""",1.174999952,-0.021321835,-0.17165523800000002,1.30400002,0.221585408,-0.12496490800000001,1.256000042,0.081063911,0.11176668099999999,1.207000017,0.144437328,0.113276765,1.289999962,-0.18863788199999998,-0.119440533,1.444000006,0.292199105,-0.040058106,1.300999999,-0.06790448,0.113661863,1.383000016,0.243978843,0.125310063,1.123999953,-0.03862007,-0.284472674,1.1280000209999999,0.122181699,-0.276341408,1.167999983,0.117045842,0.14559456699999998,1.172999978,0.163190439,0.129102692,1.202999949,0.079593681,0.212367594,,,
1.57e+18,,46956.0,,1569268980.0,148971975.0,"""camera_color_frame""",1.18900001,-0.033142414,-0.171772867,1.299000025,0.218629673,-0.120273836,1.246000052,0.080418497,0.110876821,1.202999949,0.1381073,0.109000728,1.292999983,-0.195365697,-0.119718298,1.444000006,0.292199105,-0.037717073999999996,1.2960000040000001,-0.067643516,0.113225035,1.379999995,0.243449613,0.129512787,1.067999959,-0.040159087999999996,-0.284151286,1.1219999790000001,0.12153179199999999,-0.274871498,1.1710000040000001,0.113549329,0.13837476099999999,1.1770000459999999,0.158022031,0.127634779,1.222000003,0.065000698,0.20977833899999998,,,
1.57e+18,,46957.0,,1569268980.0,314820457.0,"""camera_color_frame""",1.18900001,-0.038925681000000004,-0.167917624,1.299000025,0.212311357,-0.101320244,1.228999972,0.069358259,0.11534146199999999,1.174999952,0.12727260599999998,0.11217849699999999,1.2960000040000001,-0.197920218,-0.119996071,1.4210000040000001,0.28984889399999997,-0.018686377,1.287999988,-0.07975556,0.11252611900000001,1.3710000519999999,0.237416223,0.130890816,1.067999959,-0.055743266,-0.287614197,1.083999991,0.094568036,-0.284893453,,,,,,,,,,,,
1.57e+18,,46958.0,,1569268980.0,477671254.0,"""camera_color_frame""",1.200000048,-0.039285801,-0.169471115,1.287999988,0.19798390600000002,-0.0754048,1.19599998,0.059739493,0.11418338900000001,,,,1.27699995,-0.19501860399999998,-0.12237744,1.4110000130000002,0.285521448,-0.000254632,1.256000042,-0.083883211,0.10158547,1.312000036,0.22081764,0.142274275,1.082999945,-0.047746699000000004,-0.28463065600000004,1.1549999709999998,0.11387047900000001,-0.273593456,,,,,,,,,,,,
1.57e+18,,46959.0,,1569268980.0,637195631.0,"""camera_color_frame""",1.19599998,-0.03915485,-0.168906212,1.2960000040000001,0.19290989600000003,-0.056963335999999996,1.1770000459999999,0.049248955999999997,0.11236944,,,,1.271999955,-0.198379681,-0.123960465,1.4049999709999998,0.284307301,0.011135467,1.246000052,-0.089275859,0.092696548,1.18599999,0.184227943,0.13822452699999999,1.100000024,-0.052063104000000006,-0.28374853699999997,1.164000034,0.116645001,-0.273838252,,,,,,,1.184000015,0.038023964,0.13031336699999999,,,
1.57e+18,,46960.0,,1569268980.0,790829643.0,"""camera_color_frame""",1.172999978,-0.03269643,-0.165658012,1.284999967,0.178772137,-0.056479853,1.157999992,0.040943965,0.108678125,1.172999978,0.081412427,0.066347189,1.261000037,-0.19666414,-0.131065875,1.4049999709999998,0.268361568,0.020246679,1.233999968,-0.100420348,0.081800923,1.077000022,0.160311699,0.13425114800000001,1.123999953,-0.044087179000000004,-0.280828178,1.144999981,0.11659742099999999,-0.27679354,,,,,,,1.1770000459999999,0.028257661,0.123818435,,,
1.57e+18,,46961.0,,1569268980.0,960569091.0,"""camera_color_frame""",1.184000015,-0.033003042999999996,-0.16529198,1.284999967,0.174605325,-0.056479853,1.146999955,0.034976054,0.10950530300000001,,,,1.256000042,-0.197920725,-0.132582426,1.4049999709999998,0.268361568,0.027080088999999998,1.228999972,-0.10200607,0.077484533,1.024999976,0.145924062,0.12943095,1.159999967,-0.053022172,-0.27477783,1.172999978,0.117546894,-0.27025052899999996,,,,,,,1.1770000459999999,0.020624463,0.129542932,,,
1.57e+18,,46962.0,,1569268981.0,118875731.0,"""camera_color_frame""",1.184000015,-0.031083396,-0.163372472,1.271999955,0.172838897,-0.05590846,1.149000049,0.02758543,0.109696247,,,,1.253999949,-0.197605565,-0.134404302,1.3980000019999999,0.27382439399999997,0.029211625,1.218999982,-0.105128869,0.076854065,1.021999955,0.142182976,0.129052117,1.126000047,-0.05329368599999999,-0.281327873,1.1549999709999998,0.11574310800000001,-0.275465965,,,,,,,1.152999997,0.018334525,0.126901448,,,
1.57e+18,,46963.0,,1569268981.0,276570135.0,"""camera_color_frame""",1.164000034,-0.028671116,-0.16249989,1.274000049,0.17311064899999998,-0.055996366,1.123999953,0.030629965,0.107309468,,,,1.248999953,-0.194792628,-0.137918189,1.40199995,0.274607867,0.031568147000000005,1.213999987,-0.10469766,0.076538831,0.0,0.0,0.0,1.1710000040000001,-0.057322110999999995,-0.275485039,1.143000007,0.112687409,-0.276310056,,,,,,,1.146999955,0.016379455,0.126241073,,,
1.57e+18,,46964.0,,1569268981.0,423563049.0,"""camera_color_frame""",1.174999952,-0.027037006000000002,-0.164035544,1.271999955,0.170776576,-0.05590846,1.1219999790000001,0.025118083,0.10711853199999999,,,,1.253999949,-0.199638709,-0.138470307,1.3890000580000001,0.27431359899999996,0.029023567000000004,1.210000038,-0.10827629999999999,0.076286644,0.970000029,0.136521295,0.124058448,1.18900001,-0.065914258,-0.27200916399999997,1.182000041,0.10120113900000001,-0.25699386,,,,,,,1.143000007,0.010762811,0.127653882,,,
1.57e+18,,46965.0,,1569268981.0,594828631.0,"""camera_color_frame""",1.1710000040000001,-0.026944965,-0.163477123,1.253999949,0.15616107,-0.071381301,1.093999982,0.022717521,0.10444533800000001,,,,1.253999949,-0.203704983,-0.140503302,1.379999995,0.270298749,0.024360964,1.210000038,-0.112199903,0.07432498,0.957000017,0.134691641,0.12394730699999999,1.174999952,-0.063233085,-0.272616237,1.167999983,0.10757730900000001,-0.26531139,,,,,,,1.1160000559999999,0.008699172,0.12282916199999999,,,
1.57e+18,,46966.0,,1569268981.0,765589680.0,"""camera_color_frame""",1.1549999709999998,-0.022831541,-0.163115948,1.243999958,0.148864985,-0.088963166,1.077000022,0.018872172,0.101076283,,,,1.251000047,-0.203217655,-0.14625158900000002,1.3609999419999999,0.266577244,0.010786741,1.205000043,-0.117597356,0.074017853,0.935000002,0.130079329,0.121097945,1.123999953,-0.055021394,-0.284472674,1.1399999859999999,0.11054333300000001,-0.279281199,,,,,,,,,,,,
1.57e+18,,46967.0,,1569268981.0,931871202.0,"""camera_color_frame""",1.167999983,-0.028769642,-0.164951876,1.2589999440000001,0.150659978,-0.104323618,1.075000048,0.018837126000000003,0.100888588,,,,1.251000047,-0.205245927,-0.14219531400000002,1.3710000519999999,0.27075877800000003,0.006420633,1.210000038,-0.118085317,0.07432498,0.9309999940000001,0.132541746,0.11756117599999999,1.103999972,-0.05762225,-0.282990515,1.138000011,0.106659256,-0.27694630600000003,,,,,,,,,,,,
1.57e+18,,46968.0,,1569268982.0,94253643.0,"""camera_color_frame""",1.161999941,-0.028621852000000003,-0.16787222,1.2799999709999998,0.159398854,-0.143416449,1.10800004,0.024804667000000002,0.100393027,,,,1.251000047,-0.19916109699999998,-0.138139039,1.383000016,0.26415947100000003,-0.013702398000000001,1.212000012,-0.112385355,0.08034256099999999,1.039000034,0.152970836,0.12614546699999998,1.113999963,-0.05453188,-0.28735986399999996,1.120000005,0.10860397699999999,-0.281644553,,,,,,,1.1219999790000001,0.017841576,0.10711853199999999,,,
1.57e+18,,46969.0,,1569268982.0,246406635.0,"""camera_color_frame""",1.207000017,-0.057127424,-0.17828691,1.284999967,0.174605325,-0.133560389,1.1339999440000001,0.034579637999999996,0.106425725,,,,1.264000058,-0.213526845,-0.117033206,1.4049999709999998,0.263805658,-0.013920368,1.233999968,-0.106422499,0.091803804,1.300999999,0.19576349899999998,0.143190622,1.0460000040000001,-0.04781137,-0.283385366,1.1219999790000001,0.11243616,-0.278509498,,,,,,,,,,,,
1.57e+18,,46970.0,,1569268982.0,393397155.0,"""camera_color_frame""",1.222000003,-0.065762408,-0.17852143899999998,1.26699996,0.21529808600000003,-0.11525689800000001,1.200000048,0.038537800000000004,0.114565276,,,,1.292999983,-0.21842581,-0.10294847900000001,1.417999983,0.27774176,-0.011750288999999999,1.269000053,-0.10944096,0.09852227599999999,1.3470000030000002,0.20486912100000002,0.148253471,1.09800005,-0.037726723,-0.285012722,1.1710000040000001,0.12304218900000001,-0.275485039,,,,,,,,,,,,
1.57e+18,,46971.0,,1569268982.0,551257380.0,"""camera_color_frame""",1.19599998,-0.015885592,-0.151455477,1.307000041,0.264476627,-0.10194423,1.228999972,0.061387822,0.125303805,,,,1.2960000040000001,-0.191616505,-0.111591704,1.4210000040000001,0.30828011,-0.014078891999999999,1.271999955,-0.09113875800000001,0.115252644,1.35800004,0.228559732,0.15166576199999998,1.113999963,-0.025633384,-0.281941772,1.144999981,0.135161594,-0.273080975,,,,,,,,,,,,
1.57e+18,,46972.0,,1569268982.0,704922391.0,"""camera_color_frame""",1.172999978,0.058590654000000006,-0.180871472,1.287999988,0.30030897300000003,-0.098374136,1.233999968,0.099651158,0.13581647,,,,1.26699996,-0.12364801,-0.11320281800000001,1.414000034,0.338857234,-0.011717143000000001,1.281999946,-0.048205946,0.134864271,1.353000045,0.258429348,0.16646184,1.09800005,-0.0039026409999999997,-0.281452537,1.103999972,0.155380949,-0.27046179800000003,,,,,,,,,,,,
1.57e+18,,46973.0,,1569268982.0,879652530.0,"""camera_color_frame""",1.166000009,0.060131475,-0.172230765,1.2799999709999998,0.325422555,-0.11643948400000001,1.19599998,0.125669047,0.12969514699999998,1.143000007,0.131219149,0.164714783,1.269000053,-0.10944096,-0.098980285,1.407999992,0.373944581,-0.032211427,1.269000053,-0.016855197,0.139668643,1.3409999609999999,0.301795423,0.145419061,1.126000047,0.016079569,-0.275851429,1.1219999790000001,0.17610558899999998,-0.274871498,1.120000005,0.11223574,0.203162745,1.131999969,0.168498471,0.179646522,1.138000011,0.09189871699999999,0.241481707,1.1339999440000001,0.212922141,0.192833096
1.57e+18,,46974.0,,1569268983.0,38486005.0,"""camera_color_frame""",1.164000034,0.056253887999999995,-0.175709531,1.30400002,0.325181603,-0.12496490800000001,1.19599998,0.11985173800000001,0.121939264,1.131999969,0.11527361,0.163129613,1.264000058,-0.127453953,-0.098590292,1.39199996,0.360667676,-0.038615569,1.27699995,-0.031454481,0.134338275,1.325999975,0.294119865,0.128744349,1.161999941,-0.013550015,-0.267716199,1.113999963,0.171237633,-0.27652367899999997,1.111999989,0.100616574,0.199908793,1.111999989,0.151098147,0.176472545,1.126000047,0.089104049,0.23893533600000003,1.1339999440000001,0.207406402,0.185479283
1.57e+18,,46975.0,,1569268983.0,212715188.0,"""camera_color_frame""",1.111999989,-0.038207754,-0.133606985,1.324000001,0.285089731,-0.114002638,1.1710000040000001,0.077476472,0.121288806,1.123999953,0.078011565,0.160154507,1.261000037,-0.213020056,-0.09835629900000001,1.40199995,0.306431234,-0.034347102000000004,1.261000037,-0.07399468099999999,0.12243335699999999,1.3289999959999999,0.236607298,0.144117773,1.210000038,-0.055307608,-0.27289003100000003,1.192999959,0.12341959,-0.26712194100000003,1.10800004,0.062529653,0.192004487,1.100000024,0.112014987,0.1656515,1.138000011,0.042081880999999995,0.22118738300000002,1.113999963,0.151369914,0.178595975
1.57e+18,,46976.0,,1569268983.0,363057997.0,"""camera_color_frame""",0.925000012,-0.292734802,-0.088644587,1.3470000030000002,0.220156595,-0.105064183,1.166000009,0.018541245,0.118880592,1.111999989,0.048332087999999995,0.13861399900000002,1.217000008,-0.300298482,-0.019949775,1.424000025,0.22119779899999997,-0.03488607,1.235999942,-0.134650394,0.11599841,1.338000059,0.17096029199999999,0.145093739,1.1549999709999998,-0.11646305800000001,-0.281083465,1.1549999709999998,0.068927348,-0.271720946,1.093999982,0.028038708,0.162974343,1.095999956,0.065406382,0.143726945,1.113999963,0.0014589579999999998,0.205686435,,,
1.57e+18,,46977.0,,1569268983.0,510316136.0,"""camera_color_frame""",0.896000028,-0.424469769,-0.1439697,1.350000024,0.1637384,-0.107486814,1.192999959,-0.029385431,0.10616055099999999,1.10800004,0.039176092,0.121948659,1.08099997,-0.363135934,-0.063286178,1.440999985,0.17243926199999998,-0.021285547000000002,1.205000043,-0.180115655,0.089646339,1.3409999609999999,0.13220806400000001,0.13889691199999998,1.136000037,-0.138490945,-0.28382635100000003,1.1399999859999999,0.036610909,-0.268192112,,,,,,,1.1100000140000001,-0.036339365,0.206747428,,,
1.57e+18,,46978.0,,1569268983.0,671825084.0,"""camera_color_frame""",0.890999973,-0.208300173,-0.154722303,1.343999982,0.134682894,-0.10700909,1.182000041,-0.040612921,0.107097976,1.036999941,0.06692936299999999,0.157845393,1.120000005,-0.354446441,-0.071016669,1.4479999540000001,0.145104781,-0.011998885,1.200000048,-0.187150642,0.09121981300000001,0.0,0.0,0.0,1.235999942,-0.168717667,-0.308811069,1.152999997,0.020203913,-0.26190415,,,,,,,,,,,,
1.57e+18,,46979.0,,1569268983.0,830896204.0,"""camera_color_frame""",1.09800005,-0.103594676,-0.167526707,1.335000038,0.129452065,-0.110621154,1.1770000459999999,-0.036624525,0.110461272,1.126000047,0.039812524,0.10567493,1.152999997,-0.331240982,-0.106755763,1.440999985,0.14673963199999998,-0.009604713,1.212000012,-0.17919692399999998,0.101956561,0.0,0.0,0.0,1.1160000559999999,-0.166812509,-0.331298321,1.103999972,0.015765404,-0.277621061,,,,,,,1.1100000140000001,-0.04173838,0.18515288800000002,,,
1.57e+18,,46980.0,,1569268983.0,989025131.0,"""camera_color_frame""",1.1280000209999999,-0.053388345999999996,-0.194048658,1.3289999959999999,0.139643952,-0.11443316199999999,1.19599998,-0.019763801,0.10448853699999999,1.057000041,0.10420873800000001,0.145467058,1.1770000459999999,-0.259895563,-0.149049416,1.4479999540000001,0.170929238,-0.011998885,1.223999977,-0.165095136,0.093044214,1.30400002,0.130674466,0.122380204,0.963,-0.120523006,-0.29992944,1.018000007,0.029391881,-0.289002657,1.047999978,0.079533361,0.16801488399999998,1.039000034,0.119279705,0.16488757699999998,1.103999972,-0.000344081,0.214578971,,,
1.57e+18,,46981.0,,1569268984.0,148080451.0,"""camera_color_frame""",1.190999985,-0.05830114,-0.193301305,1.300999999,0.15568596099999998,-0.120459013,1.18900001,0.01119596,0.107732229,1.07099998,0.110798307,0.145657465,1.218999982,-0.24545292600000002,-0.118795447,1.437000036,0.21389778,-0.014237415,1.225999951,-0.131573245,0.09319624300000001,0.0,0.0,0.0,0.9869999890000001,-0.08832124599999999,-0.288202673,1.103999972,0.069463685,-0.282990515,,,,,,,,,,,,
1.57e+18,,46982.0,,1569268984.0,305080477.0,"""camera_color_frame""",1.222000003,-0.059818632999999996,-0.198332652,1.2960000040000001,0.17189753100000002,-0.119996071,1.166000009,0.037445895,0.103757925,,,,1.271999955,-0.225189909,-0.113649555,1.414000034,0.244862542,-0.023179114,1.225999951,-0.107720308,0.09319624300000001,1.0579999690000002,0.15919891,0.10100837800000001,1.0729999540000001,-0.089058191,-0.285481602,1.129999995,0.074763805,-0.276831359,,,,,,,,,,,,
1.57e+18,,46983.0,,1569268984.0,454875561.0,"""camera_color_frame""",1.213999987,-0.055490445,-0.19703424,1.289999962,0.156461149,-0.119440533,1.151000023,0.040696461,0.102423131,1.167999983,0.090533935,0.047128618,1.271999955,-0.216940612,-0.11777392,1.3980000019999999,0.248891652,-0.027449742000000003,1.235999942,-0.10258706699999999,0.09195259199999999,1.034999967,0.152381927,0.108880274,1.041000009,-0.089777812,-0.288781464,1.0789999959999999,0.055644821,-0.285328656,,,,,,,1.152999997,0.035159014,0.121293679,,,
1.57e+18,,46984.0,,1569268984.0,617774848.0,"""camera_color_frame""",1.212000012,-0.049503889,-0.19670964800000001,1.299000025,0.153340533,-0.120273836,1.157999992,0.035311483,0.095536575,1.172999978,0.081412427,0.045428685999999996,1.2589999440000001,-0.22492969,-0.116570257,1.4049999709999998,0.23874807399999998,-0.029864991,1.233999968,-0.10842321099999999,0.08780264900000001,1.041000009,0.148201898,0.10782378199999999,1.077000022,-0.10335952,-0.284799784,1.105999947,0.048071302,-0.283503175,,,,,,,1.184000015,0.020747123,0.114957251,,,
1.57e+18,,46985.0,,1569268984.0,788665188.0,"""camera_color_frame""",1.213999987,-0.057458732,-0.18522533800000002,1.299000025,0.153340533,-0.120273836,1.166000009,0.02421264,0.094306253,,,,1.264000058,-0.236069754,-0.121131629,1.414000034,0.23110722,-0.018594326,1.225999951,-0.117659025,0.087233424,1.047999978,0.14070271,0.10005366800000001,1.034999967,-0.10268493,-0.287117034,1.0789999959999999,0.055644821,-0.28357937899999996,,,,,,,,,,,,
1.57e+18,,46986.0,,1569268984.0,962018644.0,"""camera_color_frame""",1.212000012,-0.057364073,-0.177060544,1.300999999,0.147248596,-0.12467741199999999,1.164000034,0.018509442,0.097918674,,,,1.253999949,-0.23826839,-0.12220630800000001,1.424000025,0.228124097,-0.014108615,1.222000003,-0.12321892400000001,0.08694881199999999,1.049000025,0.132333115,0.10355044199999999,1.052999973,-0.106178008,-0.28698894399999997,1.093999982,0.054644652,-0.283974409,,,,,,,,,,,,
1.57e+18,,46987.0,,1569268985.0,119203156.0,"""camera_color_frame""",1.212000012,-0.06325921400000001,-0.18885000100000002,1.30400002,0.147588134,-0.120736785,1.1710000040000001,0.016722182,0.09471065599999999,,,,1.253999949,-0.242334679,-0.11610730699999999,1.437000036,0.218557477,-0.018896779,1.223999977,-0.12540510300000002,0.08907548300000001,1.069000006,0.133122951,0.10205856,1.054999948,-0.120063663,-0.285823673,1.052999973,0.033816919,-0.28698894399999997,,,,,,,,,,,,
1.57e+18,,46988.0,,1569268985.0,295812049.0,"""camera_color_frame""",1.184000015,-0.063717425,-0.180648103,1.307000041,0.14580860699999998,-0.125252396,1.18599999,0.018859277,0.097846612,,,,1.251000047,-0.249868035,-0.115829535,1.434000015,0.21810118899999997,-0.018857328,1.225999951,-0.123622261,0.091208637,1.069000006,0.13485615,0.100325488,1.02699995,-0.105221435,-0.286562741,1.085999966,0.054245058,-0.28541910600000003,,,,,,,,,,,,
1.57e+18,,46989.0,,1569268985.0,451168422.0,"""camera_color_frame""",1.213999987,-0.059427022999999995,-0.18916164300000002,1.315000057,0.150965169,-0.121755272,1.18900001,0.018906981,0.096166499,,,,1.248999953,-0.23934339,-0.127793729,1.4279999730000001,0.21718864100000002,-0.021093518999999998,1.218999982,-0.12291642300000001,0.086735353,1.069000006,0.136589348,0.100325488,1.008000016,-0.108177669,-0.287797928,1.07099998,0.053495817,-0.284949481,,,,,,,,,,,,
1.57e+18,,46990.0,,1569268985.0,604792746.0,"""camera_color_frame""",1.1979999540000001,-0.06252849099999999,-0.190552995,1.309999943,0.150391161,-0.12129232300000001,1.179999948,0.018763868,0.095438577,1.190999985,0.07107573,0.048056666,1.253999949,-0.240301535,-0.12220630800000001,1.424000025,0.216580272,-0.018725827,1.223999977,-0.123420596,0.08907548300000001,1.065999985,0.13447769,0.10177215199999999,1.011999965,-0.10860694900000001,-0.288939983,1.062000036,0.051324423,-0.285998404,,,,,,,1.179999948,0.013024377,0.114568882,,,
1.57e+18,,46991.0,,1569268985.0,764274463.0,"""camera_color_frame""",1.164000034,-0.060753897,-0.187032074,1.300999999,0.153576627,-0.12467741199999999,1.172999978,0.018652556,0.09867578,,,,1.238999963,-0.245462403,-0.124761872,1.4210000040000001,0.21612398300000002,-0.014078891999999999,1.228999972,-0.123924762,0.089439355,1.052999973,0.131130472,0.102238163,1.018000007,-0.102648824,-0.285701871,1.083999991,0.055902675,-0.284893453,,,,,,,,,,,,
1.57e+18,,46992.0,,1569268985.0,934915096.0,"""camera_color_frame""",1.167999983,-0.05528155,-0.17063261600000001,1.300999999,0.15568596099999998,-0.12467741199999999,1.161999941,0.020361618999999997,0.10340197400000001,,,,1.238999963,-0.24948005399999998,-0.118735828,1.424000025,0.22119779899999997,-0.014108615,1.223999977,-0.11945159,0.091059849,1.041000009,0.129636109,0.11288683099999999,1.023000002,-0.09817715,-0.28544664399999997,1.093999982,0.058192112000000004,-0.282200813,,,,,,,,,,,,
1.57e+18,,46993.0,,1569268986.0,97284222.0,"""camera_color_frame""",1.205000043,-0.039449491,-0.176037923,1.307000041,0.162761182,-0.125252396,1.164000034,0.020396665,0.096031584,,,,1.264000058,-0.234020397,-0.123180836,1.414000034,0.237984881,-0.014009536999999999,1.218999982,-0.116987236,0.082782842,1.019999981,0.136943474,0.103995025,1.093999982,-0.090801172,-0.282200813,1.10800004,0.073308222,-0.280423254,,,,,,,,,,,,
1.57e+18,,46994.0,,1569268986.0,256417678.0,"""camera_color_frame""",1.1979999540000001,-0.037277977999999996,-0.175015301,1.284999967,0.16627171599999999,-0.106478035,1.1280000209999999,0.025252404,0.10037645,,,,1.261000037,-0.227331489,-0.122888483,1.40199995,0.24505759800000002,-0.009344766,1.222000003,-0.11529389,0.084967695,0.9909999970000001,0.137870178,0.10746479,1.1770000459999999,-0.09769011300000001,-0.276896596,1.146999955,0.074028909,-0.27913656800000003,,,,,,,1.144999981,0.016350895,0.116739519,,,
1.57e+18,,46995.0,,1569268986.0,408884658.0,"""camera_color_frame""",1.19599998,-0.029459326,-0.17472311899999998,1.292999983,0.171499625,-0.09875602300000001,1.111999989,0.026697127,0.098952666,,,,1.261000037,-0.219153538,-0.122888483,1.394999981,0.255142778,-0.002513335,1.210000038,-0.112199903,0.076286644,0.961000025,0.139928892,0.107327536,1.149000049,-0.09350322900000001,-0.281486064,1.138000011,0.066067763,-0.27510136399999996,,,,,,,1.138000011,0.016250933000000002,0.114180885,,,
1.57e+18,,46996.0,,1569268986.0,569116017.0,"""camera_color_frame""",1.190999985,-0.029336167000000003,-0.173992664,1.2799999709999998,0.155248269,-0.09153766199999999,1.101999998,0.024670344,0.099849381,,,,1.264000058,-0.22787232699999999,-0.127279267,1.39199996,0.256850988,0.008775706999999999,1.210000038,-0.112199903,0.076286644,0.953999996,0.138909638,0.109639026,1.1339999440000001,-0.092282556,-0.283326656,1.144999981,0.075756244,-0.27679354,,,,,,,1.123999953,0.016051008999999998,0.10913171599999999,,,
1.57e+18,,46997.0,,1569268986.0,732030072.0,"""camera_color_frame""",1.18599999,-0.029213008999999998,-0.173262224,1.2799999709999998,0.15317297,-0.089462511,1.0789999959999999,0.018907217,0.09601612400000001,,,,1.264000058,-0.234020397,-0.131377682,1.40199995,0.25414997300000003,0.00883875,1.210000038,-0.120047115,0.07432498,0.93900001,0.127590969,0.107915148,1.1100000140000001,-0.095728502,-0.280929416,1.126000047,0.06537109599999999,-0.279502392,,,,,,,1.105999947,0.008621223,0.10738405599999999,,,
1.57e+18,,46998.0,,1569268986.0,903246121.0,"""camera_color_frame""",1.182000041,-0.03103089,-0.17267786,1.27699995,0.150743544,-0.087182544,1.075000048,0.0170942,0.09566018,,,,1.2589999440000001,-0.231053442,-0.13494020699999998,1.3890000580000001,0.247289345,0.011008658000000001,1.202999949,-0.12130308199999999,0.07194468400000001,0.9309999940000001,0.12499448699999999,0.114542484,1.138000011,-0.09814327199999999,-0.278791219,1.146999955,0.061011292,-0.26983889899999997,,,,,,,1.120000005,0.0014668160000000001,0.10874334699999999,,,
1.57e+18,,46999.0,,1569268987.0,70588627.0,"""camera_color_frame""",1.184000015,-0.029163746,-0.172970042,1.27699995,0.150743544,-0.087182544,1.069000006,0.016998792,0.09512625599999999,,,,1.26699996,-0.23252160800000002,-0.13579765,1.394999981,0.255142778,0.00879462,1.202999949,-0.12130308199999999,0.073895,0.938000023,0.12745510000000002,0.10932091599999999,1.1339999440000001,-0.09779831,-0.28148821,1.149000049,0.064843476,-0.272172183,,,,,,,,,,,,
1.57e+18,,47000.0,,1569268987.0,232068120.0,"""camera_color_frame""",1.18900001,-0.03121466,-0.17370049699999998,1.27699995,0.150743544,-0.09132312199999999,1.062000036,0.01688748,0.09450335800000001,,,,1.264000058,-0.23197104,-0.127279267,1.39199996,0.243309677,0.008775706999999999,1.205000043,-0.121504754,0.074017853,0.934000015,0.123882942,0.11642579,1.088000059,-0.093831182,-0.28241697,1.123999953,0.063432612,-0.279005945,,,,,,,1.103999972,0.003235805,0.103610232,,,
1.57e+18,,47001.0,,1569268987.0,385815965.0,"""camera_color_frame""",1.190999985,-0.033198162999999996,-0.173992664,1.2799999709999998,0.15109767,-0.09153766199999999,1.062000036,0.01688748,0.09450335800000001,,,,1.2589999440000001,-0.231053442,-0.132899106,1.379999995,0.23897475,0.008700054,1.202999949,-0.12130308199999999,0.073895,0.934000015,0.12085431099999999,0.114911579,1.09800005,-0.094693601,-0.28323262899999996,1.1219999790000001,0.05968149,-0.28214749699999997,,,,,,,,,,,,
1.57e+18,,47002.0,,1569268987.0,540513887.0,"""camera_color_frame""",1.190999985,-0.033198162999999996,-0.173992664,1.274000049,0.150389403,-0.086977735,1.062000036,0.011721938999999999,0.096225083,,,,1.26699996,-0.23252160800000002,-0.13990581,1.39199996,0.24105279100000002,0.011032433999999999,1.200000048,-0.12100058,0.073710725,0.9279999729999999,0.12007793800000001,0.115677871,1.027999997,-0.08532322199999999,-0.28684178,1.101999998,0.063977748,-0.282477856,,,,,,,1.095999956,0.001435385,0.10285943,,,
1.57e+18,,47003.0,,1569268987.0,711974373.0,"""camera_color_frame""",1.18599999,-0.033058792000000004,-0.173262224,1.269000053,0.141569331,-0.098980285,1.067999959,0.0048618640000000005,0.096768729,,,,1.253999949,-0.232168972,-0.134404302,1.376999974,0.23845523600000001,0.008681141,1.202999949,-0.12325353900000001,0.073895,0.924000025,0.112069845,0.11667726199999999,1.024999976,-0.091721654,-0.286004692,1.077000022,0.053795512999999996,-0.283053726,,,,,,,1.08099997,0.00141574,0.10145168800000001,,,
1.57e+18,,47004.0,,1569268987.0,880298615.0,"""camera_color_frame""",1.18599999,-0.036904577,-0.17518498,1.284999967,0.135020673,-0.141893417,1.047999978,0.011567413,0.084762394,,,,1.2589999440000001,-0.233094677,-0.141063526,1.39199996,0.24105279100000002,-0.01153484,1.192999959,-0.12222898800000001,0.067478426,0.9269999859999999,0.124457449,0.10353031,0.9800000190000001,-0.09881714,-0.286158681,1.059999943,0.052946374000000004,-0.287178278,,,,,,,,,,,,
1.57e+18,,47005.0,,1569268988.0,39961551.0,"""camera_color_frame""",1.18599999,-0.040750358,-0.179030493,1.2960000040000001,0.14878392199999999,-0.119996071,1.04400003,0.008137936,0.086131424,,,,1.248999953,-0.23326829100000002,-0.137918189,1.394999981,0.232525304,-0.009298109,1.202999949,-0.12520399699999998,0.068044044,0.925000012,0.124188937,0.103306942,0.995000005,-0.09548999400000001,-0.29053866899999997,1.0729999540000001,0.055335395,-0.285481602,,,,,,,,,,,,
1.57e+18,,47006.0,,1569268988.0,208539326.0,"""camera_color_frame""",1.18900001,-0.040853437,-0.17948335399999998,1.299000025,0.153340533,-0.097108334,1.04400003,0.009830599,0.09290160199999999,,,,1.253999949,-0.234202117,-0.140503302,1.394999981,0.22574006,0.011056211000000002,1.202999949,-0.12520399699999998,0.068044044,0.92900002,0.124725968,0.109778099,1.065999985,-0.102303855,-0.287075609,1.1399999859999999,0.04954908400000001,-0.268192112,,,,,,,,,,,,
1.57e+18,,47007.0,,1569268988.0,382647643.0,"""camera_color_frame""",1.192999959,-0.040990874,-0.17621895699999998,1.300999999,0.153576627,-0.084602669,1.050999999,0.004784475,0.095228404,,,,1.251000047,-0.233641818,-0.140167177,1.4049999709999998,0.225080311,0.011135467,1.202999949,-0.129104897,0.07194468400000001,0.925000012,0.119689755,0.113804296,1.004999995,-0.09319082599999999,-0.288570702,1.131999969,0.054707389,-0.27365091399999997,,,,,,,,,,,,
1.57e+18,,47008.0,,1569268988.0,550225008.0,"""camera_color_frame""",1.192999959,-0.039056633,-0.17428484600000002,1.300999999,0.15568596099999998,-0.08038426900000001,1.049000025,0.0030746009999999997,0.09504718300000001,,,,1.256000042,-0.23457564399999997,-0.140727401,1.40199995,0.22005350899999998,0.01793051,1.200000048,-0.128782943,0.071765266,0.9309999940000001,0.11744722,0.11605183,1.06400001,-0.09176137300000001,-0.289986938,1.120000005,0.05412745099999999,-0.278013051,,,,,,,,,,,,
1.57e+18,,47009.0,,1569268988.0,723448291.0,"""camera_color_frame""",1.192999959,-0.039056633,-0.17621895699999998,1.287999988,0.152042031,-0.0754048,1.049000025,0.00477537,0.093346536,,,,1.248999953,-0.23326829100000002,-0.13994309300000002,1.3890000580000001,0.23152519800000002,0.020016113000000002,1.1979999540000001,-0.124683611,0.071645662,0.92900002,0.12020734,0.114296421,1.0579999690000002,-0.091243923,-0.286636442,1.10800004,0.055343945,-0.280423254,,,,,,,,,,,,
1.57e+18,,47010.0,,1569268988.0,886364461.0,"""camera_color_frame""",1.18599999,-0.038827468,-0.17518498,1.289999962,0.154369637,-0.07970462,1.0460000040000001,0.0030658079999999997,0.087992214,,,,1.256000042,-0.232539251,-0.142763644,1.383000016,0.226040512,0.019929649,1.192999959,-0.124163225,0.067478426,0.925000012,0.119689755,0.113804296,1.131999969,-0.101296507,-0.28282696,1.1399999859999999,0.04400415,-0.255254835,,,,,,,,,,,,
1.57e+18,,47011.0,,1569268989.0,50574609.0,"""camera_color_frame""",1.18599999,-0.038827468,-0.17518498,1.284999967,0.153771296,-0.075229168,1.04400003,0.0030599459999999996,0.087823965,,,,1.256000042,-0.23457564399999997,-0.140727401,1.3890000580000001,0.233777225,0.026771704,1.19599998,-0.124475457,0.065709144,0.925000012,0.116690308,0.11230467300000001,1.105999947,-0.104349464,-0.287089318,,,,,,,,,,,,,,,
1.57e+18,,47012.0,,1569268989.0,216046898.0,"""camera_color_frame""",1.18900001,-0.038925681000000004,-0.175628111,1.27699995,0.150743544,-0.08925283699999999,1.041000009,0.003051153,0.090946965,,,,1.256000042,-0.23457564399999997,-0.140727401,1.3860000369999999,0.235519454,0.010984881,1.190999985,-0.123955071,0.067365304,0.921000004,0.11767894,0.113312162,1.004999995,-0.09970855699999999,-0.286941379,1.1219999790000001,0.057862364000000006,-0.278509498,,,,,,,,,,,,
1.57e+18,,47013.0,,1569268989.0,368299247.0,"""camera_color_frame""",1.18599999,-0.040750358,-0.179030493,1.2799999709999998,0.132420003,-0.13304069599999999,1.034999967,0.001355495,0.083710954,,,,1.251000047,-0.23769837600000002,-0.140167177,1.376999974,0.233990118,-0.004713315,1.192999959,-0.124163225,0.067478426,0.9169999959999999,0.118654601,0.105386779,0.9869999890000001,-0.112324961,-0.288202673,1.0340000390000001,0.046618339,-0.288515955,,,,,,,,,,,,
1.57e+18,,47014.0,,1569268989.0,523460164.0,"""camera_color_frame""",1.192999959,-0.052596319,-0.185889482,1.30400002,0.139131308,-0.12919302300000002,1.024999976,0.001342399,0.07957866799999999,,,,1.248999953,-0.23934339,-0.13994309300000002,1.39199996,0.225254595,-0.009278112,1.190999985,-0.127817065,0.065434441,0.9169999959999999,0.115681097,0.100926824,1.0,-0.10731911699999999,-0.287135035,1.0579999690000002,0.040838942,-0.288351685,,,,,,,,,,,,
1.57e+18,,47015.0,,1569268989.0,696263241.0,"""camera_color_frame""",1.192999959,-0.052596319,-0.185889482,1.312000036,0.150620759,-0.091699079,1.024999976,-0.000319459,0.086225636,,,,1.256000042,-0.24068479199999998,-0.140727401,1.383000016,0.21258674600000002,0.015445377,1.18900001,-0.129530191,0.067252181,0.917999983,0.10985373699999999,0.11294306800000001,1.023000002,-0.08822545400000001,-0.28544664399999997,1.143000007,0.057092175,-0.276310056,,,,,,,,,,,,
1.57e+18,,47016.0,,1569268989.0,857482917.0,"""camera_color_frame""",1.190999985,-0.054439142,-0.185577855,1.312000036,0.154875115,-0.081063926,1.0340000390000001,-0.000322264,0.08698274199999999,,,,1.248999953,-0.24541850399999998,-0.137918189,1.394999981,0.21669307399999999,0.017840985,1.184000015,-0.12898547900000001,0.065049849,0.0,0.0,0.0,1.004999995,-0.089931965,-0.286941379,1.151000023,0.059357915,-0.27264595,,,,,,,,,,,,
1.57e+18,,47017.0,,1569268990.0,22318165.0,"""camera_color_frame""",1.18599999,-0.046519034,-0.184798762,1.299000025,0.153340533,-0.08026070099999999,1.027999997,-0.000320394,0.08647801,,,,1.246000052,-0.24886937399999998,-0.137586921,1.383000016,0.214829043,0.019929649,1.18599999,-0.12920336400000001,0.065159738,0.0,0.0,0.0,1.02699995,-0.08857042300000001,-0.288227737,1.18599999,0.07462313,-0.255940795,,,,,,,,,,,,
1.57e+18,,47018.0,,1569268990.0,187694585.0,"""camera_color_frame""",1.182000041,-0.046362139000000004,-0.182259232,1.312000036,0.154875115,-0.081063926,1.031999946,-0.000321641,0.090160675,,,,1.253999949,-0.248434097,-0.140503302,1.39199996,0.22299771,0.020059343,1.18900001,-0.135313451,0.067252181,0.0,0.0,0.0,1.036999941,-0.097839415,-0.28767183399999996,1.149000049,0.057391871,-0.272172183,,,,,,,,,,,,
1.57e+18,,47019.0,,1569268990.0,354070383.0,"""camera_color_frame""",1.18900001,-0.04856446,-0.18526621199999999,1.27699995,0.134180084,-0.099604271,1.024999976,-0.000319459,0.086225636,,,,1.256000042,-0.24679394100000002,-0.140727401,1.3710000519999999,0.224079207,0.008643315,1.184000015,-0.130905136,0.066969365,0.912,0.10913574,0.113683425,0.9800000190000001,-0.09087265300000001,-0.28774747300000003,1.120000005,0.066838644,-0.278013051,,,,,,,,,,,,
1.57e+18,,47020.0,,1569268990.0,511850178.0,"""camera_color_frame""",1.18900001,-0.056275479,-0.19104908399999998,1.284999967,0.128770471,-0.137726903,1.023000002,-0.001977452,0.07942339,,,,1.243999958,-0.248469904,-0.139382869,1.379999995,0.23002503800000001,-0.013672674,1.18900001,-0.13145794,0.067252181,0.906000018,0.108417742,0.099716142,0.9919999840000001,-0.114502341,-0.289662689,1.059999943,0.037478931,-0.28545978699999996,,,,,,,,,,,,
1.57e+18,,47021.0,,1569268990.0,669650200.0,"""camera_color_frame""",1.190999985,-0.060232136,-0.193301305,1.287999988,0.129071102,-0.142224684,1.02699995,-0.006980486,0.079733945,,,,1.2410000559999999,-0.249882758,-0.137034804,1.39199996,0.21397018399999998,-0.01153484,1.19599998,-0.13998828800000002,0.067648113,0.0,0.0,0.0,1.006999969,-0.117866397,-0.28587985,1.062000036,0.034105953,-0.285998404,,,,,,,,,,,,
1.57e+18,,47022.0,,1569268990.0,832599782.0,"""camera_color_frame""",1.190999985,-0.060232136,-0.191370443,1.289999962,0.135546058,-0.098526895,1.031999946,-0.010360885,0.090160675,,,,1.246000052,-0.24886937399999998,-0.139606953,1.3890000580000001,0.209004998,0.011008658000000001,1.192999959,-0.13963715699999998,0.071346641,0.0,0.0,0.0,0.9940000179999999,-0.114733189,-0.290246665,1.100000024,0.035326317,-0.285531849,,,,,,,,,,,,
1.57e+18,,47023.0,,1569268991.0,2820710.0,"""camera_color_frame""",1.18900001,-0.058203235,-0.19104908399999998,1.30400002,0.14124551400000002,-0.08268369,1.041000009,-0.012139041000000001,0.087571599,,,,1.248999953,-0.249468565,-0.13994309300000002,1.40199995,0.210961118,0.01565757,1.19599998,-0.143866509,0.067648113,0.0,0.0,0.0,0.986000001,-0.10102076800000001,-0.289509207,1.101999998,0.047897447,-0.284264445,,,,,,,,,,,,
1.57e+18,,47024.0,,1569268991.0,162839531.0,"""camera_color_frame""",1.192999959,-0.05839904,-0.189757705,1.2960000040000001,0.138277739,-0.08217643200000001,1.039000034,-0.01211572,0.09077223400000001,,,,1.2410000559999999,-0.249882758,-0.139046729,1.394999981,0.20990783,0.015579393,1.19599998,-0.143866509,0.067648113,0.0,0.0,0.0,0.98299998,-0.099119641,-0.29181563899999996,1.100000024,0.049593978,-0.28374853699999997,,,,,,,,,,,,
1.57e+18,,47025.0,,1569268991.0,329926930.0,"""camera_color_frame""",1.192999959,-0.056464802,-0.185889482,1.300999999,0.138811216,-0.08038426900000001,1.041000009,-0.010451242,0.090946965,,,,1.251000047,-0.251896322,-0.140167177,1.3980000019999999,0.21035924600000003,0.017879352,1.19599998,-0.13998828800000002,0.071526051,0.0,0.0,0.0,0.9869999890000001,-0.102723472,-0.288202673,1.113999963,0.046612859000000006,-0.280135751,,,,,,,,,,,,
1.57e+18,,47026.0,,1569268991.0,502503664.0,"""camera_color_frame""",1.192999959,-0.05839904,-0.189757705,1.281999946,0.130548373,-0.091680691,1.027999997,-0.006987283,0.091477826,,,,1.246000052,-0.25088954,-0.139606953,1.3890000580000001,0.213509038,0.011008658000000001,1.1979999540000001,-0.140222386,0.067761235,0.920000017,0.102634981,0.113189131,0.989000022,-0.109345593,-0.29039004399999996,1.0789999959999999,0.041649543,-0.285328656,,,,,,,,,,,,
1.57e+18,,47027.0,,1569268991.0,678024492.0,"""camera_color_frame""",1.190999985,-0.062163137,-0.193301305,1.299000025,0.119642913,-0.145545289,1.0299999709999998,-0.013680736,0.084976405,,,,1.243999958,-0.254520684,-0.137366086,1.3860000369999999,0.213047892,-0.011485121000000001,1.200000048,-0.144347668,0.067874357,0.922999978,0.10296965400000001,0.103083581,1.001999974,-0.1205303,-0.28608483100000004,1.085999966,0.045441262,-0.287179738,,,,,,,,,,,,
1.57e+18,,47028.0,,1569268991.0,852972440.0,"""camera_color_frame""",1.192999959,-0.066136003,-0.19169180100000002,1.281999946,0.11184153,-0.143640548,1.0460000040000001,-0.018980971,0.084600635,,,,1.246000052,-0.25088954,-0.139606953,1.3980000019999999,0.20582601399999997,-0.018383924,1.19599998,-0.149683818,0.067648113,0.921000004,0.09528033400000001,0.101367071,1.0030000209999999,-0.11739821,-0.287996441,1.049000025,0.03879077,-0.28930008399999996,,,,,,,,,,,,
1.57e+18,,47029.0,,1569268992.0,8281124.0,"""camera_color_frame""",1.192999959,-0.066136003,-0.19169180100000002,1.292999983,0.127475783,-0.09875602300000001,1.0340000390000001,-0.017086765,0.090335406,,,,1.246000052,-0.25492987,-0.139606953,1.394999981,0.196337327,0.006533029,1.1979999540000001,-0.147991776,0.067761235,0.924000025,0.097088799,0.10918726,1.0,-0.120289721,-0.287135035,1.09800005,0.029921442000000003,-0.28323262899999996,,,,,,,,,,,,
1.57e+18,,47030.0,,1569268992.0,171965389.0,"""camera_color_frame""",1.18900001,-0.062058747000000004,-0.19104908399999998,1.307000041,0.13097509699999998,-0.084992841,1.042000055,-0.018908385,0.084277116,,,,1.243999958,-0.254520684,-0.139382869,1.4049999709999998,0.19774477199999999,0.011135467,1.192999959,-0.147374123,0.065544322,0.9309999940000001,0.09631487,0.108505085,1.00999999,-0.121492617,-0.290006369,1.09800005,0.031701658,-0.285012722,,,,,,,,,,,,
1.57e+18,,47031.0,,1569268992.0,339587748.0,"""camera_color_frame""",1.192999959,-0.062267523,-0.19169180100000002,1.309999943,0.131275728,-0.08306413900000001,1.034999967,-0.01710329,0.083710954,,,,1.248999953,-0.25554367899999997,-0.13994309300000002,1.4049999709999998,0.19774477199999999,0.015691074,1.1979999540000001,-0.146049425,0.065819025,0.935000002,0.098244615,0.108971275,1.0030000209999999,-0.115772024,-0.287996441,1.092000008,0.029757937,-0.283455253,,,,,,,,,,,,
1.57e+18,,47032.0,,1569268992.0,511643438.0,"""camera_color_frame""",1.190999985,-0.062163137,-0.18943958,1.307000041,0.13309417699999998,-0.080754988,1.042000055,-0.017218964,0.087655723,,,,1.243999958,-0.254520684,-0.139382869,1.4049999709999998,0.20002272699999998,0.011135467,1.200000048,-0.146293253,0.067874357,0.9319999809999999,0.097929396,0.113154545,0.989000022,-0.11575955199999999,-0.28878668,1.059999943,0.0254487,-0.28545978699999996,,,,,,,,,,,,
