rosbagTimestamp,header,seq,stamp,secs,nsecs,frame_id,orientation,x,y,z,w,orientation_covariance,angular_velocity,x,y,z,angular_velocity_covariance,linear_acceleration,x,y,z,linear_acceleration_covariance
1569268971969439359,,43758,,1569268971,912986993,"""knife_link""",,-0.625928270706,-0.0440460497724,0.111080593109,-0.770671685781,"[0.0, 0.0, 0.0, 0.0, 0.0, 0.0, 0.0, 0.0, 0.0]",,0.114270485581,0.0409451045479,-0.00868545031379,"[0.0, 0.0, 0.0, 0.0, 0.0, 0.0, 0.0, 0.0, 0.0]",,-4.01492805,9.9538803,1.54118265,"[0.0, 0.0, 0.0, 0.0, 0.0, 0.0, 0.0, 0.0, 0.0]"
1569268972006866495,,43759,,1569268971,968750953,"""knife_link""",,-0.630134057262,-0.0471780265165,0.111731848794,-0.766955864218,"[0.0, 0.0, 0.0, 0.0, 0.0, 0.0, 0.0, 0.0, 0.0]",,0.191064972669,0.0234918120279,-0.104678559174,"[0.0, 0.0, 0.0, 0.0, 0.0, 0.0, 0.0, 0.0, 0.0]",,-2.4148467,9.2470959,1.28595495,"[0.0, 0.0, 0.0, 0.0, 0.0, 0.0, 0.0, 0.0, 0.0]"
1569268972063609519,,43760,,1569268972,6232023,"""knife_link""",,-0.638167408174,-0.0471951794404,0.10985002271,-0.760557655075,"[0.0, 0.0, 0.0, 0.0, 0.0, 0.0, 0.0, 0.0, 0.0]",,0.533149506061,0.0147651657679,0.0349477809862,"[0.0, 0.0, 0.0, 0.0, 0.0, 0.0, 0.0, 0.0, 0.0]",,-1.9043913,8.9722353,0.63806925,"[0.0, 0.0, 0.0, 0.0, 0.0, 0.0, 0.0, 0.0, 0.0]"
1569268972119411775,,43761,,1569268972,62798023,"""knife_link""",,-0.642408889476,-0.047301651264,0.106242366712,-0.757486588677,"[0.0, 0.0, 0.0, 0.0, 0.0, 0.0, 0.0, 0.0, 0.0]",,0.171866350897,0.0304731290359,0.0855623292942,"[0.0, 0.0, 0.0, 0.0, 0.0, 0.0, 0.0, 0.0, 0.0]",,-2.48356185,9.29617815,0.5104554,"[0.0, 0.0, 0.0, 0.0, 0.0, 0.0, 0.0, 0.0, 0.0]"
1569268972157396613,,43762,,1569268972,118784904,"""knife_link""",,-0.643465530416,-0.0471687992325,0.102122877632,-0.757164535229,"[0.0, 0.0, 0.0, 0.0, 0.0, 0.0, 0.0, 0.0, 0.0]",,0.0217680352248,0.0200011535239,0.109996938822,"[0.0, 0.0, 0.0, 0.0, 0.0, 0.0, 0.0, 0.0, 0.0]",,-2.4148467,9.5808552,0.38284155,"[0.0, 0.0, 0.0, 0.0, 0.0, 0.0, 0.0, 0.0, 0.0]"
1569268972213583758,,43763,,1569268972,156680107,"""knife_link""",,-0.646376272163,-0.0461191726676,0.100079701194,-0.755019728289,"[0.0, 0.0, 0.0, 0.0, 0.0, 0.0, 0.0, 0.0, 0.0]",,0.185828984913,-0.0567933335641,0.106506280318,"[0.0, 0.0, 0.0, 0.0, 0.0, 0.0, 0.0, 0.0, 0.0]",,-2.38539735,9.6593868,0.65770215,"[0.0, 0.0, 0.0, 0.0, 0.0, 0.0, 0.0, 0.0, 0.0]"
1569268972269423533,,43764,,1569268972,212840080,"""knife_link""",,-0.645777484684,-0.0483582605762,0.0954637538622,-0.755989147149,"[0.0, 0.0, 0.0, 0.0, 0.0, 0.0, 0.0, 0.0, 0.0]",,-0.0585171103672,0.0845783358479,0.0698543660262,"[0.0, 0.0, 0.0, 0.0, 0.0, 0.0, 0.0, 0.0, 0.0]",,-2.32649865,9.5415894,0.4908225,"[0.0, 0.0, 0.0, 0.0, 0.0, 0.0, 0.0, 0.0, 0.0]"
1569268972307099986,,43765,,1569268972,268678903,"""knife_link""",,-0.649417359476,-0.0471175447646,0.0934155932823,-0.753200210514,"[0.0, 0.0, 0.0, 0.0, 0.0, 0.0, 0.0, 0.0, 0.0]",,0.145686412117,-0.0445760288001,0.0768356830342,"[0.0, 0.0, 0.0, 0.0, 0.0, 0.0, 0.0, 0.0, 0.0]",,-2.2970493,9.6004881,-0.2748606,"[0.0, 0.0, 0.0, 0.0, 0.0, 0.0, 0.0, 0.0, 0.0]"
1569268972363339478,,43766,,1569268972,306384086,"""knife_link""",,-0.64911447933,-0.0457466867532,0.0917460132028,-0.753750822511,"[0.0, 0.0, 0.0, 0.0, 0.0, 0.0, 0.0, 0.0, 0.0]",,-0.0288465130832,-0.103917223368,0.115232926578,"[0.0, 0.0, 0.0, 0.0, 0.0, 0.0, 0.0, 0.0, 0.0]",,-2.28723285,9.06058335,0.7264173,"[0.0, 0.0, 0.0, 0.0, 0.0, 0.0, 0.0, 0.0, 0.0]"
1569268972419385720,,43767,,1569268972,362571954,"""knife_link""",,-0.646036329445,-0.0437486942712,0.0879572044003,-0.756958811945,"[0.0, 0.0, 0.0, 0.0, 0.0, 0.0, 0.0, 0.0, 0.0]",,-0.158000877731,-0.0515573458081,0.153630170122,"[0.0, 0.0, 0.0, 0.0, 0.0, 0.0, 0.0, 0.0, 0.0]",,-2.2577835,9.0115011,0.7460502,"[0.0, 0.0, 0.0, 0.0, 0.0, 0.0, 0.0, 0.0, 0.0]"
1569268972457032606,,43768,,1569268972,418920993,"""knife_link""",,-0.631479215847,-0.0411546442365,0.0785426694305,-0.770306006915,"[0.0, 0.0, 0.0, 0.0, 0.0, 0.0, 0.0, 0.0, 0.0]",,-0.719996896875,0.0112745072639,0.331653753826,"[0.0, 0.0, 0.0, 0.0, 0.0, 0.0, 0.0, 0.0, 0.0]",,-2.1399861,9.0703998,0.4122909,"[0.0, 0.0, 0.0, 0.0, 0.0, 0.0, 0.0, 0.0, 0.0]"
1569268972513923537,,43769,,1569268972,456540107,"""knife_link""",,-0.606396897911,-0.0413430644356,0.0677448246086,-0.791191627841,"[0.0, 0.0, 0.0, 0.0, 0.0, 0.0, 0.0, 0.0, 0.0]",,-1.75846780182,0.135192884156,0.467789435482,"[0.0, 0.0, 0.0, 0.0, 0.0, 0.0, 0.0, 0.0, 0.0]",,-2.01237225,8.88388725,1.8062268,"[0.0, 0.0, 0.0, 0.0, 0.0, 0.0, 0.0, 0.0, 0.0]"
1569268972569747213,,43770,,1569268972,513010978,"""knife_link""",,-0.55936124295,-0.0460473846108,0.0472952175518,-0.826291595415,"[0.0, 0.0, 0.0, 0.0, 0.0, 0.0, 0.0, 0.0, 0.0]",,-2.11276963997,0.377793650184,0.478261410994,"[0.0, 0.0, 0.0, 0.0, 0.0, 0.0, 0.0, 0.0, 0.0]",,-2.42466315,11.8190058,2.73878955,"[0.0, 0.0, 0.0, 0.0, 0.0, 0.0, 0.0, 0.0, 0.0]"
1569268972606853849,,43771,,1569268972,568916082,"""knife_link""",,-0.581183744564,-0.0637157578985,0.0443737435001,-0.810059706527,"[0.0, 0.0, 0.0, 0.0, 0.0, 0.0, 0.0, 0.0, 0.0]",,0.931084575517,0.620394416212,-0.265248850358,"[0.0, 0.0, 0.0, 0.0, 0.0, 0.0, 0.0, 0.0, 0.0]",,-1.9436571,10.6213989,2.75842245,"[0.0, 0.0, 0.0, 0.0, 0.0, 0.0, 0.0, 0.0, 0.0]"
1569268972663636117,,43772,,1569268972,606168985,"""knife_link""",,-0.613089629656,-0.0823054499817,0.0260453772063,-0.785282469713,"[0.0, 0.0, 0.0, 0.0, 0.0, 0.0, 0.0, 0.0, 0.0]",,2.06031260156,1.51749365174,0.260095254494,"[0.0, 0.0, 0.0, 0.0, 0.0, 0.0, 0.0, 0.0, 0.0]",,-4.0443774,6.6162873,0.67733505,"[0.0, 0.0, 0.0, 0.0, 0.0, 0.0, 0.0, 0.0, 0.0]"
1569268972720306766,,43773,,1569268972,662909984,"""knife_link""",,-0.618141679943,-0.098716909123,-0.00346831827697,-0.779835755874,"[0.0, 0.0, 0.0, 0.0, 0.0, 0.0, 0.0, 0.0, 0.0]",,0.157903716881,1.089887985,0.469534764734,"[0.0, 0.0, 0.0, 0.0, 0.0, 0.0, 0.0, 0.0, 0.0]",,-1.67861295,9.8753487,2.05163805,"[0.0, 0.0, 0.0, 0.0, 0.0, 0.0, 0.0, 0.0, 0.0]"
1569268972757188502,,43774,,1569268972,719415903,"""knife_link""",,-0.633624455901,-0.106183976659,-0.016639504839,-0.76613845933,"[0.0, 0.0, 0.0, 0.0, 0.0, 0.0, 0.0, 0.0, 0.0]",,0.700701114253,0.524401307352,0.22169801095,"[0.0, 0.0, 0.0, 0.0, 0.0, 0.0, 0.0, 0.0, 0.0]",,0.26504415,9.227463,2.4933783,"[0.0, 0.0, 0.0, 0.0, 0.0, 0.0, 0.0, 0.0, 0.0]"
1569268972813960841,,43775,,1569268972,756504058,"""knife_link""",,-0.648687678834,-0.108817952413,-0.0221229339981,-0.752910037357,"[0.0, 0.0, 0.0, 0.0, 0.0, 0.0, 0.0, 0.0, 0.0]",,1.0951455252,0.328924431128,0.240896632722,"[0.0, 0.0, 0.0, 0.0, 0.0, 0.0, 0.0, 0.0, 0.0]",,-1.7473281,9.4826907,2.9842008,"[0.0, 0.0, 0.0, 0.0, 0.0, 0.0, 0.0, 0.0, 0.0]"
1569268972869709105,,43776,,1569268972,813143014,"""knife_link""",,-0.645222225393,-0.127393008038,-0.0334422715395,-0.752556254267,"[0.0, 0.0, 0.0, 0.0, 0.0, 0.0, 0.0, 0.0, 0.0]",,-0.109131658675,0.730350159088,-0.141330473466,"[0.0, 0.0, 0.0, 0.0, 0.0, 0.0, 0.0, 0.0, 0.0]",,-1.08962595,13.2914733,-1.1583411,"[0.0, 0.0, 0.0, 0.0, 0.0, 0.0, 0.0, 0.0, 0.0]"
1569268972907153053,,43777,,1569268972,869081020,"""knife_link""",,-0.662503295521,-0.147427936315,-0.00590661488701,-0.734383754531,"[0.0, 0.0, 0.0, 0.0, 0.0, 0.0, 0.0, 0.0, 0.0]",,1.03929498914,-0.0602839920681,-1.10649754982,"[0.0, 0.0, 0.0, 0.0, 0.0, 0.0, 0.0, 0.0, 0.0]",,-1.5902649,11.7993729,0.981645,"[0.0, 0.0, 0.0, 0.0, 0.0, 0.0, 0.0, 0.0, 0.0]"
1569268972963616995,,43778,,1569268972,906501054,"""knife_link""",,-0.680739323778,-0.123328800023,0.0230304645519,-0.721701862163,"[0.0, 0.0, 0.0, 0.0, 0.0, 0.0, 0.0, 0.0, 0.0]",,1.50529789942,-1.89811569442,-0.0488280231098,"[0.0, 0.0, 0.0, 0.0, 0.0, 0.0, 0.0, 0.0, 0.0]",,-4.97694015,8.05930545,4.7511618,"[0.0, 0.0, 0.0, 0.0, 0.0, 0.0, 0.0, 0.0, 0.0]"
1569268973019819128,,43779,,1569268972,962538957,"""knife_link""",,-0.662852071455,-0.107977684126,0.0183036577314,-0.740697594982,"[0.0, 0.0, 0.0, 0.0, 0.0, 0.0, 0.0, 0.0, 0.0]",,-0.908492456091,-0.418076488728,0.44859081371,"[0.0, 0.0, 0.0, 0.0, 0.0, 0.0, 0.0, 0.0, 0.0]",,-3.03328305,9.9146145,1.85530905,"[0.0, 0.0, 0.0, 0.0, 0.0, 0.0, 0.0, 0.0, 0.0]"
1569268973057207592,,43780,,1569268973,19069910,"""knife_link""",,-0.64625977551,-0.104866678135,0.0573490867923,-0.753699120749,"[0.0, 0.0, 0.0, 0.0, 0.0, 0.0, 0.0, 0.0, 0.0]",,-0.578625227463,-1.10748154327,-1.01224977021,"[0.0, 0.0, 0.0, 0.0, 0.0, 0.0, 0.0, 0.0, 0.0]",,-2.20870125,7.0482111,0.5693541,"[0.0, 0.0, 0.0, 0.0, 0.0, 0.0, 0.0, 0.0, 0.0]"
1569268973113384898,,43781,,1569268973,56583881,"""knife_link""",,-0.649114638289,-0.10981229102,0.0742459192957,-0.74905206132,"[0.0, 0.0, 0.0, 0.0, 0.0, 0.0, 0.0, 0.0, 0.0]",,0.362107239365,-0.430293793492,-0.858660796038,"[0.0, 0.0, 0.0, 0.0, 0.0, 0.0, 0.0, 0.0, 0.0]",,-2.13016965,7.3623375,-2.159619,"[0.0, 0.0, 0.0, 0.0, 0.0, 0.0, 0.0, 0.0, 0.0]"
1569268973170300155,,43782,,1569268973,112538099,"""knife_link""",,-0.655547083284,-0.125598263507,0.0906320668664,-0.739100078648,"[0.0, 0.0, 0.0, 0.0, 0.0, 0.0, 0.0, 0.0, 0.0]",,0.438901726453,0.0461810923039,-0.813282235486,"[0.0, 0.0, 0.0, 0.0, 0.0, 0.0, 0.0, 0.0, 0.0]",,-2.2381506,7.5586665,-0.67733505,"[0.0, 0.0, 0.0, 0.0, 0.0, 0.0, 0.0, 0.0, 0.0]"
1569268973207388216,,43783,,1569268973,169320106,"""knife_link""",,-0.662579769777,-0.146147436233,0.0972658643388,-0.728126587345,"[0.0, 0.0, 0.0, 0.0, 0.0, 0.0, 0.0, 0.0, 0.0]",,0.403995141413,0.398737601208,-0.657947932058,"[0.0, 0.0, 0.0, 0.0, 0.0, 0.0, 0.0, 0.0, 0.0]",,-3.533922,9.9931461,0.0,"[0.0, 0.0, 0.0, 0.0, 0.0, 0.0, 0.0, 0.0, 0.0]"
1569268973263162329,,43784,,1569268973,206418991,"""knife_link""",,-0.66712215803,-0.149757885017,0.0971867018283,-0.723239481174,"[0.0, 0.0, 0.0, 0.0, 0.0, 0.0, 0.0, 0.0, 0.0]",,0.384796519641,0.133447554904,-0.120386522442,"[0.0, 0.0, 0.0, 0.0, 0.0, 0.0, 0.0, 0.0, 0.0]",,-3.58300425,9.51214005,1.5313662,"[0.0, 0.0, 0.0, 0.0, 0.0, 0.0, 0.0, 0.0, 0.0]"
1569268973320058049,,43785,,1569268973,262469053,"""knife_link""",,-0.67287458371,-0.15868248701,0.101260926145,-0.715406099883,"[0.0, 0.0, 0.0, 0.0, 0.0, 0.0, 0.0, 0.0, 0.0]",,0.344653946845,0.143919530416,-0.312372740162,"[0.0, 0.0, 0.0, 0.0, 0.0, 0.0, 0.0, 0.0, 0.0]",,-3.7106181,8.82498855,0.392658,"[0.0, 0.0, 0.0, 0.0, 0.0, 0.0, 0.0, 0.0, 0.0]"
1569268973357380959,,43786,,1569268973,319044113,"""knife_link""",,-0.680906617729,-0.165803226746,0.0994911236891,-0.706383029411,"[0.0, 0.0, 0.0, 0.0, 0.0, 0.0, 0.0, 0.0, 0.0]",,0.400504482909,0.255620602544,-0.113405205434,"[0.0, 0.0, 0.0, 0.0, 0.0, 0.0, 0.0, 0.0, 0.0]",,-1.1190753,11.8190058,0.0785316,"[0.0, 0.0, 0.0, 0.0, 0.0, 0.0, 0.0, 0.0, 0.0]"
1569268973413201159,,43787,,1569268973,356612920,"""knife_link""",,-0.679334190084,-0.170173204397,0.0979738487732,-0.707069489969,"[0.0, 0.0, 0.0, 0.0, 0.0, 0.0, 0.0, 0.0, 0.0]",,-0.102150341667,0.131702225652,-0.10991454693,"[0.0, 0.0, 0.0, 0.0, 0.0, 0.0, 0.0, 0.0, 0.0]",,-3.6320865,8.72682405,-0.1766961,"[0.0, 0.0, 0.0, 0.0, 0.0, 0.0, 0.0, 0.0, 0.0]"
1569268973469897656,,43788,,1569268973,412483930,"""knife_link""",,-0.680127265576,-0.171841881921,0.0987802262768,-0.705790150919,"[0.0, 0.0, 0.0, 0.0, 0.0, 0.0, 0.0, 0.0, 0.0]",,0.0880905468008,-0.0114147730121,-0.0592999986218,"[0.0, 0.0, 0.0, 0.0, 0.0, 0.0, 0.0, 0.0, 0.0]",,-3.66153585,8.6777418,1.10925885,"[0.0, 0.0, 0.0, 0.0, 0.0, 0.0, 0.0, 0.0, 0.0]"
1569268973507614383,,43789,,1569268973,469119071,"""knife_link""",,-0.685568986663,-0.174842568143,0.097209502896,-0.699982537952,"[0.0, 0.0, 0.0, 0.0, 0.0, 0.0, 0.0, 0.0, 0.0]",,0.259132813497,0.117739591636,-0.0139214380698,"[0.0, 0.0, 0.0, 0.0, 0.0, 0.0, 0.0, 0.0, 0.0]",,-4.27015575,9.4434249,-0.87366405,"[0.0, 0.0, 0.0, 0.0, 0.0, 0.0, 0.0, 0.0, 0.0]"
1569268973563458997,,43790,,1569268973,506808042,"""knife_link""",,-0.685252150904,-0.179308773774,0.0980966659507,-0.699038552198,"[0.0, 0.0, 0.0, 0.0, 0.0, 0.0, 0.0, 0.0, 0.0]",,0.0287493522328,0.0671250433279,-0.207652985042,"[0.0, 0.0, 0.0, 0.0, 0.0, 0.0, 0.0, 0.0, 0.0]",,-3.533922,8.8937037,-0.34357575,"[0.0, 0.0, 0.0, 0.0, 0.0, 0.0, 0.0, 0.0, 0.0]"
1569268973619777769,,43791,,1569268973,562665939,"""knife_link""",,-0.685881717191,-0.181118462162,0.100948793274,-0.697546925893,"[0.0, 0.0, 0.0, 0.0, 0.0, 0.0, 0.0, 0.0, 0.0]",,0.0880905468008,-0.0550480043121,-0.123877180946,"[0.0, 0.0, 0.0, 0.0, 0.0, 0.0, 0.0, 0.0, 0.0]",,-3.60263715,9.5023236,0.24541125,"[0.0, 0.0, 0.0, 0.0, 0.0, 0.0, 0.0, 0.0, 0.0]"
1569268973657430556,,43792,,1569268973,619013071,"""knife_link""",,-0.684040484697,-0.184632423386,0.102433349473,-0.698216937954,"[0.0, 0.0, 0.0, 0.0, 0.0, 0.0, 0.0, 0.0, 0.0]",,-0.0567717811152,-0.00966944376005,-0.125622510198,"[0.0, 0.0, 0.0, 0.0, 0.0, 0.0, 0.0, 0.0, 0.0]",,-4.17199125,8.8151721,-0.69696795,"[0.0, 0.0, 0.0, 0.0, 0.0, 0.0, 0.0, 0.0, 0.0]"
1569268973713402438,,43793,,1569268973,656624078,"""knife_link""",,-0.684669400655,-0.187205462765,0.103631201287,-0.69673703837,"[0.0, 0.0, 0.0, 0.0, 0.0, 0.0, 0.0, 0.0, 0.0]",,0.117761144085,-0.000942797500054,-0.143075802718,"[0.0, 0.0, 0.0, 0.0, 0.0, 0.0, 0.0, 0.0, 0.0]",,-3.730251,8.7955392,0.3141264,"[0.0, 0.0, 0.0, 0.0, 0.0, 0.0, 0.0, 0.0, 0.0]"
1569268973769971658,,43794,,1569268973,712548971,"""knife_link""",,-0.688830265819,-0.189648627239,0.106569062491,-0.691512326714,"[0.0, 0.0, 0.0, 0.0, 0.0, 0.0, 0.0, 0.0, 0.0]",,0.255642154993,-0.00792411450805,-0.125622510198,"[0.0, 0.0, 0.0, 0.0, 0.0, 0.0, 0.0, 0.0, 0.0]",,-4.1032761,9.39434265,-0.6086199,"[0.0, 0.0, 0.0, 0.0, 0.0, 0.0, 0.0, 0.0, 0.0]"
1569268973807521343,,43795,,1569268973,769176959,"""knife_link""",,-0.689372436744,-0.193071941127,0.110285703517,-0.689438853422,"[0.0, 0.0, 0.0, 0.0, 0.0, 0.0, 0.0, 0.0, 0.0]",,0.109034497825,-0.0375947117921,-0.177982387758,"[0.0, 0.0, 0.0, 0.0, 0.0, 0.0, 0.0, 0.0, 0.0]",,-4.2996051,9.4826907,0.38284155,"[0.0, 0.0, 0.0, 0.0, 0.0, 0.0, 0.0, 0.0, 0.0]"
1569268973863245753,,43796,,1569268973,806725978,"""knife_link""",,-0.688100487894,-0.196908043228,0.113240421338,-0.689145520226,"[0.0, 0.0, 0.0, 0.0, 0.0, 0.0, 0.0, 0.0, 0.0]",,-0.00615723280716,-0.0428306995481,-0.263503521106,"[0.0, 0.0, 0.0, 0.0, 0.0, 0.0, 0.0, 0.0, 0.0]",,-4.09345965,8.7562734,-0.59880345,"[0.0, 0.0, 0.0, 0.0, 0.0, 0.0, 0.0, 0.0, 0.0]"
1569268973920175857,,43797,,1569268973,862500905,"""knife_link""",,-0.691352838977,-0.194482765583,0.104362821161,-0.687979728981,"[0.0, 0.0, 0.0, 0.0, 0.0, 0.0, 0.0, 0.0, 0.0]",,0.0671465957768,0.13868354266,0.288020522526,"[0.0, 0.0, 0.0, 0.0, 0.0, 0.0, 0.0, 0.0, 0.0]",,-3.40630815,8.8937037,-0.7067844,"[0.0, 0.0, 0.0, 0.0, 0.0, 0.0, 0.0, 0.0, 0.0]"
1569268973957980959,,43798,,1569268973,919287919,"""knife_link""",,-0.691383538218,-0.196388281683,0.103130170485,-0.687593349179,"[0.0, 0.0, 0.0, 0.0, 0.0, 0.0, 0.0, 0.0, 0.0]",,0.0270040229808,0.0409451045479,-0.0156667673218,"[0.0, 0.0, 0.0, 0.0, 0.0, 0.0, 0.0, 0.0, 0.0]",,-4.0640103,8.8937037,0.4319238,"[0.0, 0.0, 0.0, 0.0, 0.0, 0.0, 0.0, 0.0, 0.0]"
1569268974013161552,,43799,,1569268973,957132101,"""knife_link""",,-0.687088821364,-0.200579973218,0.106192390005,-0.690217213785,"[0.0, 0.0, 0.0, 0.0, 0.0, 0.0, 0.0, 0.0, 0.0]",,-0.215596743047,-0.0759919553361,-0.287938130634,"[0.0, 0.0, 0.0, 0.0, 0.0, 0.0, 0.0, 0.0, 0.0]",,-3.8676813,7.9120587,-0.30430995,"[0.0, 0.0, 0.0, 0.0, 0.0, 0.0, 0.0, 0.0, 0.0]"
1569268974069508046,,43800,,1569268974,12568950,"""knife_link""",,-0.678232732238,-0.205582968762,0.113563530509,-0.696304048828,"[0.0, 0.0, 0.0, 0.0, 0.0, 0.0, 0.0, 0.0, 0.0]",,-0.295881888639,-0.1754757227,-0.314118069414,"[0.0, 0.0, 0.0, 0.0, 0.0, 0.0, 0.0, 0.0, 0.0]",,-5.5757436,7.4801349,1.0012779,"[0.0, 0.0, 0.0, 0.0, 0.0, 0.0, 0.0, 0.0, 0.0]"
1569268974107338295,,43801,,1569268974,69106101,"""knife_link""",,-0.675594829066,-0.208791287711,0.116690863472,-0.697395918756,"[0.0, 0.0, 0.0, 0.0, 0.0, 0.0, 0.0, 0.0, 0.0]",,-0.0637530981232,-0.0655199798241,-0.157038436734,"[0.0, 0.0, 0.0, 0.0, 0.0, 0.0, 0.0, 0.0, 0.0]",,-4.8689592,8.29490025,-0.3730251,"[0.0, 0.0, 0.0, 0.0, 0.0, 0.0, 0.0, 0.0, 0.0]"
1569268974163348389,,43802,,1569268974,106719970,"""knife_link""",,-0.675170083458,-0.211097903347,0.117831292001,-0.696920956946,"[0.0, 0.0, 0.0, 0.0, 0.0, 0.0, 0.0, 0.0, 0.0]",,0.0514386325088,-0.0114147730121,-0.137839814962,"[0.0, 0.0, 0.0, 0.0, 0.0, 0.0, 0.0, 0.0, 0.0]",,-4.28978865,8.84462145,0.71660085,"[0.0, 0.0, 0.0, 0.0, 0.0, 0.0, 0.0, 0.0, 0.0]"
1569268974220029097,,43803,,1569268974,162556886,"""knife_link""",,-0.666081479925,-0.214315729844,0.119329627033,-0.704389572718,"[0.0, 0.0, 0.0, 0.0, 0.0, 0.0, 0.0, 0.0, 0.0]",,-0.393620326751,-0.0969359063601,-0.15354777823,"[0.0, 0.0, 0.0, 0.0, 0.0, 0.0, 0.0, 0.0, 0.0]",,-4.908225,9.53177295,-0.1766961,"[0.0, 0.0, 0.0, 0.0, 0.0, 0.0, 0.0, 0.0, 0.0]"
1569268974257346758,,43804,,1569268974,219187021,"""knife_link""",,-0.66936248014,-0.21681994213,0.124328585732,-0.699632321756,"[0.0, 0.0, 0.0, 0.0, 0.0, 0.0, 0.0, 0.0, 0.0]",,0.252151496489,-0.0445760288001,-0.167510412246,"[0.0, 0.0, 0.0, 0.0, 0.0, 0.0, 0.0, 0.0, 0.0]",,-4.6529973,7.25435655,0.65770215,"[0.0, 0.0, 0.0, 0.0, 0.0, 0.0, 0.0, 0.0, 0.0]"
1569268974313767800,,43805,,1569268974,256764888,"""knife_link""",,-0.668137911714,-0.218741605211,0.124462872866,-0.700180572679,"[0.0, 0.0, 0.0, 0.0, 0.0, 0.0, 0.0, 0.0, 0.0]",,-0.0445544763512,-0.00792411450805,-0.125622510198,"[0.0, 0.0, 0.0, 0.0, 0.0, 0.0, 0.0, 0.0, 0.0]",,-3.30814365,9.35507685,0.0981645,"[0.0, 0.0, 0.0, 0.0, 0.0, 0.0, 0.0, 0.0, 0.0]"
1569268974369951989,,43806,,1569268974,312864065,"""knife_link""",,-0.670267575927,-0.219150671482,0.127694427242,-0.69742991985,"[0.0, 0.0, 0.0, 0.0, 0.0, 0.0, 0.0, 0.0, 0.0]",,0.173611680149,-0.0725012968321,-0.0924612544098,"[0.0, 0.0, 0.0, 0.0, 0.0, 0.0, 0.0, 0.0, 0.0]",,-4.25052285,8.51086215,0.59880345,"[0.0, 0.0, 0.0, 0.0, 0.0, 0.0, 0.0, 0.0, 0.0]"
1569268974407355170,,43807,,1569268974,369333982,"""knife_link""",,-0.668768312906,-0.220700699071,0.128989521681,-0.698141710814,"[0.0, 0.0, 0.0, 0.0, 0.0, 0.0, 0.0, 0.0, 0.0]",,-0.0375731593432,-0.0550480043121,-0.0767532911418,"[0.0, 0.0, 0.0, 0.0, 0.0, 0.0, 0.0, 0.0, 0.0]",,-4.42721895,7.9905903,-0.55953765,"[0.0, 0.0, 0.0, 0.0, 0.0, 0.0, 0.0, 0.0, 0.0]"
1569268974463460131,,43808,,1569268974,406671047,"""knife_link""",,-0.66312709987,-0.222568346553,0.129327277701,-0.702851503359,"[0.0, 0.0, 0.0, 0.0, 0.0, 0.0, 0.0, 0.0, 0.0]",,-0.346496436947,-0.100426564864,-0.141330473466,"[0.0, 0.0, 0.0, 0.0, 0.0, 0.0, 0.0, 0.0, 0.0]",,-3.6713523,8.5010457,0.4122909,"[0.0, 0.0, 0.0, 0.0, 0.0, 0.0, 0.0, 0.0, 0.0]"
1569268974519793330,,43809,,1569268974,462723016,"""knife_link""",,-0.663039840345,-0.224409328556,0.130721446195,-0.702090113074,"[0.0, 0.0, 0.0, 0.0, 0.0, 0.0, 0.0, 0.0, 0.0]",,0.0392213277448,-0.0218867485241,-0.0872252666538,"[0.0, 0.0, 0.0, 0.0, 0.0, 0.0, 0.0, 0.0, 0.0]",,-4.1032761,7.7157297,0.08834805,"[0.0, 0.0, 0.0, 0.0, 0.0, 0.0, 0.0, 0.0, 0.0]"
1569268974557058983,,43810,,1569268974,519072055,"""knife_link""",,-0.656935532195,-0.225534572859,0.132040277255,-0.707202395476,"[0.0, 0.0, 0.0, 0.0, 0.0, 0.0, 0.0, 0.0, 0.0]",,-0.245267340331,-0.110898540376,-0.0854799374018,"[0.0, 0.0, 0.0, 0.0, 0.0, 0.0, 0.0, 0.0, 0.0]",,-3.8087826,3.1608969,0.02944935,"[0.0, 0.0, 0.0, 0.0, 0.0, 0.0, 0.0, 0.0, 0.0]"
1569268974613195874,,43811,,1569268974,556348085,"""knife_link""",,-0.665479806227,-0.2045880316,0.105378560601,-0.710053324614,"[0.0, 0.0, 0.0, 0.0, 0.0, 0.0, 0.0, 0.0, 0.0]",,0.0723825835328,0.122975579392,1.86928882484,"[0.0, 0.0, 0.0, 0.0, 0.0, 0.0, 0.0, 0.0, 0.0]",,-4.5744657,10.35635475,0.16687965,"[0.0, 0.0, 0.0, 0.0, 0.0, 0.0, 0.0, 0.0, 0.0]"
1569268974670647093,,43812,,1569268974,612504959,"""knife_link""",,-0.677504843123,-0.16290005865,0.0584361680404,-0.714867800857,"[0.0, 0.0, 0.0, 0.0, 0.0, 0.0, 0.0, 0.0, 0.0]",,0.0147867182168,0.0426904337999,2.28467718681,"[0.0, 0.0, 0.0, 0.0, 0.0, 0.0, 0.0, 0.0, 0.0]",,-2.3952138,6.41014185,0.7460502,"[0.0, 0.0, 0.0, 0.0, 0.0, 0.0, 0.0, 0.0, 0.0]"
1569268974707225482,,43813,,1569268974,669807910,"""knife_link""",,-0.68865735514,-0.105450434008,0.000791939959421,-0.717377603504,"[0.0, 0.0, 0.0, 0.0, 0.0, 0.0, 0.0, 0.0, 0.0]",,0.0112960597128,-0.0742466260841,2.87459847399,"[0.0, 0.0, 0.0, 0.0, 0.0, 0.0, 0.0, 0.0, 0.0]",,-2.62099215,11.2889175,-2.93511855,"[0.0, 0.0, 0.0, 0.0, 0.0, 0.0, 0.0, 0.0, 0.0]"
1569268974763301629,,43814,,1569268974,706305027,"""knife_link""",,-0.671978341791,-0.0857236332988,-0.0115156312261,-0.735502520115,"[0.0, 0.0, 0.0, 0.0, 0.0, 0.0, 0.0, 0.0, 0.0]",,-1.40940195142,-0.426803134988,1.13275988049,"[0.0, 0.0, 0.0, 0.0, 0.0, 0.0, 0.0, 0.0, 0.0]",,-0.73623375,15.5296239,1.89457485,"[0.0, 0.0, 0.0, 0.0, 0.0, 0.0, 0.0, 0.0, 0.0]"
1569268974820004869,,43815,,1569268974,762749910,"""knife_link""",,-0.56717489812,-0.0854917581119,-0.0253865191803,-0.818754736708,"[0.0, 0.0, 0.0, 0.0, 0.0, 0.0, 0.0, 0.0, 0.0]",,-4.80930333431,0.11250360388,0.0122585007102,"[0.0, 0.0, 0.0, 0.0, 0.0, 0.0, 0.0, 0.0, 0.0]",,-0.9031134,11.18093655,2.14980255,"[0.0, 0.0, 0.0, 0.0, 0.0, 0.0, 0.0, 0.0, 0.0]"
1569268974856898327,,43816,,1569268974,819242954,"""knife_link""",,-0.443992033026,-0.107223427764,-0.0225754351345,-0.889305662231,"[0.0, 0.0, 0.0, 0.0, 0.0, 0.0, 0.0, 0.0, 0.0]",,-5.02397883231,0.515674661092,-0.977343185174,"[0.0, 0.0, 0.0, 0.0, 0.0, 0.0, 0.0, 0.0, 0.0]",,0.5300883,9.25691235,5.93895225,"[0.0, 0.0, 0.0, 0.0, 0.0, 0.0, 0.0, 0.0, 0.0]"
1569268974913486292,,43817,,1569268974,856178998,"""knife_link""",,-0.475652460303,-0.124752103517,-0.0320413635859,-0.870152285922,"[0.0, 0.0, 0.0, 0.0, 0.0, 0.0, 0.0, 0.0, 0.0]",,1.94163021242,1.19809839862,0.277548547014,"[0.0, 0.0, 0.0, 0.0, 0.0, 0.0, 0.0, 0.0, 0.0]",,-1.2172398,6.3414267,2.7682389,"[0.0, 0.0, 0.0, 0.0, 0.0, 0.0, 0.0, 0.0, 0.0]"
1569268974970238012,,43818,,1569268974,912832021,"""knife_link""",,-0.517581522615,-0.13680432476,-0.0462671223459,-0.843358344694,"[0.0, 0.0, 0.0, 0.0, 0.0, 0.0, 0.0, 0.0, 0.0]",,1.69030280014,0.711151537316,0.464298776978,"[0.0, 0.0, 0.0, 0.0, 0.0, 0.0, 0.0, 0.0, 0.0]",,-1.5313662,7.84334355,4.07382675,"[0.0, 0.0, 0.0, 0.0, 0.0, 0.0, 0.0, 0.0, 0.0]"
1569268975006928280,,43819,,1569268974,969507932,"""knife_link""",,-0.593087424723,-0.143187357399,-0.0333085144423,-0.791602949832,"[0.0, 0.0, 0.0, 0.0, 0.0, 0.0, 0.0, 0.0, 0.0]",,3.27506176095,0.102031628368,-0.0453373646058,"[0.0, 0.0, 0.0, 0.0, 0.0, 0.0, 0.0, 0.0, 0.0]",,-3.24924495,9.9538803,8.43233055,"[0.0, 0.0, 0.0, 0.0, 0.0, 0.0, 0.0, 0.0, 0.0]"
1569268975063316020,,43820,,1569268975,6275892,"""knife_link""",,-0.623184570335,-0.134415758418,-0.0371818405384,-0.769539411544,"[0.0, 0.0, 0.0, 0.0, 0.0, 0.0, 0.0, 0.0, 0.0]",,1.99748074849,-0.138823808408,0.755768762062,"[0.0, 0.0, 0.0, 0.0, 0.0, 0.0, 0.0, 0.0, 0.0]",,-2.38539735,8.09857125,2.6897073,"[0.0, 0.0, 0.0, 0.0, 0.0, 0.0, 0.0, 0.0, 0.0]"
1569268975119817413,,43821,,1569268975,62611103,"""knife_link""",,-0.668789593194,-0.110449679241,-0.0156260265028,-0.735035492808,"[0.0, 0.0, 0.0, 0.0, 0.0, 0.0, 0.0, 0.0, 0.0]",,2.06380326006,-1.05686699496,0.219952681698,"[0.0, 0.0, 0.0, 0.0, 0.0, 0.0, 0.0, 0.0, 0.0]",,-4.1621748,10.2287409,-2.56209345,"[0.0, 0.0, 0.0, 0.0, 0.0, 0.0, 0.0, 0.0, 0.0]"
1569268975157142217,,43822,,1569268975,119163990,"""knife_link""",,-0.66737101186,-0.10365856377,0.0518851566359,-0.735648533749,"[0.0, 0.0, 0.0, 0.0, 0.0, 0.0, 0.0, 0.0, 0.0]",,0.208518265189,-1.81433989033,-1.61089770365,"[0.0, 0.0, 0.0, 0.0, 0.0, 0.0, 0.0, 0.0, 0.0]",,-2.1203532,10.25819025,0.50063895,"[0.0, 0.0, 0.0, 0.0, 0.0, 0.0, 0.0, 0.0, 0.0]"
1569268975213589178,,43823,,1569268975,156363010,"""knife_link""",,-0.675370086381,-0.116971192425,0.0714202459184,-0.724632413736,"[0.0, 0.0, 0.0, 0.0, 0.0, 0.0, 0.0, 0.0, 0.0]",,0.796694223113,-0.142314466912,-1.24088790223,"[0.0, 0.0, 0.0, 0.0, 0.0, 0.0, 0.0, 0.0, 0.0]",,-2.87621985,6.88133145,-0.04908225,"[0.0, 0.0, 0.0, 0.0, 0.0, 0.0, 0.0, 0.0, 0.0]"
1569268975269875438,,43824,,1569268975,212899923,"""knife_link""",,-0.681680063571,-0.1116325779,0.101374200216,-0.715942546586,"[0.0, 0.0, 0.0, 0.0, 0.0, 0.0, 0.0, 0.0, 0.0]",,0.519186872045,-0.842191496964,-0.638749310286,"[0.0, 0.0, 0.0, 0.0, 0.0, 0.0, 0.0, 0.0, 0.0]",,-2.91548565,6.1647306,0.02944935,"[0.0, 0.0, 0.0, 0.0, 0.0, 0.0, 0.0, 0.0, 0.0]"
1569268975307387382,,43825,,1569268975,269174098,"""knife_link""",,-0.686396079544,-0.105605447694,0.105734980222,-0.71170782303,"[0.0, 0.0, 0.0, 0.0, 0.0, 0.0, 0.0, 0.0, 0.0]",,0.292294069285,-0.2627421853,0.0471650857502,"[0.0, 0.0, 0.0, 0.0, 0.0, 0.0, 0.0, 0.0, 0.0]",,-3.9658458,10.10112705,1.8062268,"[0.0, 0.0, 0.0, 0.0, 0.0, 0.0, 0.0, 0.0, 0.0]"
1569268975363407465,,43826,,1569268975,306401968,"""knife_link""",,-0.688580697637,-0.105720269348,0.105417302219,-0.709624576719,"[0.0, 0.0, 0.0, 0.0, 0.0, 0.0, 0.0, 0.0, 0.0]",,0.171866350897,-0.0323587240361,-0.0331200598418,"[0.0, 0.0, 0.0, 0.0, 0.0, 0.0, 0.0, 0.0, 0.0]",,-1.42338525,9.0900327,-0.00981645,"[0.0, 0.0, 0.0, 0.0, 0.0, 0.0, 0.0, 0.0, 0.0]"
1569268975419935668,,43827,,1569268975,362709045,"""knife_link""",,-0.685398183576,-0.103927574894,0.0988678924768,-0.713900223395,"[0.0, 0.0, 0.0, 0.0, 0.0, 0.0, 0.0, 0.0, 0.0]",,-0.187671475015,0.0374544460439,0.211226035438,"[0.0, 0.0, 0.0, 0.0, 0.0, 0.0, 0.0, 0.0, 0.0]",,-2.3755809,7.0285782,1.4135688,"[0.0, 0.0, 0.0, 0.0, 0.0, 0.0, 0.0, 0.0, 0.0]"
1569268975456808347,,43828,,1569268975,418993949,"""knife_link""",,-0.660793376381,-0.105644712706,0.0837787264112,-0.738357930417,"[0.0, 0.0, 0.0, 0.0, 0.0, 0.0, 0.0, 0.0, 0.0]",,-1.27152094051,0.196279407976,0.333399083078,"[0.0, 0.0, 0.0, 0.0, 0.0, 0.0, 0.0, 0.0, 0.0]",,-2.6700744,12.2509296,-0.8834805,"[0.0, 0.0, 0.0, 0.0, 0.0, 0.0, 0.0, 0.0, 0.0]"
1569268975513274554,,43829,,1569268975,456278085,"""knife_link""",,-0.661563200485,-0.106976103431,0.0840499569632,-0.737445489371,"[0.0, 0.0, 0.0, 0.0, 0.0, 0.0, 0.0, 0.0, 0.0]",,0.109034497825,0.00952917801195,-0.0540640108658,"[0.0, 0.0, 0.0, 0.0, 0.0, 0.0, 0.0, 0.0, 0.0]",,-2.93511855,9.2078301,2.36576445,"[0.0, 0.0, 0.0, 0.0, 0.0, 0.0, 0.0, 0.0, 0.0]"
1569268975569536318,,43830,,1569268975,512705087,"""knife_link""",,-0.65878497638,-0.110356034124,0.0736085819966,-0.740544176458,"[0.0, 0.0, 0.0, 0.0, 0.0, 0.0, 0.0, 0.0, 0.0]",,-0.203379438283,0.276564553568,0.192027413666,"[0.0, 0.0, 0.0, 0.0, 0.0, 0.0, 0.0, 0.0, 0.0]",,-2.7878718,9.6397539,0.0785316,"[0.0, 0.0, 0.0, 0.0, 0.0, 0.0, 0.0, 0.0, 0.0]"
1569268975607493234,,43831,,1569268975,568849086,"""knife_link""",,-0.665319967554,-0.114242345896,0.0694635510429,-0.734488149839,"[0.0, 0.0, 0.0, 0.0, 0.0, 0.0, 0.0, 0.0, 0.0]",,0.299275386293,0.20849671274,0.0244758054742,"[0.0, 0.0, 0.0, 0.0, 0.0, 0.0, 0.0, 0.0, 0.0]",,-2.748606,10.17965865,1.0798095,"[0.0, 0.0, 0.0, 0.0, 0.0, 0.0, 0.0, 0.0, 0.0]"
1569268975663738708,,43832,,1569268975,606540918,"""knife_link""",,-0.66691252164,-0.115519773606,0.0664651546854,-0.733120217699,"[0.0, 0.0, 0.0, 0.0, 0.0, 0.0, 0.0, 0.0, 0.0]",,0.0758732420368,0.12123025014,0.0838170000422,"[0.0, 0.0, 0.0, 0.0, 0.0, 0.0, 0.0, 0.0, 0.0]",,-2.79768825,8.9329695,-0.04908225,"[0.0, 0.0, 0.0, 0.0, 0.0, 0.0, 0.0, 0.0, 0.0]"
1569268975719570509,,43833,,1569268975,663180112,"""knife_link""",,-0.66886738291,-0.113981040812,0.0605971381301,-0.732087927277,"[0.0, 0.0, 0.0, 0.0, 0.0, 0.0, 0.0, 0.0, 0.0]",,0.0688919250288,0.0793423480919,0.200754059926,"[0.0, 0.0, 0.0, 0.0, 0.0, 0.0, 0.0, 0.0, 0.0]",,-2.75842245,8.7562734,1.0798095,"[0.0, 0.0, 0.0, 0.0, 0.0, 0.0, 0.0, 0.0, 0.0]"
1569268975757512167,,43834,,1569268975,718949079,"""knife_link""",,-0.6640495695,-0.113968469256,0.0515424037219,-0.737151773979,"[0.0, 0.0, 0.0, 0.0, 0.0, 0.0, 0.0, 0.0, 0.0]",,-0.292391230135,0.154391505928,0.228679327958,"[0.0, 0.0, 0.0, 0.0, 0.0, 0.0, 0.0, 0.0, 0.0]",,-2.58172635,10.1502093,0.10798095,"[0.0, 0.0, 0.0, 0.0, 0.0, 0.0, 0.0, 0.0, 0.0]"
1569268975813450326,,43835,,1569268975,756689071,"""knife_link""",,-0.66021501769,-0.114050349374,0.0498277940376,-0.740692810256,"[0.0, 0.0, 0.0, 0.0, 0.0, 0.0, 0.0, 0.0, 0.0]",,-0.299372547143,-0.00792411450805,0.0489104150022,"[0.0, 0.0, 0.0, 0.0, 0.0, 0.0, 0.0, 0.0, 0.0]",,-2.5130112,10.0716777,0.1570632,"[0.0, 0.0, 0.0, 0.0, 0.0, 0.0, 0.0, 0.0, 0.0]"
1569268975869354692,,43836,,1569268975,812686920,"""knife_link""",,-0.651139449958,-0.114583654243,0.0468290096675,-0.748795730986,"[0.0, 0.0, 0.0, 0.0, 0.0, 0.0, 0.0, 0.0, 0.0]",,-0.435508228799,0.00603851950795,0.0489104150022,"[0.0, 0.0, 0.0, 0.0, 0.0, 0.0, 0.0, 0.0, 0.0]",,-2.60135925,8.96241885,1.26632205,"[0.0, 0.0, 0.0, 0.0, 0.0, 0.0, 0.0, 0.0, 0.0]"
1569268975907361111,,43837,,1569268975,868767023,"""knife_link""",,-0.642327081072,-0.114936349809,0.0412539416964,-0.756639721868,"[0.0, 0.0, 0.0, 0.0, 0.0, 0.0, 0.0, 0.0, 0.0]",,-0.444234875059,0.0636343848239,0.118723585082,"[0.0, 0.0, 0.0, 0.0, 0.0, 0.0, 0.0, 0.0, 0.0]",,-2.5130112,9.5612223,0.93256275,"[0.0, 0.0, 0.0, 0.0, 0.0, 0.0, 0.0, 0.0, 0.0]"
1569268975963565428,,43838,,1569268975,906661987,"""knife_link""",,-0.635805819702,-0.114498516311,0.0375556005634,-0.762384828195,"[0.0, 0.0, 0.0, 0.0, 0.0, 0.0, 0.0, 0.0, 0.0]",,-0.487868106359,0.0339637875399,0.146648853114,"[0.0, 0.0, 0.0, 0.0, 0.0, 0.0, 0.0, 0.0, 0.0]",,-2.4933783,8.6188431,0.93256275,"[0.0, 0.0, 0.0, 0.0, 0.0, 0.0, 0.0, 0.0, 0.0]"
1569268976019712489,,43839,,1569268975,962855100,"""knife_link""",,-0.625653302819,-0.109127752962,0.030197868874,-0.77184011746,"[0.0, 0.0, 0.0, 0.0, 0.0, 0.0, 0.0, 0.0, 0.0]",,-0.519284032895,-0.0480666873041,0.293256510282,"[0.0, 0.0, 0.0, 0.0, 0.0, 0.0, 0.0, 0.0, 0.0]",,-2.30686575,9.81645,1.38411945,"[0.0, 0.0, 0.0, 0.0, 0.0, 0.0, 0.0, 0.0, 0.0]"
1569268976057006725,,43840,,1569268976,18997907,"""knife_link""",,-0.620633775771,-0.10704361826,0.0279246655656,-0.776257427156,"[0.0, 0.0, 0.0, 0.0, 0.0, 0.0, 0.0, 0.0, 0.0]",,-0.240031352575,-0.0393400410441,0.0925436463022,"[0.0, 0.0, 0.0, 0.0, 0.0, 0.0, 0.0, 0.0, 0.0]",,-2.1988848,10.33672185,2.28723285,"[0.0, 0.0, 0.0, 0.0, 0.0, 0.0, 0.0, 0.0, 0.0]"
1569268976113426255,,43841,,1569268976,56262969,"""knife_link""",,-0.620160199687,-0.108774820047,0.0264896469921,-0.776445531799,"[0.0, 0.0, 0.0, 0.0, 0.0, 0.0, 0.0, 0.0, 0.0]",,-0.0428091470992,0.105522286872,0.00353185445021,"[0.0, 0.0, 0.0, 0.0, 0.0, 0.0, 0.0, 0.0, 0.0]",,-2.2381506,9.5415894,1.75714455,"[0.0, 0.0, 0.0, 0.0, 0.0, 0.0, 0.0, 0.0, 0.0]"
1569268976169558898,,43842,,1569268976,112852096,"""knife_link""",,-0.620398897869,-0.109002975209,0.0253329845049,-0.776261424273,"[0.0, 0.0, 0.0, 0.0, 0.0, 0.0, 0.0, 0.0, 0.0]",,0.00780540120884,0.0234918120279,0.0314571224822,"[0.0, 0.0, 0.0, 0.0, 0.0, 0.0, 0.0, 0.0, 0.0]",,-2.26759995,9.27654525,2.01237225,"[0.0, 0.0, 0.0, 0.0, 0.0, 0.0, 0.0, 0.0, 0.0]"
1569268976207369080,,43843,,1569268976,168837070,"""knife_link""",,-0.615894178873,-0.112893224213,0.0203673606313,-0.779432261956,"[0.0, 0.0, 0.0, 0.0, 0.0, 0.0, 0.0, 0.0, 0.0]",,-0.213851413795,0.194534078724,0.0401837687422,"[0.0, 0.0, 0.0, 0.0, 0.0, 0.0, 0.0, 0.0, 0.0]",,-2.2381506,9.3256275,2.26759995,"[0.0, 0.0, 0.0, 0.0, 0.0, 0.0, 0.0, 0.0, 0.0]"
1569268976263675097,,43844,,1569268976,206463098,"""knife_link""",,-0.614164184184,-0.115468588047,0.0169149038558,-0.780501919323,"[0.0, 0.0, 0.0, 0.0, 0.0, 0.0, 0.0, 0.0, 0.0]",,-0.151019560723,0.192788749472,0.0506557442542,"[0.0, 0.0, 0.0, 0.0, 0.0, 0.0, 0.0, 0.0, 0.0]",,-2.1988848,9.70846905,1.30558785,"[0.0, 0.0, 0.0, 0.0, 0.0, 0.0, 0.0, 0.0, 0.0]"
1569268976319520002,,43845,,1569268976,262953042,"""knife_link""",,-0.619147231558,-0.118124113087,0.0164454568141,-0.776165540663,"[0.0, 0.0, 0.0, 0.0, 0.0, 0.0, 0.0, 0.0, 0.0]",,0.231207545465,0.0950503113599,-0.0191574258258,"[0.0, 0.0, 0.0, 0.0, 0.0, 0.0, 0.0, 0.0, 0.0]",,-2.34613155,8.638476,1.91420775,"[0.0, 0.0, 0.0, 0.0, 0.0, 0.0, 0.0, 0.0, 0.0]"
1569268976357004996,,43846,,1569268976,318985939,"""knife_link""",,-0.630824598014,-0.119230565609,0.0145645244932,-0.766571766628,"[0.0, 0.0, 0.0, 0.0, 0.0, 0.0, 0.0, 0.0, 0.0]",,0.524422859801,0.117739591636,0.0733450245302,"[0.0, 0.0, 0.0, 0.0, 0.0, 0.0, 0.0, 0.0, 0.0]",,-2.20870125,9.94406385,1.6491636,"[0.0, 0.0, 0.0, 0.0, 0.0, 0.0, 0.0, 0.0, 0.0]"
1569268976413511779,,43847,,1569268976,356368064,"""knife_link""",,-0.639484915717,-0.121079215458,0.0154116898875,-0.759052926988,"[0.0, 0.0, 0.0, 0.0, 0.0, 0.0, 0.0, 0.0, 0.0]",,0.622161297913,0.0933049821079,-0.0470826938578,"[0.0, 0.0, 0.0, 0.0, 0.0, 0.0, 0.0, 0.0, 0.0]",,-2.20870125,10.0520448,1.87494195,"[0.0, 0.0, 0.0, 0.0, 0.0, 0.0, 0.0, 0.0, 0.0]"
1569268976469656655,,43848,,1569268976,412950038,"""knife_link""",,-0.650545849975,-0.126972764256,0.0171772179448,-0.748580628524,"[0.0, 0.0, 0.0, 0.0, 0.0, 0.0, 0.0, 0.0, 0.0]",,0.527913518305,0.145664859668,-0.132603827206,"[0.0, 0.0, 0.0, 0.0, 0.0, 0.0, 0.0, 0.0, 0.0]",,-2.3755809,8.68755825,0.3533922,"[0.0, 0.0, 0.0, 0.0, 0.0, 0.0, 0.0, 0.0, 0.0]"
1569268976507181483,,43849,,1569268976,468827009,"""knife_link""",,-0.658423746969,-0.1279188191,0.0171499852049,-0.741499037865,"[0.0, 0.0, 0.0, 0.0, 0.0, 0.0, 0.0, 0.0, 0.0]",,0.369088556373,0.0444357630519,0.0122585007102,"[0.0, 0.0, 0.0, 0.0, 0.0, 0.0, 0.0, 0.0, 0.0]",,-2.30686575,9.55140585,0.44174025,"[0.0, 0.0, 0.0, 0.0, 0.0, 0.0, 0.0, 0.0, 0.0]"
1569268976564150550,,43850,,1569268976,506398916,"""knife_link""",,-0.658775004628,-0.128921942707,0.0169590676326,-0.741017554442,"[0.0, 0.0, 0.0, 0.0, 0.0, 0.0, 0.0, 0.0, 0.0]",,0.0182773767208,0.0165104950199,-0.0191574258258,"[0.0, 0.0, 0.0, 0.0, 0.0, 0.0, 0.0, 0.0, 0.0]",,-2.36576445,9.2078301,0.3337593,"[0.0, 0.0, 0.0, 0.0, 0.0, 0.0, 0.0, 0.0, 0.0]"
1569268976619957655,,43851,,1569268976,563102006,"""knife_link""",,-0.653940776332,-0.130360245559,0.0135372892315,-0.745106978378,"[0.0, 0.0, 0.0, 0.0, 0.0, 0.0, 0.0, 0.0, 0.0]",,-0.236540694071,0.0741063603359,0.0401837687422,"[0.0, 0.0, 0.0, 0.0, 0.0, 0.0, 0.0, 0.0, 0.0]",,-2.355948,9.29617815,0.8834805,"[0.0, 0.0, 0.0, 0.0, 0.0, 0.0, 0.0, 0.0, 0.0]"
1569268976657063199,,43852,,1569268976,619313001,"""knife_link""",,-0.651662211726,-0.131127180154,0.011561845855,-0.74699956369,"[0.0, 0.0, 0.0, 0.0, 0.0, 0.0, 0.0, 0.0, 0.0]",,-0.117858304935,0.0357091167919,0.0262211347262,"[0.0, 0.0, 0.0, 0.0, 0.0, 0.0, 0.0, 0.0, 0.0]",,-2.30686575,9.68883615,0.7067844,"[0.0, 0.0, 0.0, 0.0, 0.0, 0.0, 0.0, 0.0, 0.0]"
1569268976713703882,,43853,,1569268976,656327009,"""knife_link""",,-0.648914719854,-0.131184835814,0.0105548814139,-0.749392300259,"[0.0, 0.0, 0.0, 0.0, 0.0, 0.0, 0.0, 0.0, 0.0]",,-0.212106084543,-0.00617878525605,0.0244758054742,"[0.0, 0.0, 0.0, 0.0, 0.0, 0.0, 0.0, 0.0, 0.0]",,-2.30686575,9.53177295,0.67733505,"[0.0, 0.0, 0.0, 0.0, 0.0, 0.0, 0.0, 0.0, 0.0]"
1569268976769669543,,43854,,1569268976,712924957,"""knife_link""",,-0.64612481856,-0.129055223489,0.00963343566246,-0.752179941935,"[0.0, 0.0, 0.0, 0.0, 0.0, 0.0, 0.0, 0.0, 0.0]",,-0.142292914463,-0.0672653090761,0.0663637075222,"[0.0, 0.0, 0.0, 0.0, 0.0, 0.0, 0.0, 0.0, 0.0]",,-2.32649865,9.0900327,0.99146145,"[0.0, 0.0, 0.0, 0.0, 0.0, 0.0, 0.0, 0.0, 0.0]"
1569268976807380479,,43855,,1569268976,768914937,"""knife_link""",,-0.643242966569,-0.125947802323,0.00689105718734,-0.755200735156,"[0.0, 0.0, 0.0, 0.0, 0.0, 0.0, 0.0, 0.0, 0.0]",,-0.154510219227,-0.0515573458081,0.13443154835,"[0.0, 0.0, 0.0, 0.0, 0.0, 0.0, 0.0, 0.0, 0.0]",,-2.2185177,9.80663355,1.4724675,"[0.0, 0.0, 0.0, 0.0, 0.0, 0.0, 0.0, 0.0, 0.0]"
1569268976881861262,,43856,,1569268976,806564092,"""knife_link""",,-0.640746947801,-0.126308656297,0.00582549720207,-0.757268470102,"[0.0, 0.0, 0.0, 0.0, 0.0, 0.0, 0.0, 0.0, 0.0]",,-0.187671475015,0.0200011535239,0.0157491592142,"[0.0, 0.0, 0.0, 0.0, 0.0, 0.0, 0.0, 0.0, 0.0]",,-2.159619,9.9146145,1.0209108,"[0.0, 0.0, 0.0, 0.0, 0.0, 0.0, 0.0, 0.0, 0.0]"
1569268976920457213,,43857,,1569268976,881269931,"""knife_link""",,-0.631116635683,-0.127633404269,0.00410344951403,-0.765104351041,"[0.0, 0.0, 0.0, 0.0, 0.0, 0.0, 0.0, 0.0, 0.0]",,-0.336024461435,0.0165104950199,-0.0174120965738,"[0.0, 0.0, 0.0, 0.0, 0.0, 0.0, 0.0, 0.0, 0.0]",,-2.22833415,9.45324135,1.48228395,"[0.0, 0.0, 0.0, 0.0, 0.0, 0.0, 0.0, 0.0, 0.0]"
1569268976956832612,,43858,,1569268976,919630050,"""knife_link""",,-0.622364902223,-0.129331742572,0.00173325772016,-0.771966466021,"[0.0, 0.0, 0.0, 0.0, 0.0, 0.0, 0.0, 0.0, 0.0]",,-0.594333190731,0.0793423480919,-0.0139214380698,"[0.0, 0.0, 0.0, 0.0, 0.0, 0.0, 0.0, 0.0, 0.0]",,-2.2381506,9.33544395,1.6098978,"[0.0, 0.0, 0.0, 0.0, 0.0, 0.0, 0.0, 0.0, 0.0]"
1569268977012858936,,43859,,1569268976,956010103,"""knife_link""",,-0.617596767512,-0.129836254026,0.00143684856912,-0.775702723578,"[0.0, 0.0, 0.0, 0.0, 0.0, 0.0, 0.0, 0.0, 0.0]",,-0.351732424703,-0.00792411450805,-0.0348653890938,"[0.0, 0.0, 0.0, 0.0, 0.0, 0.0, 0.0, 0.0, 0.0]",,-2.20870125,9.57103875,1.2565056,"[0.0, 0.0, 0.0, 0.0, 0.0, 0.0, 0.0, 0.0, 0.0]"
1569268977069431572,,43860,,1569268977,12278079,"""knife_link""",,-0.609963897267,-0.129188042654,0.00165073355755,-0.781825919719,"[0.0, 0.0, 0.0, 0.0, 0.0, 0.0, 0.0, 0.0, 0.0]",,-0.349987095451,-0.0602839920681,-0.0226480843298,"[0.0, 0.0, 0.0, 0.0, 0.0, 0.0, 0.0, 0.0, 0.0]",,-2.26759995,9.19801365,1.7276952,"[0.0, 0.0, 0.0, 0.0, 0.0, 0.0, 0.0, 0.0, 0.0]"
1569268977107141877,,43861,,1569268977,68886995,"""knife_link""",,-0.604022849737,-0.127455688079,0.00256019061934,-0.786705084511,"[0.0, 0.0, 0.0, 0.0, 0.0, 0.0, 0.0, 0.0, 0.0]",,-0.266211291355,-0.0969359063601,-0.0121761088178,"[0.0, 0.0, 0.0, 0.0, 0.0, 0.0, 0.0, 0.0, 0.0]",,-2.24796705,9.45324135,2.22833415,"[0.0, 0.0, 0.0, 0.0, 0.0, 0.0, 0.0, 0.0, 0.0]"
1569268977163593286,,43862,,1569268977,106501102,"""knife_link""",,-0.600716812304,-0.126980470269,0.00324438477775,-0.789306496586,"[0.0, 0.0, 0.0, 0.0, 0.0, 0.0, 0.0, 0.0, 0.0]",,-0.219087401551,-0.0515573458081,-0.0261387428338,"[0.0, 0.0, 0.0, 0.0, 0.0, 0.0, 0.0, 0.0, 0.0]",,-2.2577835,9.2667288,2.4148467,"[0.0, 0.0, 0.0, 0.0, 0.0, 0.0, 0.0, 0.0, 0.0]"
1569268977219633827,,43863,,1569268977,162755012,"""knife_link""",,-0.599106187893,-0.125613757858,0.0047821436631,-0.790740216865,"[0.0, 0.0, 0.0, 0.0, 0.0, 0.0, 0.0, 0.0, 0.0]",,-0.0724797443832,-0.0794826138401,-0.0174120965738,"[0.0, 0.0, 0.0, 0.0, 0.0, 0.0, 0.0, 0.0, 0.0]",,-2.24796705,9.423792,2.2774164,"[0.0, 0.0, 0.0, 0.0, 0.0, 0.0, 0.0, 0.0, 0.0]"
1569268977257198009,,43864,,1569268977,219037055,"""knife_link""",,-0.598639615935,-0.125943344357,0.00660688444301,-0.791027959887,"[0.0, 0.0, 0.0, 0.0, 0.0, 0.0, 0.0, 0.0, 0.0]",,-0.0131385498152,-0.0323587240361,-0.0575546693698,"[0.0, 0.0, 0.0, 0.0, 0.0, 0.0, 0.0, 0.0, 0.0]",,-2.2381506,9.45324135,2.3952138,"[0.0, 0.0, 0.0, 0.0, 0.0, 0.0, 0.0, 0.0, 0.0]"
1569268977313398499,,43865,,1569268977,256458997,"""knife_link""",,-0.599629375306,-0.126293667007,0.00861393536748,-0.790202709475,"[0.0, 0.0, 0.0, 0.0, 0.0, 0.0, 0.0, 0.0, 0.0]",,0.0758732420368,-0.0393400410441,-0.0802439496458,"[0.0, 0.0, 0.0, 0.0, 0.0, 0.0, 0.0, 0.0, 0.0]",,-2.30686575,9.09984915,2.2381506,"[0.0, 0.0, 0.0, 0.0, 0.0, 0.0, 0.0, 0.0, 0.0]"
1569268977369789455,,43866,,1569268977,312561035,"""knife_link""",,-0.59728271968,-0.125566608317,0.00983341790301,-0.792079341695,"[0.0, 0.0, 0.0, 0.0, 0.0, 0.0, 0.0, 0.0, 0.0]",,-0.107386329423,-0.0533026750601,-0.0209027550778,"[0.0, 0.0, 0.0, 0.0, 0.0, 0.0, 0.0, 0.0, 0.0]",,-2.34613155,8.90352015,2.09090385,"[0.0, 0.0, 0.0, 0.0, 0.0, 0.0, 0.0, 0.0, 0.0]"
1569268977407973466,,43867,,1569268977,369086980,"""knife_link""",,-0.594974723588,-0.124348795947,0.0100233880927,-0.794003770097,"[0.0, 0.0, 0.0, 0.0, 0.0, 0.0, 0.0, 0.0, 0.0]",,-0.105641000171,-0.0480666873041,0.0157491592142,"[0.0, 0.0, 0.0, 0.0, 0.0, 0.0, 0.0, 0.0, 0.0]",,-2.3166822,9.2078301,2.4737454,"[0.0, 0.0, 0.0, 0.0, 0.0, 0.0, 0.0, 0.0, 0.0]"
1569268977463598831,,43868,,1569268977,406975030,"""knife_link""",,-0.595176352186,-0.124226147835,0.0107487357547,-0.793862354991,"[0.0, 0.0, 0.0, 0.0, 0.0, 0.0, 0.0, 0.0, 0.0]",,0.0147867182168,-0.0236320777761,-0.0174120965738,"[0.0, 0.0, 0.0, 0.0, 0.0, 0.0, 0.0, 0.0, 0.0]",,-2.28723285,9.1489314,2.46392895,"[0.0, 0.0, 0.0, 0.0, 0.0, 0.0, 0.0, 0.0, 0.0]"
1569268977538726493,,43869,,1569268977,462299108,"""knife_link""",,-0.59526709213,-0.124328641023,0.00964743752963,-0.793792419337,"[0.0, 0.0, 0.0, 0.0, 0.0, 0.0, 0.0, 0.0, 0.0]",,0.000824084200835,0.0269824705319,0.0366931102382,"[0.0, 0.0, 0.0, 0.0, 0.0, 0.0, 0.0, 0.0, 0.0]",,-2.34613155,8.94278595,2.58172635,"[0.0, 0.0, 0.0, 0.0, 0.0, 0.0, 0.0, 0.0, 0.0]"
1569268977557314501,,43870,,1569268977,537723064,"""knife_link""",,-0.596066491674,-0.123740106373,0.00691116166725,-0.793312901334,"[0.0, 0.0, 0.0, 0.0, 0.0, 0.0, 0.0, 0.0, 0.0]",,0.0130413889648,0.0357091167919,0.0733450245302,"[0.0, 0.0, 0.0, 0.0, 0.0, 0.0, 0.0, 0.0, 0.0]",,-2.24796705,9.3648933,2.44429605,"[0.0, 0.0, 0.0, 0.0, 0.0, 0.0, 0.0, 0.0, 0.0]"
1569268977613332019,,43871,,1569268977,556548118,"""knife_link""",,-0.595958313448,-0.123733493968,0.0066051746259,-0.79339780865,"[0.0, 0.0, 0.0, 0.0, 0.0, 0.0, 0.0, 0.0, 0.0]",,-0.0288465130832,0.0269824705319,0.0401837687422,"[0.0, 0.0, 0.0, 0.0, 0.0, 0.0, 0.0, 0.0, 0.0]",,-2.2577835,9.39434265,2.4344796,"[0.0, 0.0, 0.0, 0.0, 0.0, 0.0, 0.0, 0.0, 0.0]"
1569268977669889877,,43872,,1569268977,612692117,"""knife_link""",,-0.596266525122,-0.124086278775,0.00600120605329,-0.793115888105,"[0.0, 0.0, 0.0, 0.0, 0.0, 0.0, 0.0, 0.0, 0.0]",,0.00256941345284,0.0234918120279,0.0157491592142,"[0.0, 0.0, 0.0, 0.0, 0.0, 0.0, 0.0, 0.0, 0.0]",,-2.22833415,9.2078301,2.01237225,"[0.0, 0.0, 0.0, 0.0, 0.0, 0.0, 0.0, 0.0, 0.0]"
1569268977707612365,,43873,,1569268977,669157028,"""knife_link""",,-0.595968648855,-0.123508573275,0.00575323065472,-0.793431725006,"[0.0, 0.0, 0.0, 0.0, 0.0, 0.0, 0.0, 0.0, 0.0]",,-0.0218651960752,-0.0149054315161,0.0244758054742,"[0.0, 0.0, 0.0, 0.0, 0.0, 0.0, 0.0, 0.0, 0.0]",,-2.26759995,8.8937037,2.1203532,"[0.0, 0.0, 0.0, 0.0, 0.0, 0.0, 0.0, 0.0, 0.0]"
1569268977763511571,,43874,,1569268977,706639051,"""knife_link""",,-0.594175175323,-0.122435274525,0.00432726693193,-0.794950777937,"[0.0, 0.0, 0.0, 0.0, 0.0, 0.0, 0.0, 0.0, 0.0]",,-0.137056926707,-0.00792411450805,0.0907983170502,"[0.0, 0.0, 0.0, 0.0, 0.0, 0.0, 0.0, 0.0, 0.0]",,-2.20870125,9.2863617,2.4933783,"[0.0, 0.0, 0.0, 0.0, 0.0, 0.0, 0.0, 0.0, 0.0]"
1569268977819805586,,43875,,1569268977,762666940,"""knife_link""",,-0.594004293879,-0.122288498892,0.00453114060773,-0.795099924951,"[0.0, 0.0, 0.0, 0.0, 0.0, 0.0, 0.0, 0.0, 0.0]",,-0.00615723280716,-0.00966944376005,4.11959462066e-05,"[0.0, 0.0, 0.0, 0.0, 0.0, 0.0, 0.0, 0.0, 0.0]",,-2.1792519,9.35507685,2.67989085,"[0.0, 0.0, 0.0, 0.0, 0.0, 0.0, 0.0, 0.0, 0.0]"
1569268977857288786,,43876,,1569268977,819128990,"""knife_link""",,-0.595215565526,-0.123464462947,0.00451330203116,-0.794011704605,"[0.0, 0.0, 0.0, 0.0, 0.0, 0.0, 0.0, 0.0, 0.0]",,0.0496933032568,0.0479264215559,-0.0121761088178,"[0.0, 0.0, 0.0, 0.0, 0.0, 0.0, 0.0, 0.0, 0.0]",,-2.18906835,9.23727945,2.28723285,"[0.0, 0.0, 0.0, 0.0, 0.0, 0.0, 0.0, 0.0, 0.0]"
1569268977913630220,,43877,,1569268977,856554031,"""knife_link""",,-0.596575820779,-0.123660380554,0.00493816389047,-0.792957133066,"[0.0, 0.0, 0.0, 0.0, 0.0, 0.0, 0.0, 0.0, 0.0]",,0.0776185712888,0.00778384875995,-0.00694012106179,"[0.0, 0.0, 0.0, 0.0, 0.0, 0.0, 0.0, 0.0, 0.0]",,-2.1988848,9.25691235,1.9829229,"[0.0, 0.0, 0.0, 0.0, 0.0, 0.0, 0.0, 0.0, 0.0]"
1569268977969691911,,43878,,1569268977,912830114,"""knife_link""",,-0.596630776771,-0.123502320768,0.00532801447129,-0.792937894943,"[0.0, 0.0, 0.0, 0.0, 0.0, 0.0, 0.0, 0.0, 0.0]",,-0.000921245051165,-0.00792411450805,-0.00170413330579,"[0.0, 0.0, 0.0, 0.0, 0.0, 0.0, 0.0, 0.0, 0.0]",,-2.1988848,9.21764655,2.32649865,"[0.0, 0.0, 0.0, 0.0, 0.0, 0.0, 0.0, 0.0, 0.0]"
1569268978007422353,,43879,,1569268977,968947887,"""knife_link""",,-0.597726479891,-0.123321683002,0.00578868705195,-0.792137178045,"[0.0, 0.0, 0.0, 0.0, 0.0, 0.0, 0.0, 0.0, 0.0]",,0.0462026447528,-0.00792411450805,4.11959462066e-05,"[0.0, 0.0, 0.0, 0.0, 0.0, 0.0, 0.0, 0.0, 0.0]",,-2.18906835,9.3452604,2.355948,"[0.0, 0.0, 0.0, 0.0, 0.0, 0.0, 0.0, 0.0, 0.0]"
1569268978063473224,,43880,,1569268978,6673097,"""knife_link""",,-0.598475870727,-0.123456843833,0.00590695143341,-0.791549207436,"[0.0, 0.0, 0.0, 0.0, 0.0, 0.0, 0.0, 0.0, 0.0]",,0.0462026447528,0.00778384875995,0.00178652519821,"[0.0, 0.0, 0.0, 0.0, 0.0, 0.0, 0.0, 0.0, 0.0]",,-2.18906835,9.27654525,2.3363151,"[0.0, 0.0, 0.0, 0.0, 0.0, 0.0, 0.0, 0.0, 0.0]"
1569268978119799909,,43881,,1569268978,62807083,"""knife_link""",,-0.597522664596,-0.123072832525,0.00491226462303,-0.79233554309,"[0.0, 0.0, 0.0, 0.0, 0.0, 0.0, 0.0, 0.0, 0.0]",,-0.0515357933592,0.00778384875995,0.0366931102382,"[0.0, 0.0, 0.0, 0.0, 0.0, 0.0, 0.0, 0.0, 0.0]",,-2.18906835,9.2863617,2.3363151,"[0.0, 0.0, 0.0, 0.0, 0.0, 0.0, 0.0, 0.0, 0.0]"
1569268978157435595,,43882,,1569268978,119153976,"""knife_link""",,-0.596782355601,-0.123079330218,0.00485338887184,-0.79289264288,"[0.0, 0.0, 0.0, 0.0, 0.0, 0.0, 0.0, 0.0, 0.0]",,-0.0375731593432,0.00603851950795,0.00353185445021,"[0.0, 0.0, 0.0, 0.0, 0.0, 0.0, 0.0, 0.0, 0.0]",,-2.14980255,9.33544395,2.3755809,"[0.0, 0.0, 0.0, 0.0, 0.0, 0.0, 0.0, 0.0, 0.0]"
1569268978213295859,,43883,,1569268978,156681060,"""knife_link""",,-0.595521095029,-0.12334922579,0.00455039596386,-0.793800282041,"[0.0, 0.0, 0.0, 0.0, 0.0, 0.0, 0.0, 0.0, 0.0]",,-0.0916783661552,0.0200011535239,0.00353185445021,"[0.0, 0.0, 0.0, 0.0, 0.0, 0.0, 0.0, 0.0, 0.0]",,-2.1792519,9.2863617,2.3363151,"[0.0, 0.0, 0.0, 0.0, 0.0, 0.0, 0.0, 0.0, 0.0]"
1569268978269821046,,43884,,1569268978,212718963,"""knife_link""",,-0.596454756785,-0.123222524206,0.00549588870441,-0.793112682942,"[0.0, 0.0, 0.0, 0.0, 0.0, 0.0, 0.0, 0.0, 0.0]",,0.0444573155008,-0.0114147730121,-0.0139214380698,"[0.0, 0.0, 0.0, 0.0, 0.0, 0.0, 0.0, 0.0, 0.0]",,-2.1792519,9.2470959,2.60135925,"[0.0, 0.0, 0.0, 0.0, 0.0, 0.0, 0.0, 0.0, 0.0]"
1569268978307890172,,43885,,1569268978,269046068,"""knife_link""",,-0.596451755835,-0.123851502844,0.00502615403211,-0.793020079178,"[0.0, 0.0, 0.0, 0.0, 0.0, 0.0, 0.0, 0.0, 0.0]",,-0.00790256205916,0.0339637875399,0.00527718370221,"[0.0, 0.0, 0.0, 0.0, 0.0, 0.0, 0.0, 0.0, 0.0]",,-2.1792519,9.3059946,2.1988848,"[0.0, 0.0, 0.0, 0.0, 0.0, 0.0, 0.0, 0.0, 0.0]"
1569268978363436659,,43886,,1569268978,306967973,"""knife_link""",,-0.595926211254,-0.123671457809,0.00521384112762,-0.793441955737,"[0.0, 0.0, 0.0, 0.0, 0.0, 0.0, 0.0, 0.0, 0.0]",,-0.0410638178472,-0.0131601022641,0.00178652519821,"[0.0, 0.0, 0.0, 0.0, 0.0, 0.0, 0.0, 0.0, 0.0]",,-2.1792519,9.1489314,2.28723285,"[0.0, 0.0, 0.0, 0.0, 0.0, 0.0, 0.0, 0.0, 0.0]"
1569268978420029423,,43887,,1569268978,362577915,"""knife_link""",,-0.594976196277,-0.123197918972,0.00540665475102,-0.794226898757,"[0.0, 0.0, 0.0, 0.0, 0.0, 0.0, 0.0, 0.0, 0.0]",,-0.0475646835066,-0.0164842531604,0.00522441186518,"[0.0, 0.0, 0.0, 0.0, 0.0, 0.0, 0.0, 0.0, 0.0]",,-2.16943545,9.3452604,2.40503025,"[0.0, 0.0, 0.0, 0.0, 0.0, 0.0, 0.0, 0.0, 0.0]"
1569268978457063243,,43888,,1569268978,419235944,"""knife_link""",,-0.594544013202,-0.122361022106,0.00634658579888,-0.79467283676,"[0.0, 0.0, 0.0, 0.0, 0.0, 0.0, 0.0, 0.0, 0.0]",,-0.0213847447266,-0.0339375456804,-0.00350223439482,"[0.0, 0.0, 0.0, 0.0, 0.0, 0.0, 0.0, 0.0, 0.0]",,-2.1792519,9.2078301,2.48356185,"[0.0, 0.0, 0.0, 0.0, 0.0, 0.0, 0.0, 0.0, 0.0]"
1569268978513243936,,43889,,1569268978,456352949,"""knife_link""",,-0.593787459935,-0.121791172354,0.00662000186426,-0.79532354318,"[0.0, 0.0, 0.0, 0.0, 0.0, 0.0, 0.0, 0.0, 0.0]",,-0.0562913297666,-0.0269562286724,0.00871507036918,"[0.0, 0.0, 0.0, 0.0, 0.0, 0.0, 0.0, 0.0, 0.0]",,-2.1399861,9.37470975,2.54246055,"[0.0, 0.0, 0.0, 0.0, 0.0, 0.0, 0.0, 0.0, 0.0]"
1569268978570768522,,43890,,1569268978,512605905,"""knife_link""",,-0.593762839946,-0.121449568435,0.00716678045114,-0.795389420023,"[0.0, 0.0, 0.0, 0.0, 0.0, 0.0, 0.0, 0.0, 0.0]",,0.00130453554939,-0.0129935946564,-0.00175690514282,"[0.0, 0.0, 0.0, 0.0, 0.0, 0.0, 0.0, 0.0, 0.0]",,-2.18906835,9.13911495,2.73878955,"[0.0, 0.0, 0.0, 0.0, 0.0, 0.0, 0.0, 0.0, 0.0]"
1569268978607423744,,43891,,1569268978,569947957,"""knife_link""",,-0.593838208146,-0.121752058916,0.00720397561034,-0.795286565604,"[0.0, 0.0, 0.0, 0.0, 0.0, 0.0, 0.0, 0.0, 0.0]",,-0.000440793702613,0.0131863441236,-0.00350223439482,"[0.0, 0.0, 0.0, 0.0, 0.0, 0.0, 0.0, 0.0, 0.0]",,-2.1399861,9.49250715,2.46392895,"[0.0, 0.0, 0.0, 0.0, 0.0, 0.0, 0.0, 0.0, 0.0]"
1569268978663744148,,43892,,1569268978,606586933,"""knife_link""",,-0.594155553285,-0.122013969145,0.00751113332613,-0.795006511112,"[0.0, 0.0, 0.0, 0.0, 0.0, 0.0, 0.0, 0.0, 0.0]",,0.0187578280694,0.0166770026276,-0.0104835514028,"[0.0, 0.0, 0.0, 0.0, 0.0, 0.0, 0.0, 0.0, 0.0]",,-2.16943545,9.19801365,2.4737454,"[0.0, 0.0, 0.0, 0.0, 0.0, 0.0, 0.0, 0.0, 0.0]"
1569268978719965156,,43893,,1569268978,662872076,"""knife_link""",,-0.595577600887,-0.121867467236,0.00861638619692,-0.793953021053,"[0.0, 0.0, 0.0, 0.0, 0.0, 0.0, 0.0, 0.0, 0.0]",,0.0606457301174,-0.00950293615237,-0.0157195391588,"[0.0, 0.0, 0.0, 0.0, 0.0, 0.0, 0.0, 0.0, 0.0]",,-2.159619,9.3256275,2.3755809,"[0.0, 0.0, 0.0, 0.0, 0.0, 0.0, 0.0, 0.0, 0.0]"
1569268978757247551,,43894,,1569268978,719296932,"""knife_link""",,-0.595055223086,-0.121949597742,0.00887208792768,-0.794329190666,"[0.0, 0.0, 0.0, 0.0, 0.0, 0.0, 0.0, 0.0, 0.0]",,-0.0248754032306,-0.000776289892373,-0.00524756364682,"[0.0, 0.0, 0.0, 0.0, 0.0, 0.0, 0.0, 0.0, 0.0]",,-2.2185177,9.11948205,2.4148467,"[0.0, 0.0, 0.0, 0.0, 0.0, 0.0, 0.0, 0.0, 0.0]"
1569268978813611627,,43895,,1569268978,756520986,"""knife_link""",,-0.594372041859,-0.121776480992,0.00913250669689,-0.79486411534,"[0.0, 0.0, 0.0, 0.0, 0.0, 0.0, 0.0, 0.0, 0.0]",,-0.0458193542546,-0.00775760690037,-0.00175690514282,"[0.0, 0.0, 0.0, 0.0, 0.0, 0.0, 0.0, 0.0, 0.0]",,-2.16943545,9.2078301,2.6308086,"[0.0, 0.0, 0.0, 0.0, 0.0, 0.0, 0.0, 0.0, 0.0]"
1569268978869871488,,43896,,1569268978,812865018,"""knife_link""",,-0.594410019317,-0.120808181552,0.00943921973687,-0.794979882347,"[0.0, 0.0, 0.0, 0.0, 0.0, 0.0, 0.0, 0.0, 0.0]",,-0.00393145220661,-0.0321922164284,0.0174417166292,"[0.0, 0.0, 0.0, 0.0, 0.0, 0.0, 0.0, 0.0, 0.0]",,-2.1792519,8.9722353,2.32649865,"[0.0, 0.0, 0.0, 0.0, 0.0, 0.0, 0.0, 0.0, 0.0]"
1569268978907319092,,43897,,1569268978,869206905,"""knife_link""",,-0.592395760665,-0.120123496944,0.00866298784486,-0.796594351517,"[0.0, 0.0, 0.0, 0.0, 0.0, 0.0, 0.0, 0.0, 0.0]",,-0.0981792318146,-0.000776289892373,0.0331496798972,"[0.0, 0.0, 0.0, 0.0, 0.0, 0.0, 0.0, 0.0, 0.0]",,-2.11053675,9.3452604,2.56209345,"[0.0, 0.0, 0.0, 0.0, 0.0, 0.0, 0.0, 0.0, 0.0]"
1569268978963476692,,43898,,1569268978,906573057,"""knife_link""",,-0.592676741231,-0.119941067689,0.00944531190673,-0.796403921869,"[0.0, 0.0, 0.0, 0.0, 0.0, 0.0, 0.0, 0.0, 0.0]",,0.0205031573214,-0.0147389239084,-0.0192101976628,"[0.0, 0.0, 0.0, 0.0, 0.0, 0.0, 0.0, 0.0, 0.0]",,-2.1203532,9.53177295,2.75842245,"[0.0, 0.0, 0.0, 0.0, 0.0, 0.0, 0.0, 0.0, 0.0]"
1569268979020539655,,43899,,1569268978,962791919,"""knife_link""",,-0.593371275549,-0.120485060015,0.0102897673309,-0.795793943401,"[0.0, 0.0, 0.0, 0.0, 0.0, 0.0, 0.0, 0.0, 0.0]",,0.0327204620854,0.00445969786363,-0.0261915146708,"[0.0, 0.0, 0.0, 0.0, 0.0, 0.0, 0.0, 0.0, 0.0]",,-2.2185177,8.9918682,2.4344796,"[0.0, 0.0, 0.0, 0.0, 0.0, 0.0, 0.0, 0.0, 0.0]"
1569268979057288803,,43900,,1569268979,19570112,"""knife_link""",,-0.593350268856,-0.11900689466,0.0107224002155,-0.79602628575,"[0.0, 0.0, 0.0, 0.0, 0.0, 0.0, 0.0, 0.0, 0.0]",,-0.00567678145861,-0.0461548504444,0.0244230336372,"[0.0, 0.0, 0.0, 0.0, 0.0, 0.0, 0.0, 0.0, 0.0]",,-2.159619,9.0507669,2.50319475,"[0.0, 0.0, 0.0, 0.0, 0.0, 0.0, 0.0, 0.0, 0.0]"
1569268979113503659,,43901,,1569268979,56690931,"""knife_link""",,-0.592301754676,-0.11810559704,0.0106276260566,-0.796942126455,"[0.0, 0.0, 0.0, 0.0, 0.0, 0.0, 0.0, 0.0, 0.0]",,-0.0772352807906,-0.0321922164284,0.0331496798972,"[0.0, 0.0, 0.0, 0.0, 0.0, 0.0, 0.0, 0.0, 0.0]",,-2.1203532,9.33544395,2.66025795,"[0.0, 0.0, 0.0, 0.0, 0.0, 0.0, 0.0, 0.0, 0.0]"
1569268979169972181,,43902,,1569268979,112747907,"""knife_link""",,-0.592805956732,-0.117382497669,0.0115410407662,-0.796661315292,"[0.0, 0.0, 0.0, 0.0, 0.0, 0.0, 0.0, 0.0, 0.0]",,0.0222484865734,-0.0304468871764,-0.00350223439482,"[0.0, 0.0, 0.0, 0.0, 0.0, 0.0, 0.0, 0.0, 0.0]",,-2.13016965,9.27654525,2.64062505,"[0.0, 0.0, 0.0, 0.0, 0.0, 0.0, 0.0, 0.0, 0.0]"
1569268979207319988,,43903,,1569268979,169209957,"""knife_link""",,-0.591862362532,-0.116778187445,0.0118252514748,-0.797447153222,"[0.0, 0.0, 0.0, 0.0, 0.0, 0.0, 0.0, 0.0, 0.0]",,-0.0475646835066,-0.0129935946564,0.00871507036918,"[0.0, 0.0, 0.0, 0.0, 0.0, 0.0, 0.0, 0.0, 0.0]",,-2.11053675,9.04095045,2.46392895,"[0.0, 0.0, 0.0, 0.0, 0.0, 0.0, 0.0, 0.0, 0.0]"
1569268979263512352,,43904,,1569268979,206705093,"""knife_link""",,-0.590865039281,-0.115563153996,0.0118579490907,-0.798362731994,"[0.0, 0.0, 0.0, 0.0, 0.0, 0.0, 0.0, 0.0, 0.0]",,-0.0754899515386,-0.0479001796964,0.0401309969052,"[0.0, 0.0, 0.0, 0.0, 0.0, 0.0, 0.0, 0.0, 0.0]",,-2.1203532,9.13911495,2.58172635,"[0.0, 0.0, 0.0, 0.0, 0.0, 0.0, 0.0, 0.0, 0.0]"
1569268979319579854,,43905,,1569268979,262842893,"""knife_link""",,-0.587664847766,-0.113834358299,0.0102515915437,-0.800991055157,"[0.0, 0.0, 0.0, 0.0, 0.0, 0.0, 0.0, 0.0, 0.0]",,-0.150539109375,-0.0182295824124,0.0750375819452,"[0.0, 0.0, 0.0, 0.0, 0.0, 0.0, 0.0, 0.0, 0.0]",,-2.0418216,9.21764655,2.99401725,"[0.0, 0.0, 0.0, 0.0, 0.0, 0.0, 0.0, 0.0, 0.0]"
1569268979357575763,,43906,,1569268979,318783044,"""knife_link""",,-0.584738222183,-0.113976934549,0.00839602101237,-0.803131357089,"[0.0, 0.0, 0.0, 0.0, 0.0, 0.0, 0.0, 0.0, 0.0]",,-0.141812463115,0.0376209536516,0.0436216554092,"[0.0, 0.0, 0.0, 0.0, 0.0, 0.0, 0.0, 0.0, 0.0]",,-2.07127095,9.2863617,2.6308086,"[0.0, 0.0, 0.0, 0.0, 0.0, 0.0, 0.0, 0.0, 0.0]"
1569268979413542065,,43907,,1569268979,356796979,"""knife_link""",,-0.583627215486,-0.113068037506,0.00942078418476,-0.804056055921,"[0.0, 0.0, 0.0, 0.0, 0.0, 0.0, 0.0, 0.0, 0.0]",,-0.0842165977986,-0.0583721552084,-0.0139742099068,"[0.0, 0.0, 0.0, 0.0, 0.0, 0.0, 0.0, 0.0, 0.0]",,-1.99273935,9.423792,2.50319475,"[0.0, 0.0, 0.0, 0.0, 0.0, 0.0, 0.0, 0.0, 0.0]"
1569268979469463654,,43908,,1569268979,412609100,"""knife_link""",,-0.580885476568,-0.111600925523,0.0109188206513,-0.806224581547,"[0.0, 0.0, 0.0, 0.0, 0.0, 0.0, 0.0, 0.0, 0.0]",,-0.119123182839,-0.0705894599724,-0.0157195391588,"[0.0, 0.0, 0.0, 0.0, 0.0, 0.0, 0.0, 0.0, 0.0]",,-2.0221887,9.00168465,2.97438435,"[0.0, 0.0, 0.0, 0.0, 0.0, 0.0, 0.0, 0.0, 0.0]"
1569268979508627607,,43909,,1569268979,468750953,"""knife_link""",,-0.580869962654,-0.110606239279,0.0122646883016,-0.806353473199,"[0.0, 0.0, 0.0, 0.0, 0.0, 0.0, 0.0, 0.0, 0.0]",,0.00304986480139,-0.0426641919404,-0.0104835514028,"[0.0, 0.0, 0.0, 0.0, 0.0, 0.0, 0.0, 0.0, 0.0]",,-2.0810874,9.2470959,3.1805298,"[0.0, 0.0, 0.0, 0.0, 0.0, 0.0, 0.0, 0.0, 0.0]"
1569268979563507467,,43910,,1569268979,507384061,"""knife_link""",,-0.580360905488,-0.110602176798,0.0130697708417,-0.806707852298,"[0.0, 0.0, 0.0, 0.0, 0.0, 0.0, 0.0, 0.0, 0.0]",,-0.0370927079946,-0.00775760690037,-0.0261915146708,"[0.0, 0.0, 0.0, 0.0, 0.0, 0.0, 0.0, 0.0, 0.0]",,-2.0221887,9.13911495,2.73878955,"[0.0, 0.0, 0.0, 0.0, 0.0, 0.0, 0.0, 0.0, 0.0]"
1569268979619989333,,43911,,1569268979,562573909,"""knife_link""",,-0.581739534903,-0.110885320721,0.0140422966956,-0.805658968226,"[0.0, 0.0, 0.0, 0.0, 0.0, 0.0, 0.0, 0.0, 0.0]",,0.0641363886214,0.00620502711563,-0.0209555269148,"[0.0, 0.0, 0.0, 0.0, 0.0, 0.0, 0.0, 0.0, 0.0]",,-2.09090385,9.00168465,2.93511855,"[0.0, 0.0, 0.0, 0.0, 0.0, 0.0, 0.0, 0.0, 0.0]"
1569268979657449661,,43912,,1569268979,619054079,"""knife_link""",,-0.582676362122,-0.111192312618,0.0133451330531,-0.804951199802,"[0.0, 0.0, 0.0, 0.0, 0.0, 0.0, 0.0, 0.0, 0.0]",,0.0397017790934,0.0323849658956,0.0209323751332,"[0.0, 0.0, 0.0, 0.0, 0.0, 0.0, 0.0, 0.0, 0.0]",,-2.0221887,9.1292985,3.0430995,"[0.0, 0.0, 0.0, 0.0, 0.0, 0.0, 0.0, 0.0, 0.0]"
1569268979713626226,,43913,,1569268979,656774997,"""knife_link""",,-0.583728069926,-0.112106800868,0.0122332067063,-0.804079569591,"[0.0, 0.0, 0.0, 0.0, 0.0, 0.0, 0.0, 0.0, 0.0]",,0.0658817178734,0.10568879448,0.0401309969052,"[0.0, 0.0, 0.0, 0.0, 0.0, 0.0, 0.0, 0.0, 0.0]",,-2.11053675,8.8937037,3.05291595,"[0.0, 0.0, 0.0, 0.0, 0.0, 0.0, 0.0, 0.0, 0.0]"
1569268979769838057,,43914,,1569268979,712791919,"""knife_link""",,-0.591017167352,-0.112418914185,0.0113086613946,-0.798706961161,"[0.0, 0.0, 0.0, 0.0, 0.0, 0.0, 0.0, 0.0, 0.0]",,0.313718471657,0.0690368801876,0.0523483016692,"[0.0, 0.0, 0.0, 0.0, 0.0, 0.0, 0.0, 0.0, 0.0]",,-1.99273935,9.57103875,2.7878718,"[0.0, 0.0, 0.0, 0.0, 0.0, 0.0, 0.0, 0.0, 0.0]"
1569268979807511674,,43915,,1569268979,768948078,"""knife_link""",,-0.595425651424,-0.114207080627,0.011402267988,-0.795169808686,"[0.0, 0.0, 0.0, 0.0, 0.0, 0.0, 0.0, 0.0, 0.0]",,0.196781411773,0.0725275386916,-0.0209555269148,"[0.0, 0.0, 0.0, 0.0, 0.0, 0.0, 0.0, 0.0, 0.0]",,-2.0025558,9.4630578,2.5915428,"[0.0, 0.0, 0.0, 0.0, 0.0, 0.0, 0.0, 0.0, 0.0]"
1569268979863507291,,43916,,1569268979,806683063,"""knife_link""",,-0.602022502599,-0.115570710107,0.0123707190819,-0.789974229098,"[0.0, 0.0, 0.0, 0.0, 0.0, 0.0, 0.0, 0.0, 0.0]",,0.448108824061,0.0777635264476,-0.0401541486868,"[0.0, 0.0, 0.0, 0.0, 0.0, 0.0, 0.0, 0.0, 0.0]",,-2.09090385,9.51214005,2.66025795,"[0.0, 0.0, 0.0, 0.0, 0.0, 0.0, 0.0, 0.0, 0.0]"
1569268979919840209,,43917,,1569268979,862771034,"""knife_link""",,-0.613947565797,-0.119740771682,0.0138653014456,-0.780088640774,"[0.0, 0.0, 0.0, 0.0, 0.0, 0.0, 0.0, 0.0, 0.0]",,0.561555225441,0.142340708772,-0.0837873799868,"[0.0, 0.0, 0.0, 0.0, 0.0, 0.0, 0.0, 0.0, 0.0]",,-2.09090385,9.5415894,2.81732115,"[0.0, 0.0, 0.0, 0.0, 0.0, 0.0, 0.0, 0.0, 0.0]"
1569268979957346492,,43918,,1569268979,919002056,"""knife_link""",,-0.6299615932,-0.126282706674,0.0165458655716,-0.766111808694,"[0.0, 0.0, 0.0, 0.0, 0.0, 0.0, 0.0, 0.0, 0.0]",,0.760522760169,0.191209927828,-0.157091208571,"[0.0, 0.0, 0.0, 0.0, 0.0, 0.0, 0.0, 0.0, 0.0]",,-2.1203532,9.80663355,1.93384065,"[0.0, 0.0, 0.0, 0.0, 0.0, 0.0, 0.0, 0.0, 0.0]"
1569268980013694929,,43919,,1569268979,956701040,"""knife_link""",,-0.643761285662,-0.131032906989,0.0211559727289,-0.753627367594,"[0.0, 0.0, 0.0, 0.0, 0.0, 0.0, 0.0, 0.0, 0.0]",,0.997887538441,0.130123404008,-0.268792280699,"[0.0, 0.0, 0.0, 0.0, 0.0, 0.0, 0.0, 0.0, 0.0]",,-2.2381506,10.2287409,1.12889175,"[0.0, 0.0, 0.0, 0.0, 0.0, 0.0, 0.0, 0.0, 0.0]"
1569268980069747582,,43920,,1569268980,13092041,"""knife_link""",,-0.651989201076,-0.141798291829,0.0303137329668,-0.744234105446,"[0.0, 0.0, 0.0, 0.0, 0.0, 0.0, 0.0, 0.0, 0.0]",,0.472543433589,0.11441544074,-0.462523827671,"[0.0, 0.0, 0.0, 0.0, 0.0, 0.0, 0.0, 0.0, 0.0]",,-2.34613155,11.31836685,1.32522075,"[0.0, 0.0, 0.0, 0.0, 0.0, 0.0, 0.0, 0.0, 0.0]"
1569268980106869186,,43921,,1569268980,68996906,"""knife_link""",,-0.648869517719,-0.162942281764,0.0444335215662,-0.741919014415,"[0.0, 0.0, 0.0, 0.0, 0.0, 0.0, 0.0, 0.0, 0.0]",,0.0257391450774,0.220880525112,-0.890129494411,"[0.0, 0.0, 0.0, 0.0, 0.0, 0.0, 0.0, 0.0, 0.0]",,-2.5326441,12.12331575,0.91292985,"[0.0, 0.0, 0.0, 0.0, 0.0, 0.0, 0.0, 0.0, 0.0]"
1569268980163830589,,43922,,1569268980,106220006,"""knife_link""",,-0.658221037178,-0.153686853986,0.0493632664971,-0.73531536435,"[0.0, 0.0, 0.0, 0.0, 0.0, 0.0, 0.0, 0.0, 0.0]",,0.699436236349,-0.498195126712,0.181502666317,"[0.0, 0.0, 0.0, 0.0, 0.0, 0.0, 0.0, 0.0, 0.0]",,-2.16943545,8.11820415,1.5509991,"[0.0, 0.0, 0.0, 0.0, 0.0, 0.0, 0.0, 0.0, 0.0]"
1569268980219663732,,43923,,1569268980,162894010,"""knife_link""",,-0.668373852548,-0.141063017215,0.0412203892083,-0.729162874753,"[0.0, 0.0, 0.0, 0.0, 0.0, 0.0, 0.0, 0.0, 0.0]",,0.394003617249,-0.12120400828,0.546276479985,"[0.0, 0.0, 0.0, 0.0, 0.0, 0.0, 0.0, 0.0, 0.0]",,-3.2197956,11.7993729,2.0025558,"[0.0, 0.0, 0.0, 0.0, 0.0, 0.0, 0.0, 0.0, 0.0]"
