rosbagTimestamp,header,seq,stamp,secs,nsecs,frame_id,orientation,x,y,z,w,orientation_covariance,angular_velocity,x,y,z,angular_velocity_covariance,linear_acceleration,x,y,z,linear_acceleration_covariance
1569250005411888679,,53368,,1569250005,346209049,"""knife_link""",,0.536599757608,0.29682017193,0.149567712669,0.775621031817,"[0.0, 0.0, 0.0, 0.0, 0.0, 0.0, 0.0, 0.0, 0.0]",,0.0377334398782,-0.0121842567818,0.0224933833807,"[0.0, 0.0, 0.0, 0.0, 0.0, 0.0, 0.0, 0.0, 0.0]",,-1.177974,9.64957035,-0.06871515,"[0.0, 0.0, 0.0, 0.0, 0.0, 0.0, 0.0, 0.0, 0.0]"
1569250005517007455,,53369,,1569250005,409914016,"""knife_link""",,0.53805533121,0.298592189046,0.151606383737,0.773533883942,"[0.0, 0.0, 0.0, 0.0, 0.0, 0.0, 0.0, 0.0, 0.0]",,0.0569320616502,-0.0436001833178,-0.0193945186673,"[0.0, 0.0, 0.0, 0.0, 0.0, 0.0, 0.0, 0.0, 0.0]",,-1.26632205,9.8360829,-0.3730251,"[0.0, 0.0, 0.0, 0.0, 0.0, 0.0, 0.0, 0.0, 0.0]"
1569250005519679850,,53370,,1569250005,516216039,"""knife_link""",,0.537430271044,0.299342352574,0.153878995204,0.773229664819,"[0.0, 0.0, 0.0, 0.0, 0.0, 0.0, 0.0, 0.0, 0.0]",,-0.0163717669338,-0.0418548540658,-0.0141585309113,"[0.0, 0.0, 0.0, 0.0, 0.0, 0.0, 0.0, 0.0, 0.0]",,-1.2368727,9.5415894,-0.1177974,"[0.0, 0.0, 0.0, 0.0, 0.0, 0.0, 0.0, 0.0, 0.0]"
1569250005587675270,,53371,,1569250005,518659114,"""knife_link""",,0.537422702145,0.301465070121,0.15755913545,0.771667525267,"[0.0, 0.0, 0.0, 0.0, 0.0, 0.0, 0.0, 0.0, 0.0]",,0.0988199636982,-0.0453455125698,-0.0124132016593,"[0.0, 0.0, 0.0, 0.0, 0.0, 0.0, 0.0, 0.0, 0.0]",,-1.2172398,9.7182855,0.0,"[0.0, 0.0, 0.0, 0.0, 0.0, 0.0, 0.0, 0.0, 0.0]"
1569250005730826478,,53372,,1569250005,586555957,"""knife_link""",,0.540644447112,0.302617123851,0.159019411951,0.768660708493,"[0.0, 0.0, 0.0, 0.0, 0.0, 0.0, 0.0, 0.0, 0.0]",,0.111037268462,-0.0627988050898,0.00154943235673,"[0.0, 0.0, 0.0, 0.0, 0.0, 0.0, 0.0, 0.0, 0.0]",,-1.26632205,9.72810195,-0.3533922,"[0.0, 0.0, 0.0, 0.0, 0.0, 0.0, 0.0, 0.0, 0.0]"
1569250005732555014,,53373,,1569250005,729501008,"""knife_link""",,0.537011234879,0.305224322534,0.162785772453,0.769387963796,"[0.0, 0.0, 0.0, 0.0, 0.0, 0.0, 0.0, 0.0, 0.0]",,-0.0547690104778,0.00352370648623,-0.0228851771713,"[0.0, 0.0, 0.0, 0.0, 0.0, 0.0, 0.0, 0.0, 0.0]",,-1.2172398,9.620121,-0.12761385,"[0.0, 0.0, 0.0, 0.0, 0.0, 0.0, 0.0, 0.0, 0.0]"
1569250005766335444,,53374,,1569250005,731652021,"""knife_link""",,0.5369431965,0.307408843205,0.166392571849,0.767792497284,"[0.0, 0.0, 0.0, 0.0, 0.0, 0.0, 0.0, 0.0, 0.0]",,-0.0233530839418,0.00701436499023,-0.0281211649273,"[0.0, 0.0, 0.0, 0.0, 0.0, 0.0, 0.0, 0.0, 0.0]",,-1.26632205,9.7379184,-0.28467705,"[0.0, 0.0, 0.0, 0.0, 0.0, 0.0, 0.0, 0.0, 0.0]"
1569250005879370205,,53375,,1569250005,765233039,"""knife_link""",,0.536427849014,0.309518946922,0.169571036255,0.766608666767,"[0.0, 0.0, 0.0, 0.0, 0.0, 0.0, 0.0, 0.0, 0.0]",,-0.0285890716978,-0.0174202445378,-0.0316118234313,"[0.0, 0.0, 0.0, 0.0, 0.0, 0.0, 0.0, 0.0, 0.0]",,-1.20742335,9.6986526,-0.28467705,"[0.0, 0.0, 0.0, 0.0, 0.0, 0.0, 0.0, 0.0, 0.0]"
1569250005880656027,,53376,,1569250005,877795934,"""knife_link""",,0.541376715286,0.310668465363,0.169168070261,0.762744072923,"[0.0, 0.0, 0.0, 0.0, 0.0, 0.0, 0.0, 0.0, 0.0]",,0.111037268462,-0.0540721588298,-0.00892254315527,"[0.0, 0.0, 0.0, 0.0, 0.0, 0.0, 0.0, 0.0, 0.0]",,-1.34485365,9.5612223,-0.0981645,"[0.0, 0.0, 0.0, 0.0, 0.0, 0.0, 0.0, 0.0, 0.0]"
1569250005882546463,,53377,,1569250005,879646062,"""knife_link""",,0.541125694792,0.312811794004,0.172727094026,0.761247078784,"[0.0, 0.0, 0.0, 0.0, 0.0, 0.0, 0.0, 0.0, 0.0]",,-0.150762119338,0.0262129867622,-0.0159038601633,"[0.0, 0.0, 0.0, 0.0, 0.0, 0.0, 0.0, 0.0, 0.0]",,-1.2761385,9.5415894,-0.22577835,"[0.0, 0.0, 0.0, 0.0, 0.0, 0.0, 0.0, 0.0, 0.0]"
1569250006028160791,,53378,,1569250005,881479978,"""knife_link""",,0.541422051288,0.314948685321,0.176084244386,0.75938384686,"[0.0, 0.0, 0.0, 0.0, 0.0, 0.0, 0.0, 0.0, 0.0]",,0.46708443587,-0.0907240731218,0.0713626024367,"[0.0, 0.0, 0.0, 0.0, 0.0, 0.0, 0.0, 0.0, 0.0]",,-1.2172398,9.51214005,-0.4515567,"[0.0, 0.0, 0.0, 0.0, 0.0, 0.0, 0.0, 0.0, 0.0]"
1569250006090641475,,53379,,1569250006,26746988,"""knife_link""",,0.534786283742,0.314510299573,0.181653077014,0.762947614057,"[0.0, 0.0, 0.0, 0.0, 0.0, 0.0, 0.0, 0.0, 0.0]",,-0.122836851306,-0.0174202445378,-0.000195896895269,"[0.0, 0.0, 0.0, 0.0, 0.0, 0.0, 0.0, 0.0, 0.0]",,-1.2565056,9.98332965,-0.26504415,"[0.0, 0.0, 0.0, 0.0, 0.0, 0.0, 0.0, 0.0, 0.0]"
1569250006092627178,,53380,,1569250006,89710950,"""knife_link""",,0.534047473749,0.317235573093,0.183760886444,0.761831230365,"[0.0, 0.0, 0.0, 0.0, 0.0, 0.0, 0.0, 0.0, 0.0]",,-0.0058997914218,-0.00694826902577,-0.0525557744553,"[0.0, 0.0, 0.0, 0.0, 0.0, 0.0, 0.0, 0.0, 0.0]",,-1.20742335,9.4434249,-0.0981645,"[0.0, 0.0, 0.0, 0.0, 0.0, 0.0, 0.0, 0.0, 0.0]"
1569250006096701697,,53381,,1569250006,91783046,"""knife_link""",,0.533972208565,0.319382010677,0.187085118981,0.760176275605,"[0.0, 0.0, 0.0, 0.0, 0.0, 0.0, 0.0, 0.0, 0.0]",,0.0167894888542,-0.00694826902577,0.0207480541287,"[0.0, 0.0, 0.0, 0.0, 0.0, 0.0, 0.0, 0.0, 0.0]",,-1.44301815,9.57103875,-0.32394285,"[0.0, 0.0, 0.0, 0.0, 0.0, 0.0, 0.0, 0.0, 0.0]"
1569250006196680728,,53382,,1569250006,95449924,"""knife_link""",,0.53368918781,0.321428724645,0.190421630704,0.758682429181,"[0.0, 0.0, 0.0, 0.0, 0.0, 0.0, 0.0, 0.0, 0.0]",,-0.16123409485,-0.0174202445378,-0.0647730792193,"[0.0, 0.0, 0.0, 0.0, 0.0, 0.0, 0.0, 0.0, 0.0]",,-1.2172398,9.8557158,-0.40247445,"[0.0, 0.0, 0.0, 0.0, 0.0, 0.0, 0.0, 0.0, 0.0]"
1569250006198321913,,53383,,1569250006,195893049,"""knife_link""",,0.530245831322,0.32340189462,0.192250592772,0.759796211165,"[0.0, 0.0, 0.0, 0.0, 0.0, 0.0, 0.0, 0.0, 0.0]",,-0.0687316444938,-0.0209109030418,-0.0508104452033,"[0.0, 0.0, 0.0, 0.0, 0.0, 0.0, 0.0, 0.0, 0.0]",,-1.48228395,9.09984915,0.0,"[0.0, 0.0, 0.0, 0.0, 0.0, 0.0, 0.0, 0.0, 0.0]"
1569250006282186022,,53384,,1569250006,197453022,"""knife_link""",,0.530035808668,0.325332579559,0.195594473633,0.758263513622,"[0.0, 0.0, 0.0, 0.0, 0.0, 0.0, 0.0, 0.0, 0.0]",,-0.10014757103,0.0157410112502,0.0312200296407,"[0.0, 0.0, 0.0, 0.0, 0.0, 0.0, 0.0, 0.0, 0.0]",,-1.26632205,9.74773485,0.0196329,"[0.0, 0.0, 0.0, 0.0, 0.0, 0.0, 0.0, 0.0, 0.0]"
1569250006283948353,,53385,,1569250006,280966043,"""knife_link""",,0.525342492547,0.328241200146,0.200861821386,0.75889887914,"[0.0, 0.0, 0.0, 0.0, 0.0, 0.0, 0.0, 0.0, 0.0]",,-0.12632750981,0.0471569377862,-0.0228851771713,"[0.0, 0.0, 0.0, 0.0, 0.0, 0.0, 0.0, 0.0, 0.0]",,-1.1976069,9.86553225,-0.30430995,"[0.0, 0.0, 0.0, 0.0, 0.0, 0.0, 0.0, 0.0, 0.0]"
1569250006303223477,,53386,,1569250006,283289909,"""knife_link""",,0.525120478231,0.330206487943,0.204026495254,0.757354175995,"[0.0, 0.0, 0.0, 0.0, 0.0, 0.0, 0.0, 0.0, 0.0]",,-0.0774582907538,0.0139956819982,-0.0176491894153,"[0.0, 0.0, 0.0, 0.0, 0.0, 0.0, 0.0, 0.0, 0.0]",,-1.3939359,9.47287425,-0.0196329,"[0.0, 0.0, 0.0, 0.0, 0.0, 0.0, 0.0, 0.0, 0.0]"
1569250006368265711,,53387,,1569250006,302402019,"""knife_link""",,0.524529925043,0.332256974762,0.207301375123,0.755976058039,"[0.0, 0.0, 0.0, 0.0, 0.0, 0.0, 0.0, 0.0, 0.0]",,-0.0495330227218,0.0192316697542,-0.0193945186673,"[0.0, 0.0, 0.0, 0.0, 0.0, 0.0, 0.0, 0.0, 0.0]",,-1.30558785,9.7379184,-0.00981645,"[0.0, 0.0, 0.0, 0.0, 0.0, 0.0, 0.0, 0.0, 0.0]"
1569250006430787956,,53388,,1569250006,366556882,"""knife_link""",,0.523497242472,0.334822986653,0.210644525149,0.754634407351,"[0.0, 0.0, 0.0, 0.0, 0.0, 0.0, 0.0, 0.0, 0.0]",,-0.0250984131938,0.0227223282582,-0.0159038601633,"[0.0, 0.0, 0.0, 0.0, 0.0, 0.0, 0.0, 0.0, 0.0]",,-1.34485365,9.62993745,-0.10798095,"[0.0, 0.0, 0.0, 0.0, 0.0, 0.0, 0.0, 0.0, 0.0]"
1569250006494836030,,53389,,1569250006,430075883,"""knife_link""",,0.522446638896,0.336958722133,0.214276325269,0.75338833646,"[0.0, 0.0, 0.0, 0.0, 0.0, 0.0, 0.0, 0.0, 0.0]",,-0.0338250594538,0.0174863405022,-0.00194122614727,"[0.0, 0.0, 0.0, 0.0, 0.0, 0.0, 0.0, 0.0, 0.0]",,-1.374303,9.6397539,-0.12761385,"[0.0, 0.0, 0.0, 0.0, 0.0, 0.0, 0.0, 0.0, 0.0]"
1569250006516545605,,53390,,1569250006,493731975,"""knife_link""",,0.522464253687,0.338976891504,0.217770030353,0.751466555827,"[0.0, 0.0, 0.0, 0.0, 0.0, 0.0, 0.0, 0.0, 0.0]",,0.0045721840902,0.0139956819982,0.0137667371207,"[0.0, 0.0, 0.0, 0.0, 0.0, 0.0, 0.0, 0.0, 0.0]",,-1.40375235,9.6986526,-0.0392658,"[0.0, 0.0, 0.0, 0.0, 0.0, 0.0, 0.0, 0.0, 0.0]"
1569250006579466602,,53391,,1569250006,515348911,"""knife_link""",,0.522287878846,0.340938759738,0.220745564403,0.749831667453,"[0.0, 0.0, 0.0, 0.0, 0.0, 0.0, 0.0, 0.0, 0.0]",,0.0028268548382,0.0105050234942,-0.00717721390327,"[0.0, 0.0, 0.0, 0.0, 0.0, 0.0, 0.0, 0.0, 0.0]",,-1.30558785,9.68883615,0.0,"[0.0, 0.0, 0.0, 0.0, 0.0, 0.0, 0.0, 0.0, 0.0]"
1569250006706726799,,53392,,1569250006,578697919,"""knife_link""",,0.520830939466,0.34293861349,0.223947582821,0.748983123989,"[0.0, 0.0, 0.0, 0.0, 0.0, 0.0, 0.0, 0.0, 0.0]",,-0.0460423642178,0.0105050234942,-0.0159038601633,"[0.0, 0.0, 0.0, 0.0, 0.0, 0.0, 0.0, 0.0, 0.0]",,-1.3350372,9.72810195,-0.04908225,"[0.0, 0.0, 0.0, 0.0, 0.0, 0.0, 0.0, 0.0, 0.0]"
1569250006711087717,,53393,,1569250006,705835103,"""knife_link""",,0.524717427274,0.337588653176,0.230005593023,0.746862068885,"[0.0, 0.0, 0.0, 0.0, 0.0, 0.0, 0.0, 0.0, 0.0]",,0.0115535010982,-0.0697801220978,0.120231821493,"[0.0, 0.0, 0.0, 0.0, 0.0, 0.0, 0.0, 0.0, 0.0]",,-1.30558785,9.8360829,0.2944935,"[0.0, 0.0, 0.0, 0.0, 0.0, 0.0, 0.0, 0.0, 0.0]"
1569250006743203753,,53394,,1569250006,708290100,"""knife_link""",,0.524572552409,0.339355296341,0.232911462829,0.745260941273,"[0.0, 0.0, 0.0, 0.0, 0.0, 0.0, 0.0, 0.0, 0.0]",,0.0324974521222,-0.0278922200498,0.0818345779487,"[0.0, 0.0, 0.0, 0.0, 0.0, 0.0, 0.0, 0.0, 0.0]",,-1.30558785,9.7379184,0.12761385,"[0.0, 0.0, 0.0, 0.0, 0.0, 0.0, 0.0, 0.0, 0.0]"
1569250006775975490,,53395,,1569250006,741952896,"""knife_link""",,0.523611074004,0.342354599009,0.236088336785,0.743563762533,"[0.0, 0.0, 0.0, 0.0, 0.0, 0.0, 0.0, 0.0, 0.0]",,-0.0408063764618,0.0715915473142,-0.0385931404393,"[0.0, 0.0, 0.0, 0.0, 0.0, 0.0, 0.0, 0.0, 0.0]",,-1.1190753,9.27654525,-0.5693541,"[0.0, 0.0, 0.0, 0.0, 0.0, 0.0, 0.0, 0.0, 0.0]"
1569250006855772750,,53396,,1569250006,774838924,"""knife_link""",,0.525067563897,0.34407141683,0.238027449727,0.741122018726,"[0.0, 0.0, 0.0, 0.0, 0.0, 0.0, 0.0, 0.0, 0.0]",,0.11801858547,-0.0383641955618,0.0155120663727,"[0.0, 0.0, 0.0, 0.0, 0.0, 0.0, 0.0, 0.0, 0.0]",,-1.4135688,9.70846905,0.0,"[0.0, 0.0, 0.0, 0.0, 0.0, 0.0, 0.0, 0.0, 0.0]"
1569250006860170990,,53397,,1569250006,854718923,"""knife_link""",,0.526726378828,0.346191857216,0.239040113929,0.73862733755,"[0.0, 0.0, 0.0, 0.0, 0.0, 0.0, 0.0, 0.0, 0.0]",,0.0621680494062,-0.0209109030418,-0.0159038601633,"[0.0, 0.0, 0.0, 0.0, 0.0, 0.0, 0.0, 0.0, 0.0]",,-1.22705625,9.80663355,-0.14724675,"[0.0, 0.0, 0.0, 0.0, 0.0, 0.0, 0.0, 0.0, 0.0]"
1569250006920117826,,53398,,1569250006,859396934,"""knife_link""",,0.526349319541,0.348010028957,0.241691076909,0.737177615576,"[0.0, 0.0, 0.0, 0.0, 0.0, 0.0, 0.0, 0.0, 0.0]",,-0.0425517057138,-0.00520293977377,-0.0385931404393,"[0.0, 0.0, 0.0, 0.0, 0.0, 0.0, 0.0, 0.0, 0.0]",,-1.4135688,9.7379184,0.08834805,"[0.0, 0.0, 0.0, 0.0, 0.0, 0.0, 0.0, 0.0, 0.0]"
1569250006983484534,,53399,,1569250006,919188976,"""knife_link""",,0.527649922005,0.349624574488,0.24394259148,0.73473820425,"[0.0, 0.0, 0.0, 0.0, 0.0, 0.0, 0.0, 0.0, 0.0]",,0.0569320616502,-0.0139295860338,0.0172573956247,"[0.0, 0.0, 0.0, 0.0, 0.0, 0.0, 0.0, 0.0, 0.0]",,-1.2761385,9.57103875,-0.02944935,"[0.0, 0.0, 0.0, 0.0, 0.0, 0.0, 0.0, 0.0, 0.0]"
1569250007068169224,,53400,,1569250006,982397079,"""knife_link""",,0.528313712431,0.351764533136,0.246270585572,0.732459646101,"[0.0, 0.0, 0.0, 0.0, 0.0, 0.0, 0.0, 0.0, 0.0]",,0.0377334398782,0.00352370648623,-0.000195896895269,"[0.0, 0.0, 0.0, 0.0, 0.0, 0.0, 0.0, 0.0, 0.0]",,-1.14852465,9.5612223,-0.16687965,"[0.0, 0.0, 0.0, 0.0, 0.0, 0.0, 0.0, 0.0, 0.0]"
1569250007070120369,,53401,,1569250007,67111968,"""knife_link""",,0.533883758084,0.353541199252,0.245863975058,0.727686511524,"[0.0, 0.0, 0.0, 0.0, 0.0, 0.0, 0.0, 0.0, 0.0]",,0.166887804526,-0.0453455125698,0.0155120663727,"[0.0, 0.0, 0.0, 0.0, 0.0, 0.0, 0.0, 0.0, 0.0]",,-1.34485365,9.7968171,-0.1177974,"[0.0, 0.0, 0.0, 0.0, 0.0, 0.0, 0.0, 0.0, 0.0]"
1569250007197793976,,53402,,1569250007,69292068,"""knife_link""",,0.533541912411,0.355242835082,0.248503570768,0.72621039041,"[0.0, 0.0, 0.0, 0.0, 0.0, 0.0, 0.0, 0.0, 0.0]",,0.0045721840902,-0.00520293977377,-0.0228851771713,"[0.0, 0.0, 0.0, 0.0, 0.0, 0.0, 0.0, 0.0, 0.0]",,-1.16815755,9.64957035,0.08834805,"[0.0, 0.0, 0.0, 0.0, 0.0, 0.0, 0.0, 0.0, 0.0]"
1569250007198575068,,53403,,1569250007,195389986,"""knife_link""",,0.536671782955,0.357554099697,0.248266794826,0.722843040886,"[0.0, 0.0, 0.0, 0.0, 0.0, 0.0, 0.0, 0.0, 0.0]",,0.0743853541702,-0.0209109030418,-0.00892254315527,"[0.0, 0.0, 0.0, 0.0, 0.0, 0.0, 0.0, 0.0, 0.0]",,-1.4332017,9.43360845,-0.04908225,"[0.0, 0.0, 0.0, 0.0, 0.0, 0.0, 0.0, 0.0, 0.0]"
1569250007201963437,,53404,,1569250007,197356939,"""knife_link""",,0.53639898665,0.359280122287,0.250858218902,0.721293334822,"[0.0, 0.0, 0.0, 0.0, 0.0, 0.0, 0.0, 0.0, 0.0]",,0.10929193921,0.00352370648623,0.0416920051527,"[0.0, 0.0, 0.0, 0.0, 0.0, 0.0, 0.0, 0.0, 0.0]",,-1.2368727,9.6790197,-0.02944935,"[0.0, 0.0, 0.0, 0.0, 0.0, 0.0, 0.0, 0.0, 0.0]"
1569250007287785024,,53405,,1569250007,200239896,"""knife_link""",,0.536091216375,0.36105104673,0.253413595232,0.71974293962,"[0.0, 0.0, 0.0, 0.0, 0.0, 0.0, 0.0, 0.0, 0.0]",,0.0010815255862,0.0227223282582,0.00678542011273,"[0.0, 0.0, 0.0, 0.0, 0.0, 0.0, 0.0, 0.0, 0.0]",,-1.2761385,9.78700065,-0.2355948,"[0.0, 0.0, 0.0, 0.0, 0.0, 0.0, 0.0, 0.0, 0.0]"
1569250007344501454,,53406,,1569250007,286926031,"""knife_link""",,0.537975964879,0.363322809277,0.254060981323,0.71695984214,"[0.0, 0.0, 0.0, 0.0, 0.0, 0.0, 0.0, 0.0, 0.0]",,0.0691493664142,-0.0174202445378,-0.0106678724073,"[0.0, 0.0, 0.0, 0.0, 0.0, 0.0, 0.0, 0.0, 0.0]",,-1.3350372,9.5415894,-0.4122909,"[0.0, 0.0, 0.0, 0.0, 0.0, 0.0, 0.0, 0.0, 0.0]"
1569250007387352604,,53407,,1569250007,343846082,"""knife_link""",,0.538880022673,0.364646672192,0.255640647166,0.715044743453,"[0.0, 0.0, 0.0, 0.0, 0.0, 0.0, 0.0, 0.0, 0.0]",,0.0482054153902,-0.0331282078058,0.00504009086073,"[0.0, 0.0, 0.0, 0.0, 0.0, 0.0, 0.0, 0.0, 0.0]",,-1.2957714,9.64957035,-0.18651255,"[0.0, 0.0, 0.0, 0.0, 0.0, 0.0, 0.0, 0.0, 0.0]"
1569250007408337542,,53408,,1569250007,386382102,"""knife_link""",,0.539904745725,0.366418867478,0.25752466585,0.71268585336,"[0.0, 0.0, 0.0, 0.0, 0.0, 0.0, 0.0, 0.0, 0.0]",,0.0813666711782,-0.0139295860338,0.0155120663727,"[0.0, 0.0, 0.0, 0.0, 0.0, 0.0, 0.0, 0.0, 0.0]",,-1.3154043,9.45324135,-0.14724675,"[0.0, 0.0, 0.0, 0.0, 0.0, 0.0, 0.0, 0.0, 0.0]"
1569250007493253081,,53409,,1569250007,407505035,"""knife_link""",,0.539796904011,0.368353294898,0.260115337574,0.710827098327,"[0.0, 0.0, 0.0, 0.0, 0.0, 0.0, 0.0, 0.0, 0.0]",,0.0447147568862,0.0331943037702,0.0172573956247,"[0.0, 0.0, 0.0, 0.0, 0.0, 0.0, 0.0, 0.0, 0.0]",,-1.26632205,9.72810195,-0.0785316,"[0.0, 0.0, 0.0, 0.0, 0.0, 0.0, 0.0, 0.0, 0.0]"
1569250007557277985,,53410,,1569250007,492533922,"""knife_link""",,0.538283196767,0.370659746905,0.264121759874,0.709297009767,"[0.0, 0.0, 0.0, 0.0, 0.0, 0.0, 0.0, 0.0, 0.0]",,-0.0303344009498,0.0384302915262,0.0102760786167,"[0.0, 0.0, 0.0, 0.0, 0.0, 0.0, 0.0, 0.0, 0.0]",,-1.3154043,9.62993745,-0.36320865,"[0.0, 0.0, 0.0, 0.0, 0.0, 0.0, 0.0, 0.0, 0.0]"
1569250007599761947,,53411,,1569250007,556222915,"""knife_link""",,0.539898865561,0.372279118196,0.266046078653,0.706496254168,"[0.0, 0.0, 0.0, 0.0, 0.0, 0.0, 0.0, 0.0, 0.0]",,0.0656587079102,-0.0104389275298,0.0259840418847,"[0.0, 0.0, 0.0, 0.0, 0.0, 0.0, 0.0, 0.0, 0.0]",,-1.2565056,9.53177295,-0.61843635,"[0.0, 0.0, 0.0, 0.0, 0.0, 0.0, 0.0, 0.0, 0.0]"
1569250007605165195,,53412,,1569250007,598905086,"""knife_link""",,0.540218544799,0.373305200368,0.268033338354,0.70495764466,"[0.0, 0.0, 0.0, 0.0, 0.0, 0.0, 0.0, 0.0, 0.0]",,0.0237708058622,-0.0366188663098,0.0172573956247,"[0.0, 0.0, 0.0, 0.0, 0.0, 0.0, 0.0, 0.0, 0.0]",,-1.24668915,9.92443095,-0.24541125,"[0.0, 0.0, 0.0, 0.0, 0.0, 0.0, 0.0, 0.0, 0.0]"
1569250007769554435,,53413,,1569250007,600775003,"""knife_link""",,0.539751508832,0.374927727995,0.270342515303,0.703571198895,"[0.0, 0.0, 0.0, 0.0, 0.0, 0.0, 0.0, 0.0, 0.0]",,-0.0739676322498,-0.00171228126977,-0.0228851771713,"[0.0, 0.0, 0.0, 0.0, 0.0, 0.0, 0.0, 0.0, 0.0]",,-1.24668915,9.55140585,-0.18651255,"[0.0, 0.0, 0.0, 0.0, 0.0, 0.0, 0.0, 0.0, 0.0]"
1569250007770963535,,53414,,1569250007,768637895,"""knife_link""",,0.540358865881,0.375718767638,0.274112929076,0.701220226336,"[0.0, 0.0, 0.0, 0.0, 0.0, 0.0, 0.0, 0.0, 0.0]",,0.0045721840902,0.00352370648623,0.0259840418847,"[0.0, 0.0, 0.0, 0.0, 0.0, 0.0, 0.0, 0.0, 0.0]",,-1.28595495,9.5023236,-0.2748606,"[0.0, 0.0, 0.0, 0.0, 0.0, 0.0, 0.0, 0.0, 0.0]"
1569250007811913488,,53415,,1569250007,770402908,"""knife_link""",,0.539975214243,0.377317673786,0.27638992435,0.69976192435,"[0.0, 0.0, 0.0, 0.0, 0.0, 0.0, 0.0, 0.0, 0.0]",,0.0045721840902,0.0262129867622,0.0416920051527,"[0.0, 0.0, 0.0, 0.0, 0.0, 0.0, 0.0, 0.0, 0.0]",,-1.1976069,9.68883615,-0.2355948,"[0.0, 0.0, 0.0, 0.0, 0.0, 0.0, 0.0, 0.0, 0.0]"
1569250007838279868,,53416,,1569250007,811158895,"""knife_link""",,0.539666945903,0.379116476957,0.279028193865,0.697978188361,"[0.0, 0.0, 0.0, 0.0, 0.0, 0.0, 0.0, 0.0, 0.0]",,0.0080628425942,0.0244676575102,0.0172573956247,"[0.0, 0.0, 0.0, 0.0, 0.0, 0.0, 0.0, 0.0, 0.0]",,-1.26632205,9.72810195,-0.20614545,"[0.0, 0.0, 0.0, 0.0, 0.0, 0.0, 0.0, 0.0, 0.0]"
1569250007918910069,,53417,,1569250007,837263107,"""knife_link""",,0.539245730491,0.380751235313,0.281558335117,0.696396038818,"[0.0, 0.0, 0.0, 0.0, 0.0, 0.0, 0.0, 0.0, 0.0]",,-0.0058997914218,0.0227223282582,0.0207480541287,"[0.0, 0.0, 0.0, 0.0, 0.0, 0.0, 0.0, 0.0, 0.0]",,-1.22705625,9.59067165,-0.2944935,"[0.0, 0.0, 0.0, 0.0, 0.0, 0.0, 0.0, 0.0, 0.0]"
1569250007920056290,,53418,,1569250007,917675971,"""knife_link""",,0.54032707513,0.382414688063,0.283768353292,0.693744318827,"[0.0, 0.0, 0.0, 0.0, 0.0, 0.0, 0.0, 0.0, 0.0]",,0.0412240983822,0.00352370648623,0.0224933833807,"[0.0, 0.0, 0.0, 0.0, 0.0, 0.0, 0.0, 0.0, 0.0]",,-1.18779045,9.6986526,-0.36320865,"[0.0, 0.0, 0.0, 0.0, 0.0, 0.0, 0.0, 0.0, 0.0]"
1569250007984150376,,53419,,1569250007,919540882,"""knife_link""",,0.539905936861,0.383964448273,0.285909831891,0.692335503808,"[0.0, 0.0, 0.0, 0.0, 0.0, 0.0, 0.0, 0.0, 0.0]",,-0.0565143397298,0.00875969424223,-0.000195896895269,"[0.0, 0.0, 0.0, 0.0, 0.0, 0.0, 0.0, 0.0, 0.0]",,-1.16815755,9.68883615,-0.3337593,"[0.0, 0.0, 0.0, 0.0, 0.0, 0.0, 0.0, 0.0, 0.0]"
1569250008024996515,,53420,,1569250007,983556985,"""knife_link""",,0.538425963593,0.385177969619,0.288585974513,0.69170336761,"[0.0, 0.0, 0.0, 0.0, 0.0, 0.0, 0.0, 0.0, 0.0]",,-0.0460423642178,0.00352370648623,-0.00194122614727,"[0.0, 0.0, 0.0, 0.0, 0.0, 0.0, 0.0, 0.0, 0.0]",,-1.18779045,9.7575513,-0.2355948,"[0.0, 0.0, 0.0, 0.0, 0.0, 0.0, 0.0, 0.0, 0.0]"
1569250008046331938,,53421,,1569250008,23658037,"""knife_link""",,0.537329175036,0.386488376265,0.290518511732,0.691015981731,"[0.0, 0.0, 0.0, 0.0, 0.0, 0.0, 0.0, 0.0, 0.0]",,-0.0460423642178,-0.0139295860338,-0.0228851771713,"[0.0, 0.0, 0.0, 0.0, 0.0, 0.0, 0.0, 0.0, 0.0]",,-1.177974,9.62993745,-0.32394285,"[0.0, 0.0, 0.0, 0.0, 0.0, 0.0, 0.0, 0.0, 0.0]"
1569250008173396472,,53422,,1569250008,45114994,"""knife_link""",,0.537246760551,0.387854073011,0.29215179138,0.689624874203,"[0.0, 0.0, 0.0, 0.0, 0.0, 0.0, 0.0, 0.0, 0.0]",,0.0324974521222,-0.0366188663098,-0.00892254315527,"[0.0, 0.0, 0.0, 0.0, 0.0, 0.0, 0.0, 0.0, 0.0]",,-1.18779045,9.80663355,-0.2159619,"[0.0, 0.0, 0.0, 0.0, 0.0, 0.0, 0.0, 0.0, 0.0]"
1569250008176772581,,53423,,1569250008,172311067,"""knife_link""",,0.539963269498,0.388362754343,0.290205334594,0.688036992033,"[0.0, 0.0, 0.0, 0.0, 0.0, 0.0, 0.0, 0.0, 0.0]",,0.0569320616502,-0.0575628173338,-0.0141585309113,"[0.0, 0.0, 0.0, 0.0, 0.0, 0.0, 0.0, 0.0, 0.0]",,-1.2761385,9.6790197,-0.0981645,"[0.0, 0.0, 0.0, 0.0, 0.0, 0.0, 0.0, 0.0, 0.0]"
1569250008236988930,,53424,,1569250008,174236059,"""knife_link""",,0.539651610121,0.389901744937,0.292151810009,0.68658582049,"[0.0, 0.0, 0.0, 0.0, 0.0, 0.0, 0.0, 0.0, 0.0]",,0.0796213419262,-0.0436001833178,0.00504009086073,"[0.0, 0.0, 0.0, 0.0, 0.0, 0.0, 0.0, 0.0, 0.0]",,-1.1976069,9.41397555,-0.4319238,"[0.0, 0.0, 0.0, 0.0, 0.0, 0.0, 0.0, 0.0, 0.0]"
1569250008258395007,,53425,,1569250008,236001968,"""knife_link""",,0.541781601878,0.390769647951,0.292901627388,0.684090940431,"[0.0, 0.0, 0.0, 0.0, 0.0, 0.0, 0.0, 0.0, 0.0]",,0.0883479881862,-0.0453455125698,0.0259840418847,"[0.0, 0.0, 0.0, 0.0, 0.0, 0.0, 0.0, 0.0, 0.0]",,-1.1976069,9.8360829,-0.20614545,"[0.0, 0.0, 0.0, 0.0, 0.0, 0.0, 0.0, 0.0, 0.0]"
1569250008385770120,,53426,,1569250008,257407903,"""knife_link""",,0.541834644664,0.39222614926,0.294537764883,0.682511077373,"[0.0, 0.0, 0.0, 0.0, 0.0, 0.0, 0.0, 0.0, 0.0]",,0.0569320616502,-0.0244015615458,0.00329476160873,"[0.0, 0.0, 0.0, 0.0, 0.0, 0.0, 0.0, 0.0, 0.0]",,-1.18779045,9.66920325,-0.26504415,"[0.0, 0.0, 0.0, 0.0, 0.0, 0.0, 0.0, 0.0, 0.0]"
1569250008387465574,,53427,,1569250008,384826898,"""knife_link""",,0.536403251537,0.393308573618,0.299083754226,0.684199404865,"[0.0, 0.0, 0.0, 0.0, 0.0, 0.0, 0.0, 0.0, 0.0]",,-0.0966569125258,0.0227223282582,-0.0141585309113,"[0.0, 0.0, 0.0, 0.0, 0.0, 0.0, 0.0, 0.0, 0.0]",,-1.1976069,9.78700065,-0.14724675,"[0.0, 0.0, 0.0, 0.0, 0.0, 0.0, 0.0, 0.0, 0.0]"
1569250008449549003,,53428,,1569250008,386796951,"""knife_link""",,0.535937191571,0.394750122793,0.301011147156,0.682887953133,"[0.0, 0.0, 0.0, 0.0, 0.0, 0.0, 0.0, 0.0, 0.0]",,-0.0425517057138,-0.00171228126977,-0.0106678724073,"[0.0, 0.0, 0.0, 0.0, 0.0, 0.0, 0.0, 0.0, 0.0]",,-1.2368727,9.6004881,-0.20614545,"[0.0, 0.0, 0.0, 0.0, 0.0, 0.0, 0.0, 0.0, 0.0]"
1569250008512920976,,53429,,1569250008,448574066,"""knife_link""",,0.534737774911,0.39564372895,0.303935939946,0.682015026399,"[0.0, 0.0, 0.0, 0.0, 0.0, 0.0, 0.0, 0.0, 0.0]",,-0.0442970349658,0.00701436499023,0.0172573956247,"[0.0, 0.0, 0.0, 0.0, 0.0, 0.0, 0.0, 0.0, 0.0]",,-1.20742335,9.6986526,-0.24541125,"[0.0, 0.0, 0.0, 0.0, 0.0, 0.0, 0.0, 0.0, 0.0]"
1569250008556283350,,53430,,1569250008,512135982,"""knife_link""",,0.52791516003,0.395084270489,0.308458044646,0.68561478814,"[0.0, 0.0, 0.0, 0.0, 0.0, 0.0, 0.0, 0.0, 0.0]",,-0.278171154734,0.00177837723423,-0.0385931404393,"[0.0, 0.0, 0.0, 0.0, 0.0, 0.0, 0.0, 0.0, 0.0]",,-1.1976069,9.9342474,-0.4122909,"[0.0, 0.0, 0.0, 0.0, 0.0, 0.0, 0.0, 0.0, 0.0]"
1569250008558846601,,53431,,1569250008,555628061,"""knife_link""",,0.511932013399,0.392858486357,0.31730972409,0.694911765876,"[0.0, 0.0, 0.0, 0.0, 0.0, 0.0, 0.0, 0.0, 0.0]",,-0.927433636478,0.0890448398342,-0.129350261543,"[0.0, 0.0, 0.0, 0.0, 0.0, 0.0, 0.0, 0.0, 0.0]",,-1.2565056,10.0324119,0.38284155,"[0.0, 0.0, 0.0, 0.0, 0.0, 0.0, 0.0, 0.0, 0.0]"
1569250008598079817,,53432,,1569250008,557708024,"""knife_link""",,0.511343264548,0.394179994727,0.319077147115,0.693786690379,"[0.0, 0.0, 0.0, 0.0, 0.0, 0.0, 0.0, 0.0, 0.0]",,-0.180432716622,0.00352370648623,-0.141567566307,"[0.0, 0.0, 0.0, 0.0, 0.0, 0.0, 0.0, 0.0, 0.0]",,-1.34485365,9.3452604,0.40247445,"[0.0, 0.0, 0.0, 0.0, 0.0, 0.0, 0.0, 0.0, 0.0]"
1569250008705625763,,53433,,1569250008,597117900,"""knife_link""",,0.520925094373,0.398511392531,0.314041021302,0.686442971422,"[0.0, 0.0, 0.0, 0.0, 0.0, 0.0, 0.0, 0.0, 0.0]",,0.707939872646,-0.109922694894,-0.0141585309113,"[0.0, 0.0, 0.0, 0.0, 0.0, 0.0, 0.0, 0.0, 0.0]",,-1.52154975,9.29617815,0.6282528,"[0.0, 0.0, 0.0, 0.0, 0.0, 0.0, 0.0, 0.0, 0.0]"
1569250008709145770,,53434,,1569250008,704230070,"""knife_link""",,0.558770649697,0.412728747251,0.292055816836,0.657368802182,"[0.0, 0.0, 0.0, 0.0, 0.0, 0.0, 0.0, 0.0, 0.0]",,1.02035380875,-0.0854880853658,0.0190027248767,"[0.0, 0.0, 0.0, 0.0, 0.0, 0.0, 0.0, 0.0, 0.0]",,-1.22705625,9.6986526,-0.36320865,"[0.0, 0.0, 0.0, 0.0, 0.0, 0.0, 0.0, 0.0, 0.0]"
1569250008768599547,,53435,,1569250008,706415891,"""knife_link""",,0.558553607872,0.414293602556,0.293571275176,0.655892204868,"[0.0, 0.0, 0.0, 0.0, 0.0, 0.0, 0.0, 0.0, 0.0]",,0.660815982842,-0.0331282078058,-0.000195896895269,"[0.0, 0.0, 0.0, 0.0, 0.0, 0.0, 0.0, 0.0, 0.0]",,-1.374303,9.5612223,-0.36320865,"[0.0, 0.0, 0.0, 0.0, 0.0, 0.0, 0.0, 0.0, 0.0]"
1569250008811107685,,53436,,1569250008,767607927,"""knife_link""",,0.560340085078,0.418628235739,0.294765587686,0.651062698681,"[0.0, 0.0, 0.0, 0.0, 0.0, 0.0, 0.0, 0.0, 0.0]",,0.15292517051,0.0785728643222,0.00154943235673,"[0.0, 0.0, 0.0, 0.0, 0.0, 0.0, 0.0, 0.0, 0.0]",,-1.32522075,9.66920325,-0.8049489,"[0.0, 0.0, 0.0, 0.0, 0.0, 0.0, 0.0, 0.0, 0.0]"
1569250008896152509,,53437,,1569250008,809876918,"""knife_link""",,0.560765814502,0.421591635961,0.296167920039,0.648141000796,"[0.0, 0.0, 0.0, 0.0, 0.0, 0.0, 0.0, 0.0, 0.0]",,0.104055951454,0.0593742425502,-0.00543188465127,"[0.0, 0.0, 0.0, 0.0, 0.0, 0.0, 0.0, 0.0, 0.0]",,-1.4332017,9.8557158,-0.93256275,"[0.0, 0.0, 0.0, 0.0, 0.0, 0.0, 0.0, 0.0, 0.0]"
1569250008898134476,,53438,,1569250008,894980907,"""knife_link""",,0.566040772122,0.424193836862,0.294142298037,0.642757918326,"[0.0, 0.0, 0.0, 0.0, 0.0, 0.0, 0.0, 0.0, 0.0]",,0.186086426298,-0.0313828785538,0.0137667371207,"[0.0, 0.0, 0.0, 0.0, 0.0, 0.0, 0.0, 0.0, 0.0]",,-1.20742335,9.51214005,-1.3350372,"[0.0, 0.0, 0.0, 0.0, 0.0, 0.0, 0.0, 0.0, 0.0]"
1569250008959804313,,53439,,1569250008,897181987,"""knife_link""",,0.565220582502,0.425505022475,0.29591539723,0.641798447059,"[0.0, 0.0, 0.0, 0.0, 0.0, 0.0, 0.0, 0.0, 0.0]",,-0.142035473078,-0.0139295860338,-0.00368655539927,"[0.0, 0.0, 0.0, 0.0, 0.0, 0.0, 0.0, 0.0, 0.0]",,-1.4528346,9.86553225,-0.6871515,"[0.0, 0.0, 0.0, 0.0, 0.0, 0.0, 0.0, 0.0, 0.0]"
1569250009024135297,,53440,,1569250008,959052085,"""knife_link""",,0.570671088191,0.427775630418,0.293447082674,0.636577826187,"[0.0, 0.0, 0.0, 0.0, 0.0, 0.0, 0.0, 0.0, 0.0]",,0.269862230394,-0.0593081465858,0.0207480541287,"[0.0, 0.0, 0.0, 0.0, 0.0, 0.0, 0.0, 0.0, 0.0]",,-1.30558785,9.5023236,-0.8442147,"[0.0, 0.0, 0.0, 0.0, 0.0, 0.0, 0.0, 0.0, 0.0]"
1569250009044474695,,53441,,1569250009,22536993,"""knife_link""",,0.563386681288,0.426491116374,0.299787610632,0.640958784566,"[0.0, 0.0, 0.0, 0.0, 0.0, 0.0, 0.0, 0.0, 0.0]",,-0.321804386034,0.0174863405022,0.00154943235673,"[0.0, 0.0, 0.0, 0.0, 0.0, 0.0, 0.0, 0.0, 0.0]",,-1.3939359,9.6790197,-0.981645,"[0.0, 0.0, 0.0, 0.0, 0.0, 0.0, 0.0, 0.0, 0.0]"
1569250009109113858,,53442,,1569250009,43761014,"""knife_link""",,0.56183627431,0.427285610716,0.301995903334,0.640753838938,"[0.0, 0.0, 0.0, 0.0, 0.0, 0.0, 0.0, 0.0, 0.0]",,-0.145526131582,-0.0156749152858,-0.00543188465127,"[0.0, 0.0, 0.0, 0.0, 0.0, 0.0, 0.0, 0.0, 0.0]",,-1.2172398,9.5808552,-0.8834805,"[0.0, 0.0, 0.0, 0.0, 0.0, 0.0, 0.0, 0.0, 0.0]"
1569250009151840883,,53443,,1569250009,107681035,"""knife_link""",,0.558949271122,0.426683636489,0.305583695807,0.641977718867,"[0.0, 0.0, 0.0, 0.0, 0.0, 0.0, 0.0, 0.0, 0.0]",,-0.129818168314,-0.0139295860338,0.0190027248767,"[0.0, 0.0, 0.0, 0.0, 0.0, 0.0, 0.0, 0.0, 0.0]",,-1.26632205,9.9538803,-0.6871515,"[0.0, 0.0, 0.0, 0.0, 0.0, 0.0, 0.0, 0.0, 0.0]"
1569250009193807522,,53444,,1569250009,150010108,"""knife_link""",,0.556198629662,0.427356692509,0.307193021006,0.643149896661,"[0.0, 0.0, 0.0, 0.0, 0.0, 0.0, 0.0, 0.0, 0.0]",,-0.13505415607,-0.0348735370578,-0.0630277499673,"[0.0, 0.0, 0.0, 0.0, 0.0, 0.0, 0.0, 0.0, 0.0]",,-1.24668915,9.9342474,-0.7460502,"[0.0, 0.0, 0.0, 0.0, 0.0, 0.0, 0.0, 0.0, 0.0]"
1569250009299368090,,53445,,1569250009,192574977,"""knife_link""",,0.552627803575,0.428072223529,0.309903254112,0.64445066161,"[0.0, 0.0, 0.0, 0.0, 0.0, 0.0, 0.0, 0.0, 0.0]",,-0.17868738737,0.00701436499023,-0.0438291281953,"[0.0, 0.0, 0.0, 0.0, 0.0, 0.0, 0.0, 0.0, 0.0]",,-1.4135688,9.35507685,-0.42210735,"[0.0, 0.0, 0.0, 0.0, 0.0, 0.0, 0.0, 0.0, 0.0]"
1569250009302229776,,53446,,1569250009,298496961,"""knife_link""",,0.550998265705,0.429239671645,0.31162763025,0.644237871862,"[0.0, 0.0, 0.0, 0.0, 0.0, 0.0, 0.0, 0.0, 0.0]",,-0.0198624254378,3.304798223e-05,-0.0124132016593,"[0.0, 0.0, 0.0, 0.0, 0.0, 0.0, 0.0, 0.0, 0.0]",,-1.2565056,10.0324119,-0.2159619,"[0.0, 0.0, 0.0, 0.0, 0.0, 0.0, 0.0, 0.0, 0.0]"
1569250009384336587,,53447,,1569250009,301285028,"""knife_link""",,0.550095810855,0.430543974086,0.313157586113,0.643396309841,"[0.0, 0.0, 0.0, 0.0, 0.0, 0.0, 0.0, 0.0, 0.0]",,-0.18741403363,0.0192316697542,-0.129350261543,"[0.0, 0.0, 0.0, 0.0, 0.0, 0.0, 0.0, 0.0, 0.0]",,-1.4921004,9.35507685,-0.48100605,"[0.0, 0.0, 0.0, 0.0, 0.0, 0.0, 0.0, 0.0, 0.0]"
1569250009406977247,,53448,,1569250009,383486032,"""knife_link""",,0.552051101196,0.431706158985,0.31297878361,0.641025471392,"[0.0, 0.0, 0.0, 0.0, 0.0, 0.0, 0.0, 0.0, 0.0]",,0.0796213419262,-0.0296375493018,0.0120214078687,"[0.0, 0.0, 0.0, 0.0, 0.0, 0.0, 0.0, 0.0, 0.0]",,-1.4724675,9.5808552,-0.2355948,"[0.0, 0.0, 0.0, 0.0, 0.0, 0.0, 0.0, 0.0, 0.0]"
1569250009448248414,,53449,,1569250009,405121088,"""knife_link""",,0.554009897641,0.433341962323,0.312967841077,0.63823107685,"[0.0, 0.0, 0.0, 0.0, 0.0, 0.0, 0.0, 0.0, 0.0]",,0.313495461694,-0.0610534758378,0.0434373344047,"[0.0, 0.0, 0.0, 0.0, 0.0, 0.0, 0.0, 0.0, 0.0]",,-1.3939359,9.423792,-0.65770215,"[0.0, 0.0, 0.0, 0.0, 0.0, 0.0, 0.0, 0.0, 0.0]"
1569250009533786995,,53450,,1569250009,447367906,"""knife_link""",,0.550218160681,0.433574257032,0.317764007526,0.638983078663,"[0.0, 0.0, 0.0, 0.0, 0.0, 0.0, 0.0, 0.0, 0.0]",,-0.217084630914,0.0681008888102,0.0347106881447,"[0.0, 0.0, 0.0, 0.0, 0.0, 0.0, 0.0, 0.0, 0.0]",,-1.44301815,9.62993745,-0.2159619,"[0.0, 0.0, 0.0, 0.0, 0.0, 0.0, 0.0, 0.0, 0.0]"
1569250009554104617,,53451,,1569250009,532707929,"""knife_link""",,0.56476780055,0.43042706186,0.314810723527,0.629812737433,"[0.0, 0.0, 0.0, 0.0, 0.0, 0.0, 0.0, 0.0, 0.0]",,0.355383363742,-0.151810596942,0.221460918109,"[0.0, 0.0, 0.0, 0.0, 0.0, 0.0, 0.0, 0.0, 0.0]",,-2.79768825,10.29745605,0.12761385,"[0.0, 0.0, 0.0, 0.0, 0.0, 0.0, 0.0, 0.0, 0.0]"
1569250009618328704,,53452,,1569250009,553308010,"""knife_link""",,0.562375650611,0.431821885428,0.317039615553,0.62988044027,"[0.0, 0.0, 0.0, 0.0, 0.0, 0.0, 0.0, 0.0, 0.0]",,-0.17868738737,0.0593742425502,-0.0473197866993,"[0.0, 0.0, 0.0, 0.0, 0.0, 0.0, 0.0, 0.0, 0.0]",,-1.6295307,9.21764655,-0.42210735,"[0.0, 0.0, 0.0, 0.0, 0.0, 0.0, 0.0, 0.0, 0.0]"
1569250009682246913,,53453,,1569250009,617501974,"""knife_link""",,0.565111331744,0.432940965378,0.315313403597,0.627525904441,"[0.0, 0.0, 0.0, 0.0, 0.0, 0.0, 0.0, 0.0, 0.0]",,0.12674523173,-0.0750161098538,0.00154943235673,"[0.0, 0.0, 0.0, 0.0, 0.0, 0.0, 0.0, 0.0, 0.0]",,-1.5313662,9.9931461,-1.1583411,"[0.0, 0.0, 0.0, 0.0, 0.0, 0.0, 0.0, 0.0, 0.0]"
1569250009746217516,,53454,,1569250009,681041955,"""knife_link""",,0.568764329857,0.432166289522,0.314256011017,0.625286010416,"[0.0, 0.0, 0.0, 0.0, 0.0, 0.0, 0.0, 0.0, 0.0]",,0.123254573226,-0.111668024146,0.0608906269247,"[0.0, 0.0, 0.0, 0.0, 0.0, 0.0, 0.0, 0.0, 0.0]",,-1.4921004,9.78700065,-0.75586665,"[0.0, 0.0, 0.0, 0.0, 0.0, 0.0, 0.0, 0.0, 0.0]"
1569250009752164889,,53455,,1569250009,745099067,"""knife_link""",,0.5687142886,0.432903244874,0.315301282849,0.624294753745,"[0.0, 0.0, 0.0, 0.0, 0.0, 0.0, 0.0, 0.0, 0.0]",,0.0290067936182,-0.0209109030418,0.0155120663727,"[0.0, 0.0, 0.0, 0.0, 0.0, 0.0, 0.0, 0.0, 0.0]",,-1.56081555,9.19801365,0.18651255,"[0.0, 0.0, 0.0, 0.0, 0.0, 0.0, 0.0, 0.0, 0.0]"
1569250009814879384,,53456,,1569250009,751437902,"""knife_link""",,0.568530075549,0.433830968526,0.316754305054,0.623081819807,"[0.0, 0.0, 0.0, 0.0, 0.0, 0.0, 0.0, 0.0, 0.0]",,0.124999902478,-0.0837427561138,-0.0263758356753,"[0.0, 0.0, 0.0, 0.0, 0.0, 0.0, 0.0, 0.0, 0.0]",,-0.18651255,9.5808552,-0.69696795,"[0.0, 0.0, 0.0, 0.0, 0.0, 0.0, 0.0, 0.0, 0.0]"
1569250009851959880,,53457,,1569250009,813352108,"""knife_link""",,0.563642088349,0.435859150281,0.311514303331,0.628723497396,"[0.0, 0.0, 0.0, 0.0, 0.0, 0.0, 0.0, 0.0, 0.0]",,-0.0931662540218,-0.155301255446,-0.272467260207,"[0.0, 0.0, 0.0, 0.0, 0.0, 0.0, 0.0, 0.0, 0.0]",,-1.60008135,9.423792,-0.08834805,"[0.0, 0.0, 0.0, 0.0, 0.0, 0.0, 0.0, 0.0, 0.0]"
1569250009894558821,,53458,,1569250009,851013898,"""knife_link""",,0.565017811439,0.440944364475,0.310596083728,0.624382104939,"[0.0, 0.0, 0.0, 0.0, 0.0, 0.0, 0.0, 0.0, 0.0]",,0.287315522914,0.10300747385,-0.0560464329593,"[0.0, 0.0, 0.0, 0.0, 0.0, 0.0, 0.0, 0.0, 0.0]",,-2.58172635,9.031134,-0.8638476,"[0.0, 0.0, 0.0, 0.0, 0.0, 0.0, 0.0, 0.0, 0.0]"
1569250009979846277,,53459,,1569250009,893846035,"""knife_link""",,0.565134092175,0.442793257561,0.311646199605,0.622442154092,"[0.0, 0.0, 0.0, 0.0, 0.0, 0.0, 0.0, 0.0, 0.0]",,0.0778760126742,0.0192316697542,0.00504009086073,"[0.0, 0.0, 0.0, 0.0, 0.0, 0.0, 0.0, 0.0, 0.0]",,-1.58044845,10.00296255,-0.4122909,"[0.0, 0.0, 0.0, 0.0, 0.0, 0.0, 0.0, 0.0, 0.0]"
1569250010001575189,,53460,,1569250009,978842973,"""knife_link""",,0.563712650056,0.449782685714,0.308215898803,0.62042448656,"[0.0, 0.0, 0.0, 0.0, 0.0, 0.0, 0.0, 0.0, 0.0]",,0.104055951454,0.0384302915262,-0.153784871071,"[0.0, 0.0, 0.0, 0.0, 0.0, 0.0, 0.0, 0.0, 0.0]",,-0.5300883,8.51086215,-0.2748606,"[0.0, 0.0, 0.0, 0.0, 0.0, 0.0, 0.0, 0.0, 0.0]"
1569250010043472862,,53461,,1569250010,412940,"""knife_link""",,0.562487675786,0.454421387007,0.306510394242,0.618999350437,"[0.0, 0.0, 0.0, 0.0, 0.0, 0.0, 0.0, 0.0, 0.0]",,0.227974328346,0.0750822058182,-0.349261747295,"[0.0, 0.0, 0.0, 0.0, 0.0, 0.0, 0.0, 0.0, 0.0]",,-1.91420775,9.19801365,-0.8834805,"[0.0, 0.0, 0.0, 0.0, 0.0, 0.0, 0.0, 0.0, 0.0]"
1569250010110321931,,53462,,1569250010,42681932,"""knife_link""",,0.560976236872,0.462596213368,0.299752084723,0.61762374691,"[0.0, 0.0, 0.0, 0.0, 0.0, 0.0, 0.0, 0.0, 0.0]",,0.28382486441,0.0157410112502,-0.413838929619,"[0.0, 0.0, 0.0, 0.0, 0.0, 0.0, 0.0, 0.0, 0.0]",,-2.87621985,10.16002575,-0.3730251,"[0.0, 0.0, 0.0, 0.0, 0.0, 0.0, 0.0, 0.0, 0.0]"
1569250010149608497,,53463,,1569250010,109488964,"""knife_link""",,0.570959993301,0.457547562311,0.309323554894,0.607432179474,"[0.0, 0.0, 0.0, 0.0, 0.0, 0.0, 0.0, 0.0, 0.0]",,0.191322414054,0.0593742425502,0.495477610673,"[0.0, 0.0, 0.0, 0.0, 0.0, 0.0, 0.0, 0.0, 0.0]",,-2.2774164,13.69394775,-0.1570632,"[0.0, 0.0, 0.0, 0.0, 0.0, 0.0, 0.0, 0.0, 0.0]"
1569250010213370866,,53464,,1569250010,148534059,"""knife_link""",,0.568810099096,0.459594506615,0.310036336056,0.607540476825,"[0.0, 0.0, 0.0, 0.0, 0.0, 0.0, 0.0, 0.0, 0.0]",,-0.0250984131938,0.0174863405022,-0.0647730792193,"[0.0, 0.0, 0.0, 0.0, 0.0, 0.0, 0.0, 0.0, 0.0]",,-2.46392895,8.33416605,-0.2748606,"[0.0, 0.0, 0.0, 0.0, 0.0, 0.0, 0.0, 0.0, 0.0]"
1569250010255835856,,53465,,1569250010,212368965,"""knife_link""",,0.56841920932,0.460522805617,0.311126953909,0.606645173502,"[0.0, 0.0, 0.0, 0.0, 0.0, 0.0, 0.0, 0.0, 0.0]",,0.0115535010982,-0.00869359827777,0.0155120663727,"[0.0, 0.0, 0.0, 0.0, 0.0, 0.0, 0.0, 0.0, 0.0]",,-2.2774164,9.6790197,-0.91292985,"[0.0, 0.0, 0.0, 0.0, 0.0, 0.0, 0.0, 0.0, 0.0]"
1569250010298373973,,53466,,1569250010,255047082,"""knife_link""",,0.567985320934,0.461314472835,0.312048342474,0.605976455249,"[0.0, 0.0, 0.0, 0.0, 0.0, 0.0, 0.0, 0.0, 0.0]",,-0.0198624254378,-0.0313828785538,0.0120214078687,"[0.0, 0.0, 0.0, 0.0, 0.0, 0.0, 0.0, 0.0, 0.0]",,-2.0418216,9.7575513,-2.30686575,"[0.0, 0.0, 0.0, 0.0, 0.0, 0.0, 0.0, 0.0, 0.0]"
1569250010361809948,,53467,,1569250010,297357082,"""knife_link""",,0.567298182716,0.462817522271,0.313293553416,0.604830440995,"[0.0, 0.0, 0.0, 0.0, 0.0, 0.0, 0.0, 0.0, 0.0]",,0.0202801473582,0.0192316697542,0.00853074936473,"[0.0, 0.0, 0.0, 0.0, 0.0, 0.0, 0.0, 0.0, 0.0]",,-2.159619,9.4041591,-0.9031134,"[0.0, 0.0, 0.0, 0.0, 0.0, 0.0, 0.0, 0.0, 0.0]"
1569250010404334128,,53468,,1569250010,361140012,"""knife_link""",,0.564136756152,0.462438419719,0.315944617986,0.606695497504,"[0.0, 0.0, 0.0, 0.0, 0.0, 0.0, 0.0, 0.0, 0.0]",,-0.128072839062,-0.0174202445378,-0.00194122614727,"[0.0, 0.0, 0.0, 0.0, 0.0, 0.0, 0.0, 0.0, 0.0]",,-2.05163805,9.4826907,-0.9620121,"[0.0, 0.0, 0.0, 0.0, 0.0, 0.0, 0.0, 0.0, 0.0]"
1569250010447062707,,53469,,1569250010,403567075,"""knife_link""",,0.56137104917,0.46242693155,0.318659907228,0.60784845287,"[0.0, 0.0, 0.0, 0.0, 0.0, 0.0, 0.0, 0.0, 0.0]",,-0.16996074111,-0.00520293977377,0.00853074936473,"[0.0, 0.0, 0.0, 0.0, 0.0, 0.0, 0.0, 0.0, 0.0]",,-2.07127095,9.41397555,-1.374303,"[0.0, 0.0, 0.0, 0.0, 0.0, 0.0, 0.0, 0.0, 0.0]"
1569250010511247279,,53470,,1569250010,446329116,"""knife_link""",,0.562200175136,0.463793629812,0.318130261354,0.606316393341,"[0.0, 0.0, 0.0, 0.0, 0.0, 0.0, 0.0, 0.0, 0.0]",,0.111037268462,-0.0436001833178,-0.00368655539927,"[0.0, 0.0, 0.0, 0.0, 0.0, 0.0, 0.0, 0.0, 0.0]",,-2.05163805,9.5808552,-0.7460502,"[0.0, 0.0, 0.0, 0.0, 0.0, 0.0, 0.0, 0.0, 0.0]"
1569250010553705334,,53471,,1569250010,510423898,"""knife_link""",,0.546683250574,0.462480257475,0.32799464646,0.616172822251,"[0.0, 0.0, 0.0, 0.0, 0.0, 0.0, 0.0, 0.0, 0.0]",,-0.627237005134,0.0995168153462,-0.111896969023,"[0.0, 0.0, 0.0, 0.0, 0.0, 0.0, 0.0, 0.0, 0.0]",,-2.07127095,10.14039285,-1.40375235,"[0.0, 0.0, 0.0, 0.0, 0.0, 0.0, 0.0, 0.0, 0.0]"
1569250010595640575,,53472,,1569250010,552483081,"""knife_link""",,0.491240088975,0.451471676774,0.363305693529,0.650281072386,"[0.0, 0.0, 0.0, 0.0, 0.0, 0.0, 0.0, 0.0, 0.0]",,-3.45292506412,0.640568883466,-0.434782880643,"[0.0, 0.0, 0.0, 0.0, 0.0, 0.0, 0.0, 0.0, 0.0]",,-5.07510465,11.7404742,2.36576445,"[0.0, 0.0, 0.0, 0.0, 0.0, 0.0, 0.0, 0.0, 0.0]"
1569250010659706055,,53473,,1569250010,594954967,"""knife_link""",,0.483640863275,0.442395076803,0.436187650938,0.616537464036,"[0.0, 0.0, 0.0, 0.0, 0.0, 0.0, 0.0, 0.0, 0.0]",,-1.15432643924,2.21485586877,2.86039874713,"[0.0, 0.0, 0.0, 0.0, 0.0, 0.0, 0.0, 0.0, 0.0]",,-0.52027185,11.4656136,-2.4933783,"[0.0, 0.0, 0.0, 0.0, 0.0, 0.0, 0.0, 0.0, 0.0]"
1569250010702157088,,53474,,1569250010,658691883,"""knife_link""",,0.506533837461,0.425656538855,0.491714615476,0.566088967711,"[0.0, 0.0, 0.0, 0.0, 0.0, 0.0, 0.0, 0.0, 0.0]",,0.17910510929,0.87967899099,2.34378128854,"[0.0, 0.0, 0.0, 0.0, 0.0, 0.0, 0.0, 0.0, 0.0]",,0.00981645,9.09984915,-0.6871515,"[0.0, 0.0, 0.0, 0.0, 0.0, 0.0, 0.0, 0.0, 0.0]"
1569250010745180122,,53475,,1569250010,701138973,"""knife_link""",,0.492104687459,0.4319810148,0.517731479092,0.550617376216,"[0.0, 0.0, 0.0, 0.0, 0.0, 0.0, 0.0, 0.0, 0.0]",,-0.398598873122,1.40502309584,0.617650658313,"[0.0, 0.0, 0.0, 0.0, 0.0, 0.0, 0.0, 0.0, 0.0]",,-1.16815755,7.9709574,0.00981645,"[0.0, 0.0, 0.0, 0.0, 0.0, 0.0, 0.0, 0.0, 0.0]"
1569250010812216441,,53476,,1569250010,743628978,"""knife_link""",,0.467782654731,0.451162899622,0.534023852981,0.540786418456,"[0.0, 0.0, 0.0, 0.0, 0.0, 0.0, 0.0, 0.0, 0.0]",,-0.271189837726,1.65460517888,-0.270721930955,"[0.0, 0.0, 0.0, 0.0, 0.0, 0.0, 0.0, 0.0, 0.0]",,-1.10925885,7.98077385,0.588987,"[0.0, 0.0, 0.0, 0.0, 0.0, 0.0, 0.0, 0.0, 0.0]"
1569250010851137677,,53477,,1569250010,810597896,"""knife_link""",,0.440095416857,0.480445057934,0.549183488595,0.52334125217,"[0.0, 0.0, 0.0, 0.0, 0.0, 0.0, 0.0, 0.0, 0.0]",,0.0656587079102,1.3666258523,-0.242796662923,"[0.0, 0.0, 0.0, 0.0, 0.0, 0.0, 0.0, 0.0, 0.0]",,-1.16815755,9.08021625,1.73751165,"[0.0, 0.0, 0.0, 0.0, 0.0, 0.0, 0.0, 0.0, 0.0]"
1569250010893100885,,53478,,1569250010,850424051,"""knife_link""",,0.429718877197,0.494755116068,0.555057010385,0.512319018705,"[0.0, 0.0, 0.0, 0.0, 0.0, 0.0, 0.0, 0.0, 0.0]",,0.245427620866,1.08039185497,-0.0979343350073,"[0.0, 0.0, 0.0, 0.0, 0.0, 0.0, 0.0, 0.0, 0.0]",,-0.63806925,10.47415215,2.4344796,"[0.0, 0.0, 0.0, 0.0, 0.0, 0.0, 0.0, 0.0, 0.0]"
1569250010957268676,,53479,,1569250010,892349958,"""knife_link""",,0.424609253085,0.504895952335,0.553608665536,0.508236662347,"[0.0, 0.0, 0.0, 0.0, 0.0, 0.0, 0.0, 0.0, 0.0]",,0.276843547402,0.476507933778,-0.248032650679,"[0.0, 0.0, 0.0, 0.0, 0.0, 0.0, 0.0, 0.0, 0.0]",,-0.6478857,10.4839686,2.1007203,"[0.0, 0.0, 0.0, 0.0, 0.0, 0.0, 0.0, 0.0, 0.0]"
1569250010999679442,,53480,,1569250010,956130027,"""knife_link""",,0.418039340731,0.512094184104,0.558228613019,0.501381563098,"[0.0, 0.0, 0.0, 0.0, 0.0, 0.0, 0.0, 0.0, 0.0]",,0.0429694276342,0.420657397714,-0.00194122614727,"[0.0, 0.0, 0.0, 0.0, 0.0, 0.0, 0.0, 0.0, 0.0]",,-0.81476535,10.9551582,2.0418216,"[0.0, 0.0, 0.0, 0.0, 0.0, 0.0, 0.0, 0.0, 0.0]"
1569250011042201770,,53481,,1569250010,998562097,"""knife_link""",,0.41975640294,0.511754029673,0.564130073454,0.49362904648,"[0.0, 0.0, 0.0, 0.0, 0.0, 0.0, 0.0, 0.0, 0.0]",,0.0359881106262,0.284521716058,0.394248514057,"[0.0, 0.0, 0.0, 0.0, 0.0, 0.0, 0.0, 0.0, 0.0]",,-0.24541125,9.9735132,1.05036015,"[0.0, 0.0, 0.0, 0.0, 0.0, 0.0, 0.0, 0.0, 0.0]"
1569250011105999130,,53482,,1569250011,41327953,"""knife_link""",,0.43119561642,0.510029379477,0.565569022515,0.483809935017,"[0.0, 0.0, 0.0, 0.0, 0.0, 0.0, 0.0, 0.0, 0.0]",,0.37981797327,-0.0453455125698,0.601942695045,"[0.0, 0.0, 0.0, 0.0, 0.0, 0.0, 0.0, 0.0, 0.0]",,0.0196329,9.21764655,1.1387082,"[0.0, 0.0, 0.0, 0.0, 0.0, 0.0, 0.0, 0.0, 0.0]"
1569250011152958769,,53483,,1569250011,105107069,"""knife_link""",,0.43674312147,0.504664638291,0.575780923044,0.472276801638,"[0.0, 0.0, 0.0, 0.0, 0.0, 0.0, 0.0, 0.0, 0.0]",,-0.0163717669338,0.165839326922,0.521657549453,"[0.0, 0.0, 0.0, 0.0, 0.0, 0.0, 0.0, 0.0, 0.0]",,0.3533922,9.5612223,1.1583411,"[0.0, 0.0, 0.0, 0.0, 0.0, 0.0, 0.0, 0.0, 0.0]"
1569250011212005422,,53484,,1569250011,151840925,"""knife_link""",,0.438378359843,0.503451165564,0.579969084391,0.466901701287,"[0.0, 0.0, 0.0, 0.0, 0.0, 0.0, 0.0, 0.0, 0.0]",,0.0115535010982,0.160603339166,0.279056783425,"[0.0, 0.0, 0.0, 0.0, 0.0, 0.0, 0.0, 0.0, 0.0]",,0.3533922,9.7968171,0.95219565,"[0.0, 0.0, 0.0, 0.0, 0.0, 0.0, 0.0, 0.0, 0.0]"
1569250011254698226,,53485,,1569250011,211333036,"""knife_link""",,0.440090996937,0.497343845044,0.587395809477,0.462531271615,"[0.0, 0.0, 0.0, 0.0, 0.0, 0.0, 0.0, 0.0, 0.0]",,-0.164724753354,0.0785728643222,0.333161990237,"[0.0, 0.0, 0.0, 0.0, 0.0, 0.0, 0.0, 0.0, 0.0]",,0.00981645,9.3845262,0.42210735,"[0.0, 0.0, 0.0, 0.0, 0.0, 0.0, 0.0, 0.0, 0.0]"
1569250011297681128,,53486,,1569250011,253817081,"""knife_link""",,0.447717181106,0.494506911681,0.590317282547,0.454464240583,"[0.0, 0.0, 0.0, 0.0, 0.0, 0.0, 0.0, 0.0, 0.0]",,0.172123792282,0.0105050234942,0.546092158981,"[0.0, 0.0, 0.0, 0.0, 0.0, 0.0, 0.0, 0.0, 0.0]",,0.02944935,8.96241885,0.36320865,"[0.0, 0.0, 0.0, 0.0, 0.0, 0.0, 0.0, 0.0, 0.0]"
1569250011360997000,,53487,,1569250011,296427965,"""knife_link""",,0.45419757061,0.497092986341,0.590709687854,0.444595540304,"[0.0, 0.0, 0.0, 0.0, 0.0, 0.0, 0.0, 0.0, 0.0]",,0.407743241302,0.14664070515,0.395993843309,"[0.0, 0.0, 0.0, 0.0, 0.0, 0.0, 0.0, 0.0, 0.0]",,0.30430995,9.0900327,0.71660085,"[0.0, 0.0, 0.0, 0.0, 0.0, 0.0, 0.0, 0.0, 0.0]"
1569250011403499227,,53488,,1569250011,360088109,"""knife_link""",,0.446592703738,0.504213710393,0.592707766979,0.441611813906,"[0.0, 0.0, 0.0, 0.0, 0.0, 0.0, 0.0, 0.0, 0.0]",,0.0342427813742,0.340372252122,-0.125859603039,"[0.0, 0.0, 0.0, 0.0, 0.0, 0.0, 0.0, 0.0, 0.0]",,0.2748606,9.64957035,0.5693541,"[0.0, 0.0, 0.0, 0.0, 0.0, 0.0, 0.0, 0.0, 0.0]"
1569250011446294075,,53489,,1569250011,402746915,"""knife_link""",,0.439498075461,0.510390248907,0.592404033471,0.442041510057,"[0.0, 0.0, 0.0, 0.0, 0.0, 0.0, 0.0, 0.0, 0.0]",,0.0167894888542,0.349098898382,-0.295156540483,"[0.0, 0.0, 0.0, 0.0, 0.0, 0.0, 0.0, 0.0, 0.0]",,0.00981645,9.06058335,0.48100605,"[0.0, 0.0, 0.0, 0.0, 0.0, 0.0, 0.0, 0.0, 0.0]"
1569250011510028295,,53490,,1569250011,445065975,"""knife_link""",,0.437326201506,0.51971756489,0.588814381245,0.438106232163,"[0.0, 0.0, 0.0, 0.0, 0.0, 0.0, 0.0, 0.0, 0.0]",,0.378072644018,0.32117363035,-0.186946126859,"[0.0, 0.0, 0.0, 0.0, 0.0, 0.0, 0.0, 0.0, 0.0]",,-0.22577835,9.3059946,0.36320865,"[0.0, 0.0, 0.0, 0.0, 0.0, 0.0, 0.0, 0.0, 0.0]"
1569250011552742014,,53491,,1569250011,508735895,"""knife_link""",,0.428280513914,0.533679260348,0.584316330623,0.436275915268,"[0.0, 0.0, 0.0, 0.0, 0.0, 0.0, 0.0, 0.0, 0.0]",,0.227974328346,0.361316203146,-0.354497735051,"[0.0, 0.0, 0.0, 0.0, 0.0, 0.0, 0.0, 0.0, 0.0]",,-0.3141264,9.81645,0.24541125,"[0.0, 0.0, 0.0, 0.0, 0.0, 0.0, 0.0, 0.0, 0.0]"
1569250011599298283,,53492,,1569250011,551464080,"""knife_link""",,0.419493004039,0.546111151071,0.581035489995,0.433804091272,"[0.0, 0.0, 0.0, 0.0, 0.0, 0.0, 0.0, 0.0, 0.0]",,0.276843547402,0.546321103858,-0.448745514659,"[0.0, 0.0, 0.0, 0.0, 0.0, 0.0, 0.0, 0.0, 0.0]",,-0.53990475,9.9931461,-0.196329,"[0.0, 0.0, 0.0, 0.0, 0.0, 0.0, 0.0, 0.0, 0.0]"
1569250011658561399,,53493,,1569250011,598357915,"""knife_link""",,0.408553530008,0.56271445548,0.580071002299,0.424209956275,"[0.0, 0.0, 0.0, 0.0, 0.0, 0.0, 0.0, 0.0, 0.0]",,0.395525936538,0.843027076698,-0.314355162255,"[0.0, 0.0, 0.0, 0.0, 0.0, 0.0, 0.0, 0.0, 0.0]",,-0.73623375,10.04222835,-0.0588987,"[0.0, 0.0, 0.0, 0.0, 0.0, 0.0, 0.0, 0.0, 0.0]"
1569250011701337105,,53494,,1569250011,657479047,"""knife_link""",,0.39012301585,0.584609221596,0.584408026066,0.405590125124,"[0.0, 0.0, 0.0, 0.0, 0.0, 0.0, 0.0, 0.0, 0.0]",,0.330948754214,1.1484596958,-0.216616724143,"[0.0, 0.0, 0.0, 0.0, 0.0, 0.0, 0.0, 0.0, 0.0]",,-0.67733505,10.63121535,-0.42210735,"[0.0, 0.0, 0.0, 0.0, 0.0, 0.0, 0.0, 0.0, 0.0]"
1569250011745309074,,53495,,1569250011,700325965,"""knife_link""",,0.374933450443,0.600758037658,0.588536473257,0.390050647447,"[0.0, 0.0, 0.0, 0.0, 0.0, 0.0, 0.0, 0.0, 0.0]",,0.313495461694,1.30902998698,-0.193927443867,"[0.0, 0.0, 0.0, 0.0, 0.0, 0.0, 0.0, 0.0, 0.0]",,-0.81476535,10.37598765,-0.392658,"[0.0, 0.0, 0.0, 0.0, 0.0, 0.0, 0.0, 0.0, 0.0]"
1569250011811025339,,53496,,1569250011,744415998,"""knife_link""",,0.362511092306,0.619733122242,0.591807366726,0.36644318228,"[0.0, 0.0, 0.0, 0.0, 0.0, 0.0, 0.0, 0.0, 0.0]",,0.594493471266,1.46610961966,0.0382013466487,"[0.0, 0.0, 0.0, 0.0, 0.0, 0.0, 0.0, 0.0, 0.0]",,-0.81476535,9.9735132,-0.4319238,"[0.0, 0.0, 0.0, 0.0, 0.0, 0.0, 0.0, 0.0, 0.0]"
1569250011850330167,,53497,,1569250011,806643962,"""knife_link""",,0.34076950022,0.648511033337,0.592593649823,0.334876624369,"[0.0, 0.0, 0.0, 0.0, 0.0, 0.0, 0.0, 0.0, 0.0]",,0.653834665834,1.47483626592,-0.159020858827,"[0.0, 0.0, 0.0, 0.0, 0.0, 0.0, 0.0, 0.0, 0.0]",,-0.5497212,9.25691235,-0.00981645,"[0.0, 0.0, 0.0, 0.0, 0.0, 0.0, 0.0, 0.0, 0.0]"
1569250011892977132,,53498,,1569250011,848949909,"""knife_link""",,0.322078571698,0.66515976037,0.59320282982,0.31927776235,"[0.0, 0.0, 0.0, 0.0, 0.0, 0.0, 0.0, 0.0, 0.0]",,0.425196533822,1.40676842509,-0.413838929619,"[0.0, 0.0, 0.0, 0.0, 0.0, 0.0, 0.0, 0.0, 0.0]",,-0.10798095,9.19801365,0.18651255,"[0.0, 0.0, 0.0, 0.0, 0.0, 0.0, 0.0, 0.0, 0.0]"
1569250011956555047,,53499,,1569250011,891613960,"""knife_link""",,0.306226337336,0.677126270461,0.592049515376,0.311773660717,"[0.0, 0.0, 0.0, 0.0, 0.0, 0.0, 0.0, 0.0, 0.0]",,0.26637157189,0.972181441346,-0.511577367731,"[0.0, 0.0, 0.0, 0.0, 0.0, 0.0, 0.0, 0.0, 0.0]",,-0.00981645,9.25691235,0.1570632,"[0.0, 0.0, 0.0, 0.0, 0.0, 0.0, 0.0, 0.0, 0.0]"
1569250011998439209,,53500,,1569250011,955199003,"""knife_link""",,0.288598120085,0.686149953393,0.593446357677,0.306154841709,"[0.0, 0.0, 0.0, 0.0, 0.0, 0.0, 0.0, 0.0, 0.0]",,0.0359881106262,0.645804871222,-0.371951027571,"[0.0, 0.0, 0.0, 0.0, 0.0, 0.0, 0.0, 0.0, 0.0]",,0.2748606,9.2470959,0.36320865,"[0.0, 0.0, 0.0, 0.0, 0.0, 0.0, 0.0, 0.0, 0.0]"
1569250012062660567,,53501,,1569250011,997454881,"""knife_link""",,0.281346066219,0.685296225502,0.594529793213,0.312646444594,"[0.0, 0.0, 0.0, 0.0, 0.0, 0.0, 0.0, 0.0, 0.0]",,-0.229301935678,0.139659388142,-0.434782880643,"[0.0, 0.0, 0.0, 0.0, 0.0, 0.0, 0.0, 0.0, 0.0]",,0.26504415,9.4630578,0.5104554,"[0.0, 0.0, 0.0, 0.0, 0.0, 0.0, 0.0, 0.0, 0.0]"
1569250012111174989,,53502,,1569250012,61454057,"""knife_link""",,0.290077209601,0.672160281849,0.591572298565,0.337783930264,"[0.0, 0.0, 0.0, 0.0, 0.0, 0.0, 0.0, 0.0, 0.0]",,-0.313077739774,-0.767911822898,-0.221852711899,"[0.0, 0.0, 0.0, 0.0, 0.0, 0.0, 0.0, 0.0, 0.0]",,0.20614545,9.1096656,0.0392658,"[0.0, 0.0, 0.0, 0.0, 0.0, 0.0, 0.0, 0.0, 0.0]"
1569250012147623152,,53503,,1569250012,110357999,"""knife_link""",,0.312096896325,0.658184897932,0.583606855552,0.358874916358,"[0.0, 0.0, 0.0, 0.0, 0.0, 0.0, 0.0, 0.0, 0.0]",,-0.0565143397298,-1.29674658625,0.121977150745,"[0.0, 0.0, 0.0, 0.0, 0.0, 0.0, 0.0, 0.0, 0.0]",,0.00981645,9.8949816,0.32394285,"[0.0, 0.0, 0.0, 0.0, 0.0, 0.0, 0.0, 0.0, 0.0]"
1569250012214261646,,53504,,1569250012,146773099,"""knife_link""",,0.3260861667,0.633823395325,0.587698282962,0.38281384984,"[0.0, 0.0, 0.0, 0.0, 0.0, 0.0, 0.0, 0.0, 0.0]",,-1.05309734262,-1.5969432176,0.209243613345,"[0.0, 0.0, 0.0, 0.0, 0.0, 0.0, 0.0, 0.0, 0.0]",,-0.1766961,9.7182855,0.67733505,"[0.0, 0.0, 0.0, 0.0, 0.0, 0.0, 0.0, 0.0, 0.0]"
1569250012253465903,,53505,,1569250012,213201999,"""knife_link""",,0.347616259882,0.571110866413,0.60630651797,0.430566743256,"[0.0, 0.0, 0.0, 0.0, 0.0, 0.0, 0.0, 0.0, 0.0]",,-1.69363317811,-1.78369344756,0.402975160317,"[0.0, 0.0, 0.0, 0.0, 0.0, 0.0, 0.0, 0.0, 0.0]",,-0.8442147,9.37470975,1.16815755,"[0.0, 0.0, 0.0, 0.0, 0.0, 0.0, 0.0, 0.0, 0.0]"
1569250012295963003,,53506,,1569250012,252670049,"""knife_link""",,0.362774100441,0.535520356912,0.612364768827,0.454557245329,"[0.0, 0.0, 0.0, 0.0, 0.0, 0.0, 0.0, 0.0, 0.0]",,-1.35678463247,-1.75576817953,0.471043001145,"[0.0, 0.0, 0.0, 0.0, 0.0, 0.0, 0.0, 0.0, 0.0]",,-0.34357575,8.5795773,1.77677745,"[0.0, 0.0, 0.0, 0.0, 0.0, 0.0, 0.0, 0.0, 0.0]"
1569250012360108035,,53507,,1569250012,295165061,"""knife_link""",,0.375777100139,0.506680912768,0.603297404299,0.487953138748,"[0.0, 0.0, 0.0, 0.0, 0.0, 0.0, 0.0, 0.0, 0.0]",,-0.897763039194,-1.93902775099,-0.328317796271,"[0.0, 0.0, 0.0, 0.0, 0.0, 0.0, 0.0, 0.0, 0.0]",,-0.32394285,8.7955392,1.83567615,"[0.0, 0.0, 0.0, 0.0, 0.0, 0.0, 0.0, 0.0, 0.0]"
1569250012402350075,,53508,,1569250012,358736991,"""knife_link""",,0.377384164074,0.457830138812,0.583176699189,0.554867276224,"[0.0, 0.0, 0.0, 0.0, 0.0, 0.0, 0.0, 0.0, 0.0]",,-1.38820055901,-2.0803994204,-0.965362973251,"[0.0, 0.0, 0.0, 0.0, 0.0, 0.0, 0.0, 0.0, 0.0]",,-1.2172398,8.5206786,2.1399861,"[0.0, 0.0, 0.0, 0.0, 0.0, 0.0, 0.0, 0.0, 0.0]"
1569250012451094412,,53509,,1569250012,401269912,"""knife_link""",,0.346773468557,0.411764679764,0.587035991093,0.604637705709,"[0.0, 0.0, 0.0, 0.0, 0.0, 0.0, 0.0, 0.0, 0.0]",,-3.06720729943,-1.36830508559,-1.08230003314,"[0.0, 0.0, 0.0, 0.0, 0.0, 0.0, 0.0, 0.0, 0.0]",,-1.7473281,8.3439825,2.69952375,"[0.0, 0.0, 0.0, 0.0, 0.0, 0.0, 0.0, 0.0, 0.0]"
1569250012511340478,,53510,,1569250012,450372934,"""knife_link""",,0.308313257961,0.364252231202,0.587135023866,0.653862149677,"[0.0, 0.0, 0.0, 0.0, 0.0, 0.0, 0.0, 0.0, 0.0]",,-2.80889857013,-1.08032575901,-1.14338655696,"[0.0, 0.0, 0.0, 0.0, 0.0, 0.0, 0.0, 0.0, 0.0]",,-1.42338525,7.6764639,3.9658458,"[0.0, 0.0, 0.0, 0.0, 0.0, 0.0, 0.0, 0.0, 0.0]"
1569250012552386972,,53511,,1569250012,510461091,"""knife_link""",,0.327830714771,0.352999710777,0.553072482318,0.679727192296,"[0.0, 0.0, 0.0, 0.0, 0.0, 0.0, 0.0, 0.0, 0.0]",,0.351892705238,-1.30023724476,-0.900785790927,"[0.0, 0.0, 0.0, 0.0, 0.0, 0.0, 0.0, 0.0, 0.0]",,-1.2172398,8.3636154,5.21253495,"[0.0, 0.0, 0.0, 0.0, 0.0, 0.0, 0.0, 0.0, 0.0]"
1569250012596323523,,53512,,1569250012,550499916,"""knife_link""",,0.387035269877,0.362570231971,0.512287740013,0.675505587091,"[0.0, 0.0, 0.0, 0.0, 0.0, 0.0, 0.0, 0.0, 0.0]",,3.08158765537,-1.94426373875,-0.396385637099,"[0.0, 0.0, 0.0, 0.0, 0.0, 0.0, 0.0, 0.0, 0.0]",,-1.20742335,9.5415894,5.0063895,"[0.0, 0.0, 0.0, 0.0, 0.0, 0.0, 0.0, 0.0, 0.0]"
1569250012661126409,,53513,,1569250012,594862937,"""knife_link""",,0.431673195636,0.361250445627,0.469603458864,0.680168331464,"[0.0, 0.0, 0.0, 0.0, 0.0, 0.0, 0.0, 0.0, 0.0]",,1.95410495857,-1.94775439725,-0.679128975923,"[0.0, 0.0, 0.0, 0.0, 0.0, 0.0, 0.0, 0.0, 0.0]",,-1.1190753,11.387082,4.23088995,"[0.0, 0.0, 0.0, 0.0, 0.0, 0.0, 0.0, 0.0, 0.0]"
1569250012699302322,,53514,,1569250012,659765005,"""knife_link""",,0.486052383201,0.360393075745,0.419443769234,0.676710304481,"[0.0, 0.0, 0.0, 0.0, 0.0, 0.0, 0.0, 0.0, 0.0]",,1.74117478983,-1.49047813323,-0.403366954107,"[0.0, 0.0, 0.0, 0.0, 0.0, 0.0, 0.0, 0.0, 0.0]",,-2.13016965,11.20056945,3.38667525,"[0.0, 0.0, 0.0, 0.0, 0.0, 0.0, 0.0, 0.0, 0.0]"
1569250012744017455,,53515,,1569250012,698486089,"""knife_link""",,0.517180532553,0.374496736798,0.389124717623,0.663971720038,"[0.0, 0.0, 0.0, 0.0, 0.0, 0.0, 0.0, 0.0, 0.0]",,2.28920817496,-0.81329038345,-0.544738623519,"[0.0, 0.0, 0.0, 0.0, 0.0, 0.0, 0.0, 0.0, 0.0]",,-2.5326441,10.10112705,1.93384065,"[0.0, 0.0, 0.0, 0.0, 0.0, 0.0, 0.0, 0.0, 0.0]"
1569250012826987207,,53516,,1569250012,742306947,"""knife_link""",,0.517554073189,0.387936186329,0.368202362997,0.667884957568,"[0.0, 0.0, 0.0, 0.0, 0.0, 0.0, 0.0, 0.0, 0.0]",,0.505481679414,-0.258275681314,-1.00026955829,"[0.0, 0.0, 0.0, 0.0, 0.0, 0.0, 0.0, 0.0, 0.0]",,-2.5130112,8.92315305,0.65770215,"[0.0, 0.0, 0.0, 0.0, 0.0, 0.0, 0.0, 0.0, 0.0]"
1569250012848735367,,53517,,1569250012,826246023,"""knife_link""",,0.478069700554,0.387114623244,0.352134097813,0.705402868608,"[0.0, 0.0, 0.0, 0.0, 0.0, 0.0, 0.0, 0.0, 0.0]",,-0.95535890451,-0.261766339818,-0.946164351479,"[0.0, 0.0, 0.0, 0.0, 0.0, 0.0, 0.0, 0.0, 0.0]",,-2.77805535,7.62738165,-0.8049489,"[0.0, 0.0, 0.0, 0.0, 0.0, 0.0, 0.0, 0.0, 0.0]"
1569250012912139235,,53518,,1569250012,847445011,"""knife_link""",,0.484161358709,0.387472483748,0.34720353672,0.703493110954,"[0.0, 0.0, 0.0, 0.0, 0.0, 0.0, 0.0, 0.0, 0.0]",,0.634636044062,-0.54276434939,-0.0665184084713,"[0.0, 0.0, 0.0, 0.0, 0.0, 0.0, 0.0, 0.0, 0.0]",,-2.81732115,9.15874785,0.3533922,"[0.0, 0.0, 0.0, 0.0, 0.0, 0.0, 0.0, 0.0, 0.0]"
1569250012954849144,,53519,,1569250012,911242961,"""knife_link""",,0.482208140873,0.375377043779,0.343612894014,0.713090150645,"[0.0, 0.0, 0.0, 0.0, 0.0, 0.0, 0.0, 0.0, 0.0]",,-0.297369776506,-0.488659142578,-0.0385931404393,"[0.0, 0.0, 0.0, 0.0, 0.0, 0.0, 0.0, 0.0, 0.0]",,-2.3363151,10.17965865,0.3337593,"[0.0, 0.0, 0.0, 0.0, 0.0, 0.0, 0.0, 0.0, 0.0]"
1569250012997356337,,53520,,1569250012,953730106,"""knife_link""",,0.492085740809,0.369523354315,0.335312390985,0.713351045952,"[0.0, 0.0, 0.0, 0.0, 0.0, 0.0, 0.0, 0.0, 0.0]",,0.355383363742,-0.661446738526,0.00329476160873,"[0.0, 0.0, 0.0, 0.0, 0.0, 0.0, 0.0, 0.0, 0.0]",,-2.20870125,9.41397555,0.53990475,"[0.0, 0.0, 0.0, 0.0, 0.0, 0.0, 0.0, 0.0, 0.0]"
1569250013061013900,,53521,,1569250012,996090888,"""knife_link""",,0.481982323928,0.368400085319,0.343214293362,0.717062316253,"[0.0, 0.0, 0.0, 0.0, 0.0, 0.0, 0.0, 0.0, 0.0]",,-0.620255688126,0.132678071134,0.0207480541287,"[0.0, 0.0, 0.0, 0.0, 0.0, 0.0, 0.0, 0.0, 0.0]",,-1.6098978,9.8753487,0.1766961,"[0.0, 0.0, 0.0, 0.0, 0.0, 0.0, 0.0, 0.0, 0.0]"
1569250013104284666,,53522,,1569250013,60055017,"""knife_link""",,0.497058214158,0.373451031025,0.332548932985,0.709139384278,"[0.0, 0.0, 0.0, 0.0, 0.0, 0.0, 0.0, 0.0, 0.0]",,0.638126702566,-0.186717181982,-0.0769903839833,"[0.0, 0.0, 0.0, 0.0, 0.0, 0.0, 0.0, 0.0, 0.0]",,-1.85530905,9.82626645,1.6295307,"[0.0, 0.0, 0.0, 0.0, 0.0, 0.0, 0.0, 0.0, 0.0]"
1569250013146592792,,53523,,1569250013,102555990,"""knife_link""",,0.496448156317,0.377203356263,0.331910275103,0.707878821123,"[0.0, 0.0, 0.0, 0.0, 0.0, 0.0, 0.0, 0.0, 0.0]",,0.0743853541702,0.0366849622742,-0.131095590795,"[0.0, 0.0, 0.0, 0.0, 0.0, 0.0, 0.0, 0.0, 0.0]",,-1.6884294,9.25691235,1.06999305,"[0.0, 0.0, 0.0, 0.0, 0.0, 0.0, 0.0, 0.0, 0.0]"
1569250013209959266,,53524,,1569250013,145143985,"""knife_link""",,0.506585112266,0.383531132427,0.327693375528,0.699208442543,"[0.0, 0.0, 0.0, 0.0, 0.0, 0.0, 0.0, 0.0, 0.0]",,0.714921189654,0.00352370648623,0.00329476160873,"[0.0, 0.0, 0.0, 0.0, 0.0, 0.0, 0.0, 0.0, 0.0]",,-1.7865939,8.7366405,1.0012779,"[0.0, 0.0, 0.0, 0.0, 0.0, 0.0, 0.0, 0.0, 0.0]"
1569250013253108846,,53525,,1569250013,208790063,"""knife_link""",,0.500249880123,0.388463788297,0.334593127588,0.697777458499,"[0.0, 0.0, 0.0, 0.0, 0.0, 0.0, 0.0, 0.0, 0.0]",,-0.154252777842,0.230416509246,0.00329476160873,"[0.0, 0.0, 0.0, 0.0, 0.0, 0.0, 0.0, 0.0, 0.0]",,-2.2774164,9.11948205,0.67733505,"[0.0, 0.0, 0.0, 0.0, 0.0, 0.0, 0.0, 0.0, 0.0]"
1569250013294502765,,53526,,1569250013,251355886,"""knife_link""",,0.500621091528,0.395087789953,0.33646543064,0.692874573737,"[0.0, 0.0, 0.0, 0.0, 0.0, 0.0, 0.0, 0.0, 0.0]",,0.189577084802,0.24263381401,-0.0211398479193,"[0.0, 0.0, 0.0, 0.0, 0.0, 0.0, 0.0, 0.0, 0.0]",,-2.4148467,9.423792,0.61843635,"[0.0, 0.0, 0.0, 0.0, 0.0, 0.0, 0.0, 0.0, 0.0]"
1569250013379479197,,53527,,1569250013,293756008,"""knife_link""",,0.498824935205,0.401567606322,0.340738345837,0.688341863646,"[0.0, 0.0, 0.0, 0.0, 0.0, 0.0, 0.0, 0.0, 0.0]",,0.0412240983822,0.324664288854,0.00154943235673,"[0.0, 0.0, 0.0, 0.0, 0.0, 0.0, 0.0, 0.0, 0.0]",,-2.01237225,10.43488635,-0.3730251,"[0.0, 0.0, 0.0, 0.0, 0.0, 0.0, 0.0, 0.0, 0.0]"
1569250013401073432,,53528,,1569250013,378467082,"""knife_link""",,0.51102756489,0.411064589984,0.337149171883,0.675431096917,"[0.0, 0.0, 0.0, 0.0, 0.0, 0.0, 0.0, 0.0, 0.0]",,0.453121801854,0.0872995105822,0.0399466759007,"[0.0, 0.0, 0.0, 0.0, 0.0, 0.0, 0.0, 0.0, 0.0]",,-1.97310645,9.81645,-0.1177974,"[0.0, 0.0, 0.0, 0.0, 0.0, 0.0, 0.0, 0.0, 0.0]"
1569250013444924617,,53529,,1569250013,399991989,"""knife_link""",,0.510026778898,0.412957645896,0.338413163009,0.674399880342,"[0.0, 0.0, 0.0, 0.0, 0.0, 0.0, 0.0, 0.0, 0.0]",,-0.0530236812258,0.0541382547942,-0.0438291281953,"[0.0, 0.0, 0.0, 0.0, 0.0, 0.0, 0.0, 0.0, 0.0]",,-2.11053675,9.84589935,-0.5497212,"[0.0, 0.0, 0.0, 0.0, 0.0, 0.0, 0.0, 0.0, 0.0]"
1569250013507456265,,53530,,1569250013,443350076,"""knife_link""",,0.51203627065,0.414378397487,0.338631632792,0.671891374038,"[0.0, 0.0, 0.0, 0.0, 0.0, 0.0, 0.0, 0.0, 0.0]",,0.12674523173,-0.0296375493018,0.0416920051527,"[0.0, 0.0, 0.0, 0.0, 0.0, 0.0, 0.0, 0.0, 0.0]",,-2.1203532,9.15874785,-0.0785316,"[0.0, 0.0, 0.0, 0.0, 0.0, 0.0, 0.0, 0.0, 0.0]"
1569250013571322659,,53531,,1569250013,506333112,"""knife_link""",,0.512924415199,0.413529436233,0.339781540063,0.671156058376,"[0.0, 0.0, 0.0, 0.0, 0.0, 0.0, 0.0, 0.0, 0.0]",,-0.000663803665803,-0.0645441343418,0.0539093099167,"[0.0, 0.0, 0.0, 0.0, 0.0, 0.0, 0.0, 0.0, 0.0]",,-2.22833415,9.2470959,0.0196329,"[0.0, 0.0, 0.0, 0.0, 0.0, 0.0, 0.0, 0.0, 0.0]"
1569250013593688004,,53532,,1569250013,570039033,"""knife_link""",,0.510541230705,0.407607991169,0.342976184966,0.674959786826,"[0.0, 0.0, 0.0, 0.0, 0.0, 0.0, 0.0, 0.0, 0.0]",,-0.217084630914,-0.160537243202,0.0818345779487,"[0.0, 0.0, 0.0, 0.0, 0.0, 0.0, 0.0, 0.0, 0.0]",,-2.01237225,9.9342474,0.59880345,"[0.0, 0.0, 0.0, 0.0, 0.0, 0.0, 0.0, 0.0, 0.0]"
1569250013655939196,,53533,,1569250013,591770887,"""knife_link""",,0.510390092072,0.408899715744,0.343839406705,0.673852683289,"[0.0, 0.0, 0.0, 0.0, 0.0, 0.0, 0.0, 0.0, 0.0]",,0.0447147568862,-0.0156749152858,-0.00892254315527,"[0.0, 0.0, 0.0, 0.0, 0.0, 0.0, 0.0, 0.0, 0.0]",,-1.9436571,9.94406385,0.5300883,"[0.0, 0.0, 0.0, 0.0, 0.0, 0.0, 0.0, 0.0, 0.0]"
1569250013699297123,,53534,,1569250013,654994010,"""knife_link""",,0.51143169495,0.41437809275,0.342440678036,0.670419868199,"[0.0, 0.0, 0.0, 0.0, 0.0, 0.0, 0.0, 0.0, 0.0]",,0.154670499762,0.0646102303062,-0.0752450547313,"[0.0, 0.0, 0.0, 0.0, 0.0, 0.0, 0.0, 0.0, 0.0]",,-2.01237225,9.27654525,0.4711896,"[0.0, 0.0, 0.0, 0.0, 0.0, 0.0, 0.0, 0.0, 0.0]"
1569250013762915366,,53535,,1569250013,698312997,"""knife_link""",,0.514686823688,0.419306765525,0.342811054585,0.664650201807,"[0.0, 0.0, 0.0, 0.0, 0.0, 0.0, 0.0, 0.0, 0.0]",,0.290806181418,0.127442083378,0.0364560173967,"[0.0, 0.0, 0.0, 0.0, 0.0, 0.0, 0.0, 0.0, 0.0]",,-1.8651255,9.0703998,-0.32394285,"[0.0, 0.0, 0.0, 0.0, 0.0, 0.0, 0.0, 0.0, 0.0]"
