rosbagTimestamp,header,seq,stamp,secs,nsecs,frame_id,orientation,x,y,z,w,orientation_covariance,angular_velocity,x,y,z,angular_velocity_covariance,linear_acceleration,x,y,z,linear_acceleration_covariance
1569265694491266915,,61916,,1569265694,447568893,"""knife_link""",,0.110859990399,0.7187090991,0.658125291858,0.195034339585,"[0.0, 0.0, 0.0, 0.0, 0.0, 0.0, 0.0, 0.0, 0.0]",,-0.155834119782,0.0605746788452,-0.0287490805952,"[0.0, 0.0, 0.0, 0.0, 0.0, 0.0, 0.0, 0.0, 0.0]",,-1.28595495,11.65212615,0.3730251,"[0.0, 0.0, 0.0, 0.0, 0.0, 0.0, 0.0, 0.0, 0.0]"
1569265694535085262,,61917,,1569265694,489928960,"""knife_link""",,0.111725287239,0.718841797486,0.655624941382,0.202336024021,"[0.0, 0.0, 0.0, 0.0, 0.0, 0.0, 0.0, 0.0, 0.0]",,0.018698805418,-0.0371637592668,-0.227716615323,"[0.0, 0.0, 0.0, 0.0, 0.0, 0.0, 0.0, 0.0, 0.0]",,-1.6491636,9.08021625,-0.7264173,"[0.0, 0.0, 0.0, 0.0, 0.0, 0.0, 0.0, 0.0, 0.0]"
1569265694598897670,,61918,,1569265694,533754110,"""knife_link""",,0.115995217449,0.72461034772,0.647333700212,0.206019499263,"[0.0, 0.0, 0.0, 0.0, 0.0, 0.0, 0.0, 0.0, 0.0]",,0.434087167394,0.00123348427722,-0.0880902751632,"[0.0, 0.0, 0.0, 0.0, 0.0, 0.0, 0.0, 0.0, 0.0]",,-1.61971425,9.53177295,-0.5693541,"[0.0, 0.0, 0.0, 0.0, 0.0, 0.0, 0.0, 0.0, 0.0]"
1569265694640335394,,61919,,1569265694,597707033,"""knife_link""",,0.116670589035,0.72750945331,0.643658522829,0.206933987029,"[0.0, 0.0, 0.0, 0.0, 0.0, 0.0, 0.0, 0.0, 0.0]",,0.112946585026,0.132133178177,-0.0566743486272,"[0.0, 0.0, 0.0, 0.0, 0.0, 0.0, 0.0, 0.0, 0.0]",,-1.12889175,9.81645,-1.1976069,"[0.0, 0.0, 0.0, 0.0, 0.0, 0.0, 0.0, 0.0, 0.0]"
1569265694682014235,,61920,,1569265694,639092922,"""knife_link""",,0.114841511887,0.723924503903,0.646162149772,0.212648103678,"[0.0, 0.0, 0.0, 0.0, 0.0, 0.0, 0.0, 0.0, 0.0]",,-0.305932435454,0.0815186298692,-0.217244639811,"[0.0, 0.0, 0.0, 0.0, 0.0, 0.0, 0.0, 0.0, 0.0]",,-1.63934715,10.16002575,-1.48228395,"[0.0, 0.0, 0.0, 0.0, 0.0, 0.0, 0.0, 0.0, 0.0]"
1569265694745557047,,61921,,1569265694,681056022,"""knife_link""",,0.117965805316,0.72537965335,0.641731066131,0.219293561337,"[0.0, 0.0, 0.0, 0.0, 0.0, 0.0, 0.0, 0.0, 0.0]",,0.181014425854,-0.0860329783228,-0.154412786739,"[0.0, 0.0, 0.0, 0.0, 0.0, 0.0, 0.0, 0.0, 0.0]",,-2.20870125,9.5219565,0.392658,"[0.0, 0.0, 0.0, 0.0, 0.0, 0.0, 0.0, 0.0, 0.0]"
1569265694788041666,,61922,,1569265694,744868993,"""knife_link""",,0.115021178479,0.721899850407,0.643541807807,0.226902349237,"[0.0, 0.0, 0.0, 0.0, 0.0, 0.0, 0.0, 0.0, 0.0]",,-0.195976692578,0.0274134230572,-0.201536676543,"[0.0, 0.0, 0.0, 0.0, 0.0, 0.0, 0.0, 0.0, 0.0]",,-1.9436571,8.9329695,-1.1190753,"[0.0, 0.0, 0.0, 0.0, 0.0, 0.0, 0.0, 0.0, 0.0]"
1569265694831176892,,61923,,1569265694,787379026,"""knife_link""",,0.116600901048,0.725176717156,0.637977323539,0.231317732611,"[0.0, 0.0, 0.0, 0.0, 0.0, 0.0, 0.0, 0.0, 0.0]",,0.243846278926,0.0431213863252,-0.187574042527,"[0.0, 0.0, 0.0, 0.0, 0.0, 0.0, 0.0, 0.0, 0.0]",,-1.2172398,8.96241885,-0.46137315,"[0.0, 0.0, 0.0, 0.0, 0.0, 0.0, 0.0, 0.0, 0.0]"
1569265694895164517,,61924,,1569265694,829993009,"""knife_link""",,0.118307989904,0.72372324613,0.637971921257,0.234988744887,"[0.0, 0.0, 0.0, 0.0, 0.0, 0.0, 0.0, 0.0, 0.0]",,-0.122672863994,0.0361400693172,-0.0671463241392,"[0.0, 0.0, 0.0, 0.0, 0.0, 0.0, 0.0, 0.0, 0.0]",,-1.58044845,9.1881972,-2.05163805,"[0.0, 0.0, 0.0, 0.0, 0.0, 0.0, 0.0, 0.0, 0.0]"
1569265694937390245,,61925,,1569265694,894186973,"""knife_link""",,0.127275378759,0.730254921559,0.628132132405,0.236598291922,"[0.0, 0.0, 0.0, 0.0, 0.0, 0.0, 0.0, 0.0, 0.0]",,0.40441657011,-0.0458904055268,0.0637533697608,"[0.0, 0.0, 0.0, 0.0, 0.0, 0.0, 0.0, 0.0, 0.0]",,-2.159619,10.23855735,0.4711896,"[0.0, 0.0, 0.0, 0.0, 0.0, 0.0, 0.0, 0.0, 0.0]"
1569265694985958073,,61926,,1569265694,936376094,"""knife_link""",,0.128429869177,0.72862871769,0.628376165838,0.240310954115,"[0.0, 0.0, 0.0, 0.0, 0.0, 0.0, 0.0, 0.0, 0.0]",,-0.131399510254,0.0483573740812,-0.0741276411472,"[0.0, 0.0, 0.0, 0.0, 0.0, 0.0, 0.0, 0.0, 0.0]",,-2.0614545,9.227463,-1.7473281,"[0.0, 0.0, 0.0, 0.0, 0.0, 0.0, 0.0, 0.0, 0.0]"
1569265695043877187,,61927,,1569265694,985193014,"""knife_link""",,0.13133570549,0.726186893223,0.630305057995,0.241078954784,"[0.0, 0.0, 0.0, 0.0, 0.0, 0.0, 0.0, 0.0, 0.0]",,-0.12790885175,0.0884999468772,0.0794613330288,"[0.0, 0.0, 0.0, 0.0, 0.0, 0.0, 0.0, 0.0, 0.0]",,-1.75714455,9.47287425,-0.57917055,"[0.0, 0.0, 0.0, 0.0, 0.0, 0.0, 0.0, 0.0, 0.0]"
1569265695085572478,,61928,,1569265695,42872905,"""knife_link""",,0.135637406229,0.728273269557,0.626409373454,0.242552748344,"[0.0, 0.0, 0.0, 0.0, 0.0, 0.0, 0.0, 0.0, 0.0]",,0.144362511562,0.0361400693172,0.0113934922008,"[0.0, 0.0, 0.0, 0.0, 0.0, 0.0, 0.0, 0.0, 0.0]",,-1.50191685,10.14039285,-0.83439825,"[0.0, 0.0, 0.0, 0.0, 0.0, 0.0, 0.0, 0.0, 0.0]"
1569265695149583559,,61929,,1569265695,84825992,"""knife_link""",,0.138018243852,0.726747635196,0.626075428702,0.246613861486,"[0.0, 0.0, 0.0, 0.0, 0.0, 0.0, 0.0, 0.0, 0.0]",,-0.08427562045,-0.00749316198278,-0.0636556656352,"[0.0, 0.0, 0.0, 0.0, 0.0, 0.0, 0.0, 0.0, 0.0]",,-1.38411945,9.11948205,-1.22705625,"[0.0, 0.0, 0.0, 0.0, 0.0, 0.0, 0.0, 0.0, 0.0]"
1569265695192134310,,61930,,1569265695,148807048,"""knife_link""",,0.142142814037,0.729106791484,0.620671556833,0.250929323852,"[0.0, 0.0, 0.0, 0.0, 0.0, 0.0, 0.0, 0.0, 0.0]",,0.161815804082,-0.0354184300148,-0.0566743486272,"[0.0, 0.0, 0.0, 0.0, 0.0, 0.0, 0.0, 0.0, 0.0]",,-2.03200515,10.19929155,-0.5497212,"[0.0, 0.0, 0.0, 0.0, 0.0, 0.0, 0.0, 0.0, 0.0]"
1569265695234925854,,61931,,1569265695,191359996,"""knife_link""",,0.145659156392,0.728789130428,0.618017243377,0.25632889111,"[0.0, 0.0, 0.0, 0.0, 0.0, 0.0, 0.0, 0.0, 0.0]",,0.044878744198,-0.0912689660788,-0.0968169214232,"[0.0, 0.0, 0.0, 0.0, 0.0, 0.0, 0.0, 0.0, 0.0]",,-1.5313662,9.2078301,-0.9620121,"[0.0, 0.0, 0.0, 0.0, 0.0, 0.0, 0.0, 0.0, 0.0]"
1569265695298866009,,61932,,1569265695,234004974,"""knife_link""",,0.147793948655,0.725626197318,0.619071670401,0.261483914254,"[0.0, 0.0, 0.0, 0.0, 0.0, 0.0, 0.0, 0.0, 0.0]",,-0.18026872931,-0.0546170517868,-0.0776182996512,"[0.0, 0.0, 0.0, 0.0, 0.0, 0.0, 0.0, 0.0, 0.0]",,-1.3546701,9.4434249,-0.93256275,"[0.0, 0.0, 0.0, 0.0, 0.0, 0.0, 0.0, 0.0, 0.0]"
1569265695343469755,,61933,,1569265695,297679901,"""knife_link""",,0.151988656549,0.727308602418,0.614108790465,0.266067733111,"[0.0, 0.0, 0.0, 0.0, 0.0, 0.0, 0.0, 0.0, 0.0]",,0.139126523806,-0.0528717225348,-0.0776182996512,"[0.0, 0.0, 0.0, 0.0, 0.0, 0.0, 0.0, 0.0, 0.0]",,-0.69696795,9.8557158,-0.4711896,"[0.0, 0.0, 0.0, 0.0, 0.0, 0.0, 0.0, 0.0, 0.0]"
1569265695383239697,,61934,,1569265695,340663909,"""knife_link""",,0.156266401708,0.726951808917,0.612150484338,0.269060706411,"[0.0, 0.0, 0.0, 0.0, 0.0, 0.0, 0.0, 0.0, 0.0]",,0.053605390458,-0.0371637592668,-0.0374757268552,"[0.0, 0.0, 0.0, 0.0, 0.0, 0.0, 0.0, 0.0, 0.0]",,0.22577835,9.620121,-0.6871515,"[0.0, 0.0, 0.0, 0.0, 0.0, 0.0, 0.0, 0.0, 0.0]"
1569265695447950409,,61935,,1569265695,382479906,"""knife_link""",,0.161649791754,0.724794713145,0.61203931216,0.271937215169,"[0.0, 0.0, 0.0, 0.0, 0.0, 0.0, 0.0, 0.0, 0.0]",,-0.04936903541,-0.0720703443068,0.0934239670448,"[0.0, 0.0, 0.0, 0.0, 0.0, 0.0, 0.0, 0.0, 0.0]",,-1.54118265,8.1672864,-0.46137315,"[0.0, 0.0, 0.0, 0.0, 0.0, 0.0, 0.0, 0.0, 0.0]"
1569265695489830705,,61936,,1569265695,446589946,"""knife_link""",,0.15784893008,0.718602859939,0.619213275651,0.274351169521,"[0.0, 0.0, 0.0, 0.0, 0.0, 0.0, 0.0, 0.0, 0.0]",,-0.353056325258,0.140859824437,-0.0531836901232,"[0.0, 0.0, 0.0, 0.0, 0.0, 0.0, 0.0, 0.0, 0.0]",,-7.09729335,10.67048115,-2.8271376,"[0.0, 0.0, 0.0, 0.0, 0.0, 0.0, 0.0, 0.0, 0.0]"
1569265695535671154,,61937,,1569265695,488796949,"""knife_link""",,0.150584281903,0.715457440049,0.619088772601,0.286660281802,"[0.0, 0.0, 0.0, 0.0, 0.0, 0.0, 0.0, 0.0, 0.0]",,-0.31989506947,-0.0389090885188,-0.602962404503,"[0.0, 0.0, 0.0, 0.0, 0.0, 0.0, 0.0, 0.0, 0.0]",,-14.0571564,10.8962595,1.54118265,"[0.0, 0.0, 0.0, 0.0, 0.0, 0.0, 0.0, 0.0, 0.0]"
1569265695597205296,,61938,,1569265695,531874895,"""knife_link""",,0.137068940834,0.717801865397,0.609919017482,0.306547516064,"[0.0, 0.0, 0.0, 0.0, 0.0, 0.0, 0.0, 0.0, 0.0]",,0.00124551289803,-0.103486270843,-1.17368506991,"[0.0, 0.0, 0.0, 0.0, 0.0, 0.0, 0.0, 0.0, 0.0]",,-8.4028812,7.94150805,-3.141264,"[0.0, 0.0, 0.0, 0.0, 0.0, 0.0, 0.0, 0.0, 0.0]"
1569265695638382742,,61939,,1569265695,595400094,"""knife_link""",,0.122235687035,0.71587544315,0.602901964846,0.330287764675,"[0.0, 0.0, 0.0, 0.0, 0.0, 0.0, 0.0, 0.0, 0.0]",,-0.166306095294,-0.166318123915,-0.859525804547,"[0.0, 0.0, 0.0, 0.0, 0.0, 0.0, 0.0, 0.0, 0.0]",,7.3034388,11.4067149,-0.4122909,"[0.0, 0.0, 0.0, 0.0, 0.0, 0.0, 0.0, 0.0, 0.0]"
1569265695683021261,,61940,,1569265695,637523889,"""knife_link""",,0.118207383883,0.709194119563,0.604377490339,0.343217954578,"[0.0, 0.0, 0.0, 0.0, 0.0, 0.0, 0.0, 0.0, 0.0]",,-0.45079476337,-0.220423330727,-0.454609418083,"[0.0, 0.0, 0.0, 0.0, 0.0, 0.0, 0.0, 0.0, 0.0]",,16.40328795,11.4852465,-0.69696795,"[0.0, 0.0, 0.0, 0.0, 0.0, 0.0, 0.0, 0.0, 0.0]"
1569265695766090407,,61941,,1569265695,681329965,"""knife_link""",,0.119793850889,0.70796847584,0.60003590177,0.352685393932,"[0.0, 0.0, 0.0, 0.0, 0.0, 0.0, 0.0, 0.0, 0.0]",,0.02044413467,-0.202970038207,-0.294039126899,"[0.0, 0.0, 0.0, 0.0, 0.0, 0.0, 0.0, 0.0, 0.0]",,0.97182855,7.66664745,2.05163805,"[0.0, 0.0, 0.0, 0.0, 0.0, 0.0, 0.0, 0.0, 0.0]"
1569265695787338223,,61942,,1569265695,765069961,"""knife_link""",,0.0851377812022,0.715401295857,0.578960363685,0.38178192909,"[0.0, 0.0, 0.0, 0.0, 0.0, 0.0, 0.0, 0.0, 0.0]",,0.04662407345,0.100717251641,-1.2068463257,"[0.0, 0.0, 0.0, 0.0, 0.0, 0.0, 0.0, 0.0, 0.0]",,-19.60345065,7.1660085,-0.46137315,"[0.0, 0.0, 0.0, 0.0, 0.0, 0.0, 0.0, 0.0, 0.0]"
1569265695829814691,,61943,,1569265695,786417007,"""knife_link""",,0.0824312315616,0.717181411496,0.571513507437,0.390164357528,"[0.0, 0.0, 0.0, 0.0, 0.0, 0.0, 0.0, 0.0, 0.0]",,0.249082266682,-0.0546170517868,-0.932829633131,"[0.0, 0.0, 0.0, 0.0, 0.0, 0.0, 0.0, 0.0, 0.0]",,-19.11262815,3.8087826,0.40247445,"[0.0, 0.0, 0.0, 0.0, 0.0, 0.0, 0.0, 0.0, 0.0]"
1569265695900429287,,61944,,1569265695,828775882,"""knife_link""",,0.09719511811,0.703518704502,0.589421568984,0.384963317015,"[0.0, 0.0, 0.0, 0.0, 0.0, 0.0, 0.0, 0.0, 0.0]",,-0.749246065462,-0.206460696711,1.07778966517,"[0.0, 0.0, 0.0, 0.0, 0.0, 0.0, 0.0, 0.0, 0.0]",,-6.66536955,4.6137315,1.9240242,"[0.0, 0.0, 0.0, 0.0, 0.0, 0.0, 0.0, 0.0, 0.0]"
1569265695936656365,,61945,,1569265695,899286031,"""knife_link""",,0.0891582750292,0.716243239448,0.575534376646,0.384456246193,"[0.0, 0.0, 0.0, 0.0, 0.0, 0.0, 0.0, 0.0, 0.0]",,0.350311363298,0.355535322433,-0.353380321467,"[0.0, 0.0, 0.0, 0.0, 0.0, 0.0, 0.0, 0.0, 0.0]",,-3.6320865,10.5625002,-0.40247445,"[0.0, 0.0, 0.0, 0.0, 0.0, 0.0, 0.0, 0.0, 0.0]"
1569265696005842618,,61946,,1569265695,935756921,"""knife_link""",,0.0729999865479,0.695201043345,0.60044434009,0.388372380262,"[0.0, 0.0, 0.0, 0.0, 0.0, 0.0, 0.0, 0.0, 0.0]",,-2.12631084529,0.250815567313,-0.135214164967,"[0.0, 0.0, 0.0, 0.0, 0.0, 0.0, 0.0, 0.0, 0.0]",,-2.71915665,6.92059725,-2.83695405,"[0.0, 0.0, 0.0, 0.0, 0.0, 0.0, 0.0, 0.0, 0.0]"
1569265696042618609,,61947,,1569265696,2207040,"""knife_link""",,0.0600233702448,0.654451751231,0.636571006409,0.403568400813,"[0.0, 0.0, 0.0, 0.0, 0.0, 0.0, 0.0, 0.0, 0.0]",,-1.73186643434,-0.346087036871,-0.0723823118952,"[0.0, 0.0, 0.0, 0.0, 0.0, 0.0, 0.0, 0.0, 0.0]",,-1.42338525,10.0324119,2.4148467,"[0.0, 0.0, 0.0, 0.0, 0.0, 0.0, 0.0, 0.0, 0.0]"
1569265696105867298,,61948,,1569265696,41690111,"""knife_link""",,0.0763720452416,0.653677110595,0.634389849882,0.40549113943,"[0.0, 0.0, 0.0, 0.0, 0.0, 0.0, 0.0, 0.0, 0.0]",,0.324131424518,-0.358304341635,0.304608806537,"[0.0, 0.0, 0.0, 0.0, 0.0, 0.0, 0.0, 0.0, 0.0]",,2.14980255,8.3047167,3.11181465,"[0.0, 0.0, 0.0, 0.0, 0.0, 0.0, 0.0, 0.0, 0.0]"
1569265696148341647,,61949,,1569265696,104955911,"""knife_link""",,0.12205526054,0.63780757067,0.64535494492,0.402269823921,"[0.0, 0.0, 0.0, 0.0, 0.0, 0.0, 0.0, 0.0, 0.0]",,-0.052859693914,-0.923791019283,1.20345337132,"[0.0, 0.0, 0.0, 0.0, 0.0, 0.0, 0.0, 0.0, 0.0]",,-2.14980255,6.74390115,-4.34868735,"[0.0, 0.0, 0.0, 0.0, 0.0, 0.0, 0.0, 0.0, 0.0]"
1569265696191700554,,61950,,1569265696,147563934,"""knife_link""",,0.124416744784,0.58121412827,0.69128237072,0.410900589739,"[0.0, 0.0, 0.0, 0.0, 0.0, 0.0, 0.0, 0.0, 0.0]",,-3.16827240873,-0.956952275071,1.04811906789,"[0.0, 0.0, 0.0, 0.0, 0.0, 0.0, 0.0, 0.0, 0.0]",,1.2368727,12.30001185,6.6555531,"[0.0, 0.0, 0.0, 0.0, 0.0, 0.0, 0.0, 0.0, 0.0]"
1569265696234224130,,61951,,1569265696,190068960,"""knife_link""",,0.108782594579,0.501161838065,0.754603450109,0.409361444531,"[0.0, 0.0, 0.0, 0.0, 0.0, 0.0, 0.0, 0.0, 0.0]",,-4.7111434675,-0.447316133487,1.40242090604,"[0.0, 0.0, 0.0, 0.0, 0.0, 0.0, 0.0, 0.0, 0.0]",,-1.71787875,6.94023015,2.60135925,"[0.0, 0.0, 0.0, 0.0, 0.0, 0.0, 0.0, 0.0, 0.0]"
1569265696297011262,,61952,,1569265696,233210086,"""knife_link""",,0.130192582056,0.499462207546,0.761076890649,0.392873212794,"[0.0, 0.0, 0.0, 0.0, 0.0, 0.0, 0.0, 0.0, 0.0]",,0.236864961918,-0.199479379703,1.29770115092,"[0.0, 0.0, 0.0, 0.0, 0.0, 0.0, 0.0, 0.0, 0.0]",,-4.8885921,8.2065522,13.92954255,"[0.0, 0.0, 0.0, 0.0, 0.0, 0.0, 0.0, 0.0, 0.0]"
1569265696342931073,,61953,,1569265696,296276092,"""knife_link""",,-0.00489776006202,0.262462871029,0.877901070065,0.400473425406,"[0.0, 0.0, 0.0, 0.0, 0.0, 0.0, 0.0, 0.0, 0.0]",,-9.77434362755,0.812811586457,0.248758270473,"[0.0, 0.0, 0.0, 0.0, 0.0, 0.0, 0.0, 0.0, 0.0]",,-5.3401488,8.82498855,5.104554,"[0.0, 0.0, 0.0, 0.0, 0.0, 0.0, 0.0, 0.0, 0.0]"
1569265696404247505,,61954,,1569265696,338656902,"""knife_link""",,0.0350845629469,0.30729575374,0.839397580471,0.446934105966,"[0.0, 0.0, 0.0, 0.0, 0.0, 0.0, 0.0, 0.0, 0.0]",,3.21963265359,-1.29554614996,-1.91021401425,"[0.0, 0.0, 0.0, 0.0, 0.0, 0.0, 0.0, 0.0, 0.0]",,-3.42594105,-1.40375235,9.59067165,"[0.0, 0.0, 0.0, 0.0, 0.0, 0.0, 0.0, 0.0, 0.0]"
1569265696446138777,,61955,,1569265696,403012990,"""knife_link""",,0.0110613068337,0.2530646181,0.843424998322,0.473782881459,"[0.0, 0.0, 0.0, 0.0, 0.0, 0.0, 0.0, 0.0, 0.0]",,-1.86276612824,-0.304199134823,-0.695464854859,"[0.0, 0.0, 0.0, 0.0, 0.0, 0.0, 0.0, 0.0, 0.0]",,-2.05163805,6.05674965,9.1881972,"[0.0, 0.0, 0.0, 0.0, 0.0, 0.0, 0.0, 0.0, 0.0]"
1569265696552494981,,61956,,1569265696,444885969,"""knife_link""",,0.0200788425345,0.265638299784,0.833403104952,0.484223500491,"[0.0, 0.0, 0.0, 0.0, 0.0, 0.0, 0.0, 0.0, 0.0]",,0.776171700786,-0.108722258599,-0.349889662963,"[0.0, 0.0, 0.0, 0.0, 0.0, 0.0, 0.0, 0.0, 0.0]",,-4.78061115,6.72426825,10.3269054,"[0.0, 0.0, 0.0, 0.0, 0.0, 0.0, 0.0, 0.0, 0.0]"
1569265696554105754,,61957,,1569265696,551259040,"""knife_link""",,-0.0134029135952,0.253556996588,0.810288586696,0.528168171759,"[0.0, 0.0, 0.0, 0.0, 0.0, 0.0, 0.0, 0.0, 0.0]",,-0.412397519826,0.224635628533,-0.981698852187,"[0.0, 0.0, 0.0, 0.0, 0.0, 0.0, 0.0, 0.0, 0.0]",,-3.34740945,3.4553904,9.620121,"[0.0, 0.0, 0.0, 0.0, 0.0, 0.0, 0.0, 0.0, 0.0]"
1569265696622983700,,61958,,1569265696,553397893,"""knife_link""",,-0.01293220102,0.255560492456,0.806438350087,0.533084215093,"[0.0, 0.0, 0.0, 0.0, 0.0, 0.0, 0.0, 0.0, 0.0]",,0.948959296734,0.0972265931372,-0.965990888919,"[0.0, 0.0, 0.0, 0.0, 0.0, 0.0, 0.0, 0.0, 0.0]",,-4.8689592,3.77933325,6.3414267,"[0.0, 0.0, 0.0, 0.0, 0.0, 0.0, 0.0, 0.0, 0.0]"
1569265696637281464,,61959,,1569265696,621467113,"""knife_link""",,0.015558630641,0.276165915541,0.791381477817,0.545165729549,"[0.0, 0.0, 0.0, 0.0, 0.0, 0.0, 0.0, 0.0, 0.0]",,1.01179114981,-0.391465597423,-0.182338054771,"[0.0, 0.0, 0.0, 0.0, 0.0, 0.0, 0.0, 0.0, 0.0]",,-3.6909852,4.89840855,8.638476,"[0.0, 0.0, 0.0, 0.0, 0.0, 0.0, 0.0, 0.0, 0.0]"
1569265696680271075,,61960,,1569265696,636497020,"""knife_link""",,0.0197472240914,0.275541750486,0.790501573952,0.546620574493,"[0.0, 0.0, 0.0, 0.0, 0.0, 0.0, 0.0, 0.0, 0.0]",,-0.030170413638,-0.222168659979,0.370931318113,"[0.0, 0.0, 0.0, 0.0, 0.0, 0.0, 0.0, 0.0, 0.0]",,-1.42338525,5.95858515,6.97949595,"[0.0, 0.0, 0.0, 0.0, 0.0, 0.0, 0.0, 0.0, 0.0]"
1569265696744765134,,61961,,1569265696,679260969,"""knife_link""",,0.0145729657439,0.27543767944,0.804224227755,0.526445728357,"[0.0, 0.0, 0.0, 0.0, 0.0, 0.0, 0.0, 0.0, 0.0]",,-0.37225494703,0.633042673501,1.16854678628,"[0.0, 0.0, 0.0, 0.0, 0.0, 0.0, 0.0, 0.0, 0.0]",,0.91292985,5.104554,7.9513245,"[0.0, 0.0, 0.0, 0.0, 0.0, 0.0, 0.0, 0.0, 0.0]"
1569265696829657034,,61962,,1569265696,743485927,"""knife_link""",,0.0170611666394,0.29223196785,0.834323719949,0.467133090124,"[0.0, 0.0, 0.0, 0.0, 0.0, 0.0, 0.0, 0.0, 0.0]",,0.187995742862,0.866916793269,2.09531661909,"[0.0, 0.0, 0.0, 0.0, 0.0, 0.0, 0.0, 0.0, 0.0]",,1.4332017,4.515567,7.6175652,"[0.0, 0.0, 0.0, 0.0, 0.0, 0.0, 0.0, 0.0, 0.0]"
1569265696872037110,,61963,,1569265696,827800035,"""knife_link""",,0.0246741114694,0.311051396275,0.865052635157,0.39283858709,"[0.0, 0.0, 0.0, 0.0, 0.0, 0.0, 0.0, 0.0, 0.0]",,0.259554242194,0.690638538817,1.94521830342,"[0.0, 0.0, 0.0, 0.0, 0.0, 0.0, 0.0, 0.0, 0.0]",,1.20742335,4.0247445,7.98077385,"[0.0, 0.0, 0.0, 0.0, 0.0, 0.0, 0.0, 0.0, 0.0]"
1569265696892243313,,61964,,1569265696,870244979,"""knife_link""",,0.0352718209088,0.318081657973,0.8777658991,0.35652066404,"[0.0, 0.0, 0.0, 0.0, 0.0, 0.0, 0.0, 0.0, 0.0]",,0.329367412274,0.441056455781,2.03423009527,"[0.0, 0.0, 0.0, 0.0, 0.0, 0.0, 0.0, 0.0, 0.0]",,0.79513245,4.2407064,8.37343185,"[0.0, 0.0, 0.0, 0.0, 0.0, 0.0, 0.0, 0.0, 0.0]"
1569265696955823450,,61965,,1569265696,891290903,"""knife_link""",,0.0409503306557,0.314463029735,0.884414052586,0.342414744042,"[0.0, 0.0, 0.0, 0.0, 0.0, 0.0, 0.0, 0.0, 0.0]",,-0.274516508918,0.207182336013,1.93998231566,"[0.0, 0.0, 0.0, 0.0, 0.0, 0.0, 0.0, 0.0, 0.0]",,0.1374303,4.1818077,7.7746284,"[0.0, 0.0, 0.0, 0.0, 0.0, 0.0, 0.0, 0.0, 0.0]"
1569265696999434203,,61966,,1569265696,955009937,"""knife_link""",,0.0657482302033,0.312813802492,0.899863849134,0.296765476796,"[0.0, 0.0, 0.0, 0.0, 0.0, 0.0, 0.0, 0.0, 0.0]",,0.11643724353,-0.136647526631,1.803846634,"[0.0, 0.0, 0.0, 0.0, 0.0, 0.0, 0.0, 0.0, 0.0]",,-0.2159619,5.46776265,7.84334355,"[0.0, 0.0, 0.0, 0.0, 0.0, 0.0, 0.0, 0.0, 0.0]"
1569265697083072814,,61967,,1569265696,997550010,"""knife_link""",,0.0788635633449,0.31639369565,0.903167638693,0.279219956571,"[0.0, 0.0, 0.0, 0.0, 0.0, 0.0, 0.0, 0.0, 0.0]",,0.355547351054,-0.106976929347,1.15458415226,"[0.0, 0.0, 0.0, 0.0, 0.0, 0.0, 0.0, 0.0, 0.0]",,-0.79513245,5.497212,8.94278595,"[0.0, 0.0, 0.0, 0.0, 0.0, 0.0, 0.0, 0.0, 0.0]"
1569265697084932652,,61968,,1569265697,82453966,"""knife_link""",,0.0948559648342,0.31660037955,0.907864973434,0.25796847795,"[0.0, 0.0, 0.0, 0.0, 0.0, 0.0, 0.0, 0.0, 0.0]",,0.119927902034,-0.103486270843,0.688581241977,"[0.0, 0.0, 0.0, 0.0, 0.0, 0.0, 0.0, 0.0, 0.0]",,0.0785316,5.97821805,8.5010457,"[0.0, 0.0, 0.0, 0.0, 0.0, 0.0, 0.0, 0.0, 0.0]"
1569265697147085148,,61969,,1569265697,84302902,"""knife_link""",,0.0963826581525,0.315681349151,0.906942875068,0.261744704568,"[0.0, 0.0, 0.0, 0.0, 0.0, 0.0, 0.0, 0.0, 0.0]",,-0.278007167422,-0.283255183799,0.657165315441,"[0.0, 0.0, 0.0, 0.0, 0.0, 0.0, 0.0, 0.0, 0.0]",,-0.38284155,5.9095029,8.07893835,"[0.0, 0.0, 0.0, 0.0, 0.0, 0.0, 0.0, 0.0, 0.0]"
1569265697214697527,,61970,,1569265697,146277904,"""knife_link""",,0.104819337809,0.30097383732,0.908329445366,0.270860248747,"[0.0, 0.0, 0.0, 0.0, 0.0, 0.0, 0.0, 0.0, 0.0]",,-0.400180215062,-0.370521646399,-0.0165317758312,"[0.0, 0.0, 0.0, 0.0, 0.0, 0.0, 0.0, 0.0, 0.0]",,0.53990475,5.70335745,7.43105265,"[0.0, 0.0, 0.0, 0.0, 0.0, 0.0, 0.0, 0.0, 0.0]"
1569265697231917991,,61971,,1569265697,211004018,"""knife_link""",,0.115930901379,0.299063447301,0.904437438398,0.281272111341,"[0.0, 0.0, 0.0, 0.0, 0.0, 0.0, 0.0, 0.0, 0.0]",,0.048369402702,-0.351323024627,-0.122996860203,"[0.0, 0.0, 0.0, 0.0, 0.0, 0.0, 0.0, 0.0, 0.0]",,1.1387082,5.5168449,7.43105265,"[0.0, 0.0, 0.0, 0.0, 0.0, 0.0, 0.0, 0.0, 0.0]"
1569265697324530044,,61972,,1569265697,231187105,"""knife_link""",,0.120342682402,0.299528205004,0.90238089412,0.285498187607,"[0.0, 0.0, 0.0, 0.0, 0.0, 0.0, 0.0, 0.0, 0.0]",,0.215921010894,-0.255329915767,-0.0287490805952,"[0.0, 0.0, 0.0, 0.0, 0.0, 0.0, 0.0, 0.0, 0.0]",,1.36448655,5.5168449,7.85316,"[0.0, 0.0, 0.0, 0.0, 0.0, 0.0, 0.0, 0.0, 0.0]"
1569265697338703980,,61973,,1569265697,322765111,"""knife_link""",,0.127525699334,0.305133858553,0.898955343025,0.287245218623,"[0.0, 0.0, 0.0, 0.0, 0.0, 0.0, 0.0, 0.0, 0.0]",,0.181014425854,-0.0668343565508,0.0375734309808,"[0.0, 0.0, 0.0, 0.0, 0.0, 0.0, 0.0, 0.0, 0.0]",,1.4724675,6.1254648,8.245818,"[0.0, 0.0, 0.0, 0.0, 0.0, 0.0, 0.0, 0.0, 0.0]"
1569265697380986956,,61974,,1569265697,337744951,"""knife_link""",,0.131428766257,0.306226571558,0.897243866089,0.289663962269,"[0.0, 0.0, 0.0, 0.0, 0.0, 0.0, 0.0, 0.0, 0.0]",,0.36950998507,-0.211696684467,0.156255820117,"[0.0, 0.0, 0.0, 0.0, 0.0, 0.0, 0.0, 0.0, 0.0]",,0.99146145,5.2616172,7.21509075,"[0.0, 0.0, 0.0, 0.0, 0.0, 0.0, 0.0, 0.0, 0.0]"
1569265697444481703,,61975,,1569265697,380124092,"""knife_link""",,0.145000321931,0.302262893676,0.897106564166,0.28777050279,"[0.0, 0.0, 0.0, 0.0, 0.0, 0.0, 0.0, 0.0, 0.0]",,0.05535071971,-0.485713377031,0.421545866421,"[0.0, 0.0, 0.0, 0.0, 0.0, 0.0, 0.0, 0.0, 0.0]",,1.40375235,5.66409165,7.7746284,"[0.0, 0.0, 0.0, 0.0, 0.0, 0.0, 0.0, 0.0, 0.0]"
1569265697487278939,,61976,,1569265697,443775892,"""knife_link""",,0.156295042667,0.298152758747,0.897573105687,0.284674045245,"[0.0, 0.0, 0.0, 0.0, 0.0, 0.0, 0.0, 0.0, 0.0]",,0.018698805418,-0.253584586515,0.297627489529,"[0.0, 0.0, 0.0, 0.0, 0.0, 0.0, 0.0, 0.0, 0.0]",,1.3546701,5.48739555,7.9905903,"[0.0, 0.0, 0.0, 0.0, 0.0, 0.0, 0.0, 0.0, 0.0]"
1569265697529630913,,61977,,1569265697,486522912,"""knife_link""",,0.162866854965,0.302322811678,0.894894076568,0.285026133566,"[0.0, 0.0, 0.0, 0.0, 0.0, 0.0, 0.0, 0.0, 0.0]",,0.33460340003,-0.140138185135,0.126585222833,"[0.0, 0.0, 0.0, 0.0, 0.0, 0.0, 0.0, 0.0, 0.0]",,1.3546701,5.0849211,7.25435655,"[0.0, 0.0, 0.0, 0.0, 0.0, 0.0, 0.0, 0.0, 0.0]"
1569265697598427286,,61978,,1569265697,528716087,"""knife_link""",,0.17468684793,0.318006089312,0.885550748635,0.290097404181,"[0.0, 0.0, 0.0, 0.0, 0.0, 0.0, 0.0, 0.0, 0.0]",,0.950704625986,-0.328633744351,-0.184083384023,"[0.0, 0.0, 0.0, 0.0, 0.0, 0.0, 0.0, 0.0, 0.0]",,1.4528346,5.3401488,6.68500245,"[0.0, 0.0, 0.0, 0.0, 0.0, 0.0, 0.0, 0.0, 0.0]"
1569265697636075147,,61979,,1569265697,592648029,"""knife_link""",,0.193076354713,0.365539994534,0.855145051525,0.312776237107,"[0.0, 0.0, 0.0, 0.0, 0.0, 0.0, 0.0, 0.0, 0.0]",,1.68374291183,-0.394956255927,-0.920612328367,"[0.0, 0.0, 0.0, 0.0, 0.0, 0.0, 0.0, 0.0, 0.0]",,1.56081555,6.99912885,6.72426825,"[0.0, 0.0, 0.0, 0.0, 0.0, 0.0, 0.0, 0.0, 0.0]"
1569265697699370373,,61980,,1569265697,635240077,"""knife_link""",,0.209797439904,0.40509280472,0.821375477377,0.342384548334,"[0.0, 0.0, 0.0, 0.0, 0.0, 0.0, 0.0, 0.0, 0.0]",,2.11134857857,-0.749258094083,-1.71648246728,"[0.0, 0.0, 0.0, 0.0, 0.0, 0.0, 0.0, 0.0, 0.0]",,3.36704235,9.1489314,3.7891497,"[0.0, 0.0, 0.0, 0.0, 0.0, 0.0, 0.0, 0.0, 0.0]"
1569265697746297183,,61981,,1569265697,698570966,"""knife_link""",,0.249279911747,0.506031242022,0.740561181005,0.365186315305,"[0.0, 0.0, 0.0, 0.0, 0.0, 0.0, 0.0, 0.0, 0.0]",,3.96837890269,-0.684680911759,-1.5995454074,"[0.0, 0.0, 0.0, 0.0, 0.0, 0.0, 0.0, 0.0, 0.0]",,3.03328305,10.5821331,4.38795315,"[0.0, 0.0, 0.0, 0.0, 0.0, 0.0, 0.0, 0.0, 0.0]"
1569265697791762687,,61982,,1569265697,741822004,"""knife_link""",,0.282602122015,0.583998338795,0.679215584214,0.343144533802,"[0.0, 0.0, 0.0, 0.0, 0.0, 0.0, 0.0, 0.0, 0.0]",,4.92132867429,0.132133178177,-0.417957503791,"[0.0, 0.0, 0.0, 0.0, 0.0, 0.0, 0.0, 0.0, 0.0]",,2.20870125,10.21892445,0.392658,"[0.0, 0.0, 0.0, 0.0, 0.0, 0.0, 0.0, 0.0, 0.0]"
1569265697848035049,,61983,,1569265697,790647983,"""knife_link""",,0.301399941274,0.643414174775,0.616639735242,0.33901579907,"[0.0, 0.0, 0.0, 0.0, 0.0, 0.0, 0.0, 0.0, 0.0]",,3.46746940737,-0.195988721199,-0.995661486203,"[0.0, 0.0, 0.0, 0.0, 0.0, 0.0, 0.0, 0.0, 0.0]",,-1.766961,11.4067149,-1.60008135,"[0.0, 0.0, 0.0, 0.0, 0.0, 0.0, 0.0, 0.0, 0.0]"
1569265697891620631,,61984,,1569265697,847351074,"""knife_link""",,0.361338326832,0.675776006019,0.549013592922,0.333684698537,"[0.0, 0.0, 0.0, 0.0, 0.0, 0.0, 0.0, 0.0, 0.0]",,3.02066511886,-1.43342716087,0.316826111301,"[0.0, 0.0, 0.0, 0.0, 0.0, 0.0, 0.0, 0.0, 0.0]",,-2.07127095,6.76353405,-2.11053675,"[0.0, 0.0, 0.0, 0.0, 0.0, 0.0, 0.0, 0.0, 0.0]"
1569265697937262757,,61985,,1569265697,890435934,"""knife_link""",,0.398839532081,0.650290644826,0.552686447768,0.335539558554,"[0.0, 0.0, 0.0, 0.0, 0.0, 0.0, 0.0, 0.0, 0.0]",,-0.236119265374,-1.2466769309,1.61535107479,"[0.0, 0.0, 0.0, 0.0, 0.0, 0.0, 0.0, 0.0, 0.0]",,-0.6871515,9.227463,-2.26759995,"[0.0, 0.0, 0.0, 0.0, 0.0, 0.0, 0.0, 0.0, 0.0]"
1569265697997319464,,61986,,1569265697,935100078,"""knife_link""",,0.423737195222,0.627729394225,0.550254183656,0.351600526706,"[0.0, 0.0, 0.0, 0.0, 0.0, 0.0, 0.0, 0.0, 0.0]",,-0.419378836834,-1.38804860031,0.686835912725,"[0.0, 0.0, 0.0, 0.0, 0.0, 0.0, 0.0, 0.0, 0.0]",,-0.06871515,10.63121535,-2.81732115,"[0.0, 0.0, 0.0, 0.0, 0.0, 0.0, 0.0, 0.0, 0.0]"
1569265698039678200,,61987,,1569265697,996133089,"""knife_link""",,0.445753570015,0.60786594667,0.544264346093,0.368210628946,"[0.0, 0.0, 0.0, 0.0, 0.0, 0.0, 0.0, 0.0, 0.0]",,-0.194231363326,-1.00407616487,0.365695330357,"[0.0, 0.0, 0.0, 0.0, 0.0, 0.0, 0.0, 0.0, 0.0]",,-0.2944935,9.33544395,-0.3337593,"[0.0, 0.0, 0.0, 0.0, 0.0, 0.0, 0.0, 0.0, 0.0]"
1569265698125315332,,61988,,1569265698,38897991,"""knife_link""",,0.435781186035,0.594739684528,0.560290938824,0.377430164953,"[0.0, 0.0, 0.0, 0.0, 0.0, 0.0, 0.0, 0.0, 0.0]",,-1.1332185009,0.167039763217,0.0340827724768,"[0.0, 0.0, 0.0, 0.0, 0.0, 0.0, 0.0, 0.0, 0.0]",,-0.0392658,10.2483738,-0.10798095,"[0.0, 0.0, 0.0, 0.0, 0.0, 0.0, 0.0, 0.0, 0.0]"
1569265698146321661,,61989,,1569265698,123914957,"""knife_link""",,0.398235619824,0.580599738877,0.58750572429,0.398935280773,"[0.0, 0.0, 0.0, 0.0, 0.0, 0.0, 0.0, 0.0, 0.0]",,-1.12449185464,0.385205919717,-0.426684150051,"[0.0, 0.0, 0.0, 0.0, 0.0, 0.0, 0.0, 0.0, 0.0]",,0.26504415,10.29745605,-0.14724675,"[0.0, 0.0, 0.0, 0.0, 0.0, 0.0, 0.0, 0.0, 0.0]"
1569265698232273292,,61990,,1569265698,145363092,"""knife_link""",,0.395996280533,0.583874042122,0.584224536679,0.401197880705,"[0.0, 0.0, 0.0, 0.0, 0.0, 0.0, 0.0, 0.0, 0.0]",,0.19497705987,0.153077129201,-0.499987978635,"[0.0, 0.0, 0.0, 0.0, 0.0, 0.0, 0.0, 0.0, 0.0]",,0.196329,9.82626645,0.1570632,"[0.0, 0.0, 0.0, 0.0, 0.0, 0.0, 0.0, 0.0, 0.0]"
1569265698233321413,,61991,,1569265698,230508089,"""knife_link""",,0.375684633233,0.586009425922,0.591811968366,0.406463532414,"[0.0, 0.0, 0.0, 0.0, 0.0, 0.0, 0.0, 0.0, 0.0]",,-0.314659081714,0.339827359165,-0.321964394931,"[0.0, 0.0, 0.0, 0.0, 0.0, 0.0, 0.0, 0.0, 0.0]",,1.56081555,9.3059946,0.42210735,"[0.0, 0.0, 0.0, 0.0, 0.0, 0.0, 0.0, 0.0, 0.0]"
1569265698338035212,,61992,,1569265698,232804059,"""knife_link""",,0.376551876693,0.585162715034,0.591826075626,0.406860144646,"[0.0, 0.0, 0.0, 0.0, 0.0, 0.0, 0.0, 0.0, 0.0]",,-0.030170413638,0.695874526573,-0.332436370443,"[0.0, 0.0, 0.0, 0.0, 0.0, 0.0, 0.0, 0.0, 0.0]",,1.766961,9.9342474,0.97182855,"[0.0, 0.0, 0.0, 0.0, 0.0, 0.0, 0.0, 0.0, 0.0]"
1569265698359535674,,61993,,1569265698,336643934,"""knife_link""",,0.357178609569,0.60504265925,0.594509634642,0.391030837239,"[0.0, 0.0, 0.0, 0.0, 0.0, 0.0, 0.0, 0.0, 0.0]",,0.16879712109,0.617334710233,-0.177102067015,"[0.0, 0.0, 0.0, 0.0, 0.0, 0.0, 0.0, 0.0, 0.0]",,1.1583411,9.39434265,1.24668915,"[0.0, 0.0, 0.0, 0.0, 0.0, 0.0, 0.0, 0.0, 0.0]"
1569265698402131411,,61994,,1569265698,357912063,"""knife_link""",,0.354008937406,0.601109509453,0.600587021461,0.390692026452,"[0.0, 0.0, 0.0, 0.0, 0.0, 0.0, 0.0, 0.0, 0.0]",,-0.627073017822,0.465491065309,0.152765161613,"[0.0, 0.0, 0.0, 0.0, 0.0, 0.0, 0.0, 0.0, 0.0]",,0.4711896,9.13911495,1.28595495,"[0.0, 0.0, 0.0, 0.0, 0.0, 0.0, 0.0, 0.0, 0.0]"
1569265698464825167,,61995,,1569265698,399601936,"""knife_link""",,0.343098597935,0.589218953308,0.616836883117,0.39321322051,"[0.0, 0.0, 0.0, 0.0, 0.0, 0.0, 0.0, 0.0, 0.0]",,-1.0424613798,0.407895199993,0.0969146255488,"[0.0, 0.0, 0.0, 0.0, 0.0, 0.0, 0.0, 0.0, 0.0]",,0.7067844,9.41397555,1.50191685,"[0.0, 0.0, 0.0, 0.0, 0.0, 0.0, 0.0, 0.0, 0.0]"
1569265698485916396,,61996,,1569265698,463875055,"""knife_link""",,0.332909772336,0.577750119202,0.631061609889,0.396405256989,"[0.0, 0.0, 0.0, 0.0, 0.0, 0.0, 0.0, 0.0, 0.0]",,-0.63405433483,0.222890299281,0.0340827724768,"[0.0, 0.0, 0.0, 0.0, 0.0, 0.0, 0.0, 0.0, 0.0]",,0.9620121,9.90479805,1.6687965,"[0.0, 0.0, 0.0, 0.0, 0.0, 0.0, 0.0, 0.0, 0.0]"
1569265698549743385,,61997,,1569265698,485161066,"""knife_link""",,0.338160134097,0.579312655045,0.625240017901,0.398897845854,"[0.0, 0.0, 0.0, 0.0, 0.0, 0.0, 0.0, 0.0, 0.0]",,0.538806922514,-0.356559012383,-0.114270213943,"[0.0, 0.0, 0.0, 0.0, 0.0, 0.0, 0.0, 0.0, 0.0]",,-0.2159619,10.012779,1.4528346,"[0.0, 0.0, 0.0, 0.0, 0.0, 0.0, 0.0, 0.0, 0.0]"
1569265698592442849,,61998,,1569265698,548862934,"""knife_link""",,0.349577390925,0.582596269531,0.610355757063,0.407238363005,"[0.0, 0.0, 0.0, 0.0, 0.0, 0.0, 0.0, 0.0, 0.0]",,0.39568992385,-0.426372182463,-0.180592725519,"[0.0, 0.0, 0.0, 0.0, 0.0, 0.0, 0.0, 0.0, 0.0]",,0.10798095,10.35635475,1.374303,"[0.0, 0.0, 0.0, 0.0, 0.0, 0.0, 0.0, 0.0, 0.0]"
1569265698655842256,,61999,,1569265698,591411113,"""knife_link""",,0.352027396326,0.583214110661,0.608366340631,0.407220344469,"[0.0, 0.0, 0.0, 0.0, 0.0, 0.0, 0.0, 0.0, 0.0]",,0.130399877546,0.00996013053722,0.00790283369685,"[0.0, 0.0, 0.0, 0.0, 0.0, 0.0, 0.0, 0.0, 0.0]",,0.3141264,9.39434265,1.30558785,"[0.0, 0.0, 0.0, 0.0, 0.0, 0.0, 0.0, 0.0, 0.0]"
1569265698719402332,,62000,,1569265698,654900074,"""knife_link""",,0.341569999253,0.583524490691,0.614021433658,0.407193790942,"[0.0, 0.0, 0.0, 0.0, 0.0, 0.0, 0.0, 0.0, 0.0]",,-0.234373936122,0.336336700661,-0.122996860203,"[0.0, 0.0, 0.0, 0.0, 0.0, 0.0, 0.0, 0.0, 0.0]",,-0.196329,10.39562055,0.9620121,"[0.0, 0.0, 0.0, 0.0, 0.0, 0.0, 0.0, 0.0, 0.0]"
1569265698761816846,,62001,,1569265698,718622922,"""knife_link""",,0.329640832959,0.576968555542,0.61701549886,0.421587572549,"[0.0, 0.0, 0.0, 0.0, 0.0, 0.0, 0.0, 0.0, 0.0]",,-0.501409311678,-0.0179651374948,-0.383050918751,"[0.0, 0.0, 0.0, 0.0, 0.0, 0.0, 0.0, 0.0, 0.0]",,-0.67733505,10.57231665,0.65770215,"[0.0, 0.0, 0.0, 0.0, 0.0, 0.0, 0.0, 0.0, 0.0]"
1569265698804788176,,62002,,1569265698,761137962,"""knife_link""",,0.303047021303,0.531852216592,0.654610366277,0.443600034883,"[0.0, 0.0, 0.0, 0.0, 0.0, 0.0, 0.0, 0.0, 0.0]",,-3.22586827405,-0.0319277715108,0.0777160037768,"[0.0, 0.0, 0.0, 0.0, 0.0, 0.0, 0.0, 0.0, 0.0]",,0.36320865,9.96369675,2.07127095,"[0.0, 0.0, 0.0, 0.0, 0.0, 0.0, 0.0, 0.0, 0.0]"
1569265698869331255,,62003,,1569265698,803992033,"""knife_link""",,0.283981538554,0.481852289449,0.697862252455,0.447393711971,"[0.0, 0.0, 0.0, 0.0, 0.0, 0.0, 0.0, 0.0, 0.0]",,-3.06355265361,0.165294433965,1.04462840938,"[0.0, 0.0, 0.0, 0.0, 0.0, 0.0, 0.0, 0.0, 0.0]",,-0.0981645,7.98077385,3.17071335,"[0.0, 0.0, 0.0, 0.0, 0.0, 0.0, 0.0, 0.0, 0.0]"
1569265698889143453,,62004,,1569265698,868221044,"""knife_link""",,0.253374045241,0.399533722218,0.762332668016,0.441614426037,"[0.0, 0.0, 0.0, 0.0, 0.0, 0.0, 0.0, 0.0, 0.0]",,-3.16827240873,0.264778201329,1.28548384616,"[0.0, 0.0, 0.0, 0.0, 0.0, 0.0, 0.0, 0.0, 0.0]",,3.4357575,7.6371981,3.92658,"[0.0, 0.0, 0.0, 0.0, 0.0, 0.0, 0.0, 0.0, 0.0]"
1569265698932781937,,62005,,1569265698,888422966,"""knife_link""",,0.255958622418,0.391552440038,0.767172665559,0.438882639814,"[0.0, 0.0, 0.0, 0.0, 0.0, 0.0, 0.0, 0.0, 0.0]",,-0.550278530734,-0.0266917837548,0.669382620205,"[0.0, 0.0, 0.0, 0.0, 0.0, 0.0, 0.0, 0.0, 0.0]",,4.27015575,6.56720505,5.7131739,"[0.0, 0.0, 0.0, 0.0, 0.0, 0.0, 0.0, 0.0, 0.0]"
1569265698995633548,,62006,,1569265698,931539058,"""knife_link""",,0.252733668703,0.372816166593,0.779323960869,0.435646602933,"[0.0, 0.0, 0.0, 0.0, 0.0, 0.0, 0.0, 0.0, 0.0]",,-0.86967378385,0.0378853985692,0.543718914061,"[0.0, 0.0, 0.0, 0.0, 0.0, 0.0, 0.0, 0.0, 0.0]",,2.7289731,7.1071098,7.52921715,"[0.0, 0.0, 0.0, 0.0, 0.0, 0.0, 0.0, 0.0, 0.0]"
1569265699038207089,,62007,,1569265698,994906902,"""knife_link""",,0.253162651996,0.346400346074,0.787085657404,0.44318352833,"[0.0, 0.0, 0.0, 0.0, 0.0, 0.0, 0.0, 0.0, 0.0]",,-0.785897979754,-0.347832366123,0.161491807873,"[0.0, 0.0, 0.0, 0.0, 0.0, 0.0, 0.0, 0.0, 0.0]",,2.6504415,8.0102232,7.3819704,"[0.0, 0.0, 0.0, 0.0, 0.0, 0.0, 0.0, 0.0, 0.0]"
1569265699102093072,,62008,,1569265699,37431001,"""knife_link""",,0.266942211245,0.331574309842,0.787198565072,0.446227242621,"[0.0, 0.0, 0.0, 0.0, 0.0, 0.0, 0.0, 0.0, 0.0]",,-0.246591240886,-0.810344617903,0.327298086813,"[0.0, 0.0, 0.0, 0.0, 0.0, 0.0, 0.0, 0.0, 0.0]",,1.5902649,6.21381285,7.70591325,"[0.0, 0.0, 0.0, 0.0, 0.0, 0.0, 0.0, 0.0, 0.0]"
1569265699145011407,,62009,,1569265699,101262092,"""knife_link""",,0.288138622316,0.321813036826,0.782090364008,0.449162739088,"[0.0, 0.0, 0.0, 0.0, 0.0, 0.0, 0.0, 0.0, 0.0]",,0.128654548294,-0.707370192035,0.177199771141,"[0.0, 0.0, 0.0, 0.0, 0.0, 0.0, 0.0, 0.0, 0.0]",,1.6098978,5.5168449,7.58811585,"[0.0, 0.0, 0.0, 0.0, 0.0, 0.0, 0.0, 0.0, 0.0]"
1569265699187042654,,62010,,1569265699,144346952,"""knife_link""",,0.282200895082,0.295416638347,0.792672762775,0.452505862676,"[0.0, 0.0, 0.0, 0.0, 0.0, 0.0, 0.0, 0.0, 0.0]",,-1.22572095126,-0.209951355215,0.376167305869,"[0.0, 0.0, 0.0, 0.0, 0.0, 0.0, 0.0, 0.0, 0.0]",,2.11053675,5.0652882,7.50958425,"[0.0, 0.0, 0.0, 0.0, 0.0, 0.0, 0.0, 0.0, 0.0]"
1569265699229911130,,62011,,1569265699,186274051,"""knife_link""",,0.274412261743,0.27735144906,0.799819011708,0.456139926799,"[0.0, 0.0, 0.0, 0.0, 0.0, 0.0, 0.0, 0.0, 0.0]",,-0.990101502238,-0.0144744789908,0.164982466377,"[0.0, 0.0, 0.0, 0.0, 0.0, 0.0, 0.0, 0.0, 0.0]",,2.2970493,6.33161025,6.5770215,"[0.0, 0.0, 0.0, 0.0, 0.0, 0.0, 0.0, 0.0, 0.0]"
1569265699294348120,,62012,,1569265699,228986978,"""knife_link""",,0.266407043999,0.269758755966,0.806838592961,0.45306620421,"[0.0, 0.0, 0.0, 0.0, 0.0, 0.0, 0.0, 0.0, 0.0]",,-0.525843921206,0.297939457117,0.287155514017,"[0.0, 0.0, 0.0, 0.0, 0.0, 0.0, 0.0, 0.0, 0.0]",,1.9436571,7.58811585,6.37087605,"[0.0, 0.0, 0.0, 0.0, 0.0, 0.0, 0.0, 0.0, 0.0]"
1569265699337189420,,62013,,1569265699,292969942,"""knife_link""",,0.2636945757,0.292232192899,0.803266614475,0.447021545621,"[0.0, 0.0, 0.0, 0.0, 0.0, 0.0, 0.0, 0.0, 0.0]",,0.592912129326,0.441056455781,-0.0898356044152,"[0.0, 0.0, 0.0, 0.0, 0.0, 0.0, 0.0, 0.0, 0.0]",,2.355948,8.1280206,5.93895225,"[0.0, 0.0, 0.0, 0.0, 0.0, 0.0, 0.0, 0.0, 0.0]"
1569265699378532881,,62014,,1569265699,336096048,"""knife_link""",,0.259379015265,0.312434079127,0.807057404864,0.428679154957,"[0.0, 0.0, 0.0, 0.0, 0.0, 0.0, 0.0, 0.0, 0.0]",,0.82329559059,0.934984634097,0.487868377997,"[0.0, 0.0, 0.0, 0.0, 0.0, 0.0, 0.0, 0.0, 0.0]",,2.28723285,7.7157297,5.8113384,"[0.0, 0.0, 0.0, 0.0, 0.0, 0.0, 0.0, 0.0, 0.0]"
1569265699443630454,,62015,,1569265699,377629995,"""knife_link""",,0.242768667983,0.358618345245,0.798989833075,0.417218771082,"[0.0, 0.0, 0.0, 0.0, 0.0, 0.0, 0.0, 0.0, 0.0]",,1.72912147238,1.74132674852,-0.489516003123,"[0.0, 0.0, 0.0, 0.0, 0.0, 0.0, 0.0, 0.0, 0.0]",,0.9620121,7.37215395,2.5326441,"[0.0, 0.0, 0.0, 0.0, 0.0, 0.0, 0.0, 0.0, 0.0]"
1569265699484528318,,62016,,1569265699,441647052,"""knife_link""",,0.244602765491,0.468434845801,0.745223983581,0.406668780027,"[0.0, 0.0, 0.0, 0.0, 0.0, 0.0, 0.0, 0.0, 0.0]",,3.46572407812,1.16711342461,-1.21208231345,"[0.0, 0.0, 0.0, 0.0, 0.0, 0.0, 0.0, 0.0, 0.0]",,-0.48100605,8.3047167,3.40630815,"[0.0, 0.0, 0.0, 0.0, 0.0, 0.0, 0.0, 0.0, 0.0]"
1569265699548705599,,62017,,1569265699,483757972,"""knife_link""",,0.257074203703,0.492150971849,0.721201630858,0.41420825963,"[0.0, 0.0, 0.0, 0.0, 0.0, 0.0, 0.0, 0.0, 0.0]",,1.50571932812,-0.332124402855,-0.662303599071,"[0.0, 0.0, 0.0, 0.0, 0.0, 0.0, 0.0, 0.0, 0.0]",,-1.26632205,9.7379184,3.1608969,"[0.0, 0.0, 0.0, 0.0, 0.0, 0.0, 0.0, 0.0, 0.0]"
1569265699591206973,,62018,,1569265699,547636032,"""knife_link""",,0.211358353307,0.423919790036,0.758227098682,0.448008175067,"[0.0, 0.0, 0.0, 0.0, 0.0, 0.0, 0.0, 0.0, 0.0]",,-2.99373948353,-0.00749316198278,-0.403994869775,"[0.0, 0.0, 0.0, 0.0, 0.0, 0.0, 0.0, 0.0, 0.0]",,0.59880345,12.5061573,5.6542752,"[0.0, 0.0, 0.0, 0.0, 0.0, 0.0, 0.0, 0.0, 0.0]"
1569265699634033258,,62019,,1569265699,589987039,"""knife_link""",,0.233120452974,0.497737712315,0.714655479332,0.43264254299,"[0.0, 0.0, 0.0, 0.0, 0.0, 0.0, 0.0, 0.0, 0.0]",,4.11498655986,0.793612964685,-0.672775574583,"[0.0, 0.0, 0.0, 0.0, 0.0, 0.0, 0.0, 0.0, 0.0]",,1.58044845,9.04095045,3.01365015,"[0.0, 0.0, 0.0, 0.0, 0.0, 0.0, 0.0, 0.0, 0.0]"
1569265699697639867,,62020,,1569265699,632755041,"""knife_link""",,0.225111896034,0.565689551541,0.657818992354,0.443389376102,"[0.0, 0.0, 0.0, 0.0, 0.0, 0.0, 0.0, 0.0, 0.0]",,3.30864444544,0.894842061301,-2.40414219257,"[0.0, 0.0, 0.0, 0.0, 0.0, 0.0, 0.0, 0.0, 0.0]",,0.73623375,3.17071335,0.6478857,"[0.0, 0.0, 0.0, 0.0, 0.0, 0.0, 0.0, 0.0, 0.0]"
1569265699739848190,,62021,,1569265699,696221113,"""knife_link""",,0.287027167812,0.587985819118,0.611670449184,0.444687916464,"[0.0, 0.0, 0.0, 0.0, 0.0, 0.0, 0.0, 0.0, 0.0]",,2.14625516361,-1.24493160165,0.250503599725,"[0.0, 0.0, 0.0, 0.0, 0.0, 0.0, 0.0, 0.0, 0.0]",,0.8442147,9.68883615,2.13016965,"[0.0, 0.0, 0.0, 0.0, 0.0, 0.0, 0.0, 0.0, 0.0]"
1569265699782792075,,62022,,1569265699,739027023,"""knife_link""",,0.289557257194,0.596449342589,0.592846286107,0.457097426793,"[0.0, 0.0, 0.0, 0.0, 0.0, 0.0, 0.0, 0.0, 0.0]",,0.612110751098,-0.391465597423,-0.782731317459,"[0.0, 0.0, 0.0, 0.0, 0.0, 0.0, 0.0, 0.0, 0.0]",,-1.42338525,8.4225141,0.3141264,"[0.0, 0.0, 0.0, 0.0, 0.0, 0.0, 0.0, 0.0, 0.0]"
1569265699845904048,,62023,,1569265699,781505107,"""knife_link""",,0.326016588826,0.605079923844,0.564436421456,0.457168454408,"[0.0, 0.0, 0.0, 0.0, 0.0, 0.0, 0.0, 0.0, 0.0]",,1.76577338667,-1.14370250503,0.309844794293,"[0.0, 0.0, 0.0, 0.0, 0.0, 0.0, 0.0, 0.0, 0.0]",,-2.11053675,9.04095045,-1.12889175,"[0.0, 0.0, 0.0, 0.0, 0.0, 0.0, 0.0, 0.0, 0.0]"
1569265699888313012,,62024,,1569265699,844814062,"""knife_link""",,0.333304359873,0.605715587142,0.544850727764,0.474504494854,"[0.0, 0.0, 0.0, 0.0, 0.0, 0.0, 0.0, 0.0, 0.0]",,0.268280888454,-0.609631753923,-0.454609418083,"[0.0, 0.0, 0.0, 0.0, 0.0, 0.0, 0.0, 0.0, 0.0]",,-2.355948,9.98332965,-1.7865939,"[0.0, 0.0, 0.0, 0.0, 0.0, 0.0, 0.0, 0.0, 0.0]"
1569265699930560817,,62025,,1569265699,887506008,"""knife_link""",,0.3392679926,0.610964410844,0.527250188119,0.483349725363,"[0.0, 0.0, 0.0, 0.0, 0.0, 0.0, 0.0, 0.0, 0.0]",,0.617346738854,-0.489204035535,-0.526167917415,"[0.0, 0.0, 0.0, 0.0, 0.0, 0.0, 0.0, 0.0, 0.0]",,-2.4148467,9.86553225,0.48100605,"[0.0, 0.0, 0.0, 0.0, 0.0, 0.0, 0.0, 0.0, 0.0]"
1569265699994991920,,62026,,1569265699,929802894,"""knife_link""",,0.330767332383,0.610448122972,0.523201006541,0.494172811618,"[0.0, 0.0, 0.0, 0.0, 0.0, 0.0, 0.0, 0.0, 0.0]",,-0.269280521162,-0.101740941591,-0.611689050763,"[0.0, 0.0, 0.0, 0.0, 0.0, 0.0, 0.0, 0.0, 0.0]",,-1.83567615,9.02131755,0.8442147,"[0.0, 0.0, 0.0, 0.0, 0.0, 0.0, 0.0, 0.0, 0.0]"
1569265700037757791,,62027,,1569265699,994133949,"""knife_link""",,0.325420543927,0.629801326388,0.523489201672,0.472663532127,"[0.0, 0.0, 0.0, 0.0, 0.0, 0.0, 0.0, 0.0, 0.0]",,0.41314321637,0.842482183741,0.0567720527528,"[0.0, 0.0, 0.0, 0.0, 0.0, 0.0, 0.0, 0.0, 0.0]",,-2.5719099,9.37470975,-1.44301815,"[0.0, 0.0, 0.0, 0.0, 0.0, 0.0, 0.0, 0.0, 0.0]"
1569265700079354553,,62028,,1569265700,36643981,"""knife_link""",,0.304404680383,0.630751484839,0.534172159795,0.473445306909,"[0.0, 0.0, 0.0, 0.0, 0.0, 0.0, 0.0, 0.0, 0.0]",,-0.888872405622,0.744743745629,-0.431920137807,"[0.0, 0.0, 0.0, 0.0, 0.0, 0.0, 0.0, 0.0, 0.0]",,-1.24668915,8.6777418,-6.95986305,"[0.0, 0.0, 0.0, 0.0, 0.0, 0.0, 0.0, 0.0, 0.0]"
1569265700143897034,,62029,,1569265700,78608036,"""knife_link""",,0.304204601125,0.63503626102,0.524330160316,0.478817701037,"[0.0, 0.0, 0.0, 0.0, 0.0, 0.0, 0.0, 0.0, 0.0]",,0.277007534714,-0.120939563363,-0.416212174539,"[0.0, 0.0, 0.0, 0.0, 0.0, 0.0, 0.0, 0.0, 0.0]",,-3.50447265,10.1109435,-0.83439825,"[0.0, 0.0, 0.0, 0.0, 0.0, 0.0, 0.0, 0.0, 0.0]"
1569265700185994248,,62030,,1569265700,143148899,"""knife_link""",,0.297552682479,0.634144258697,0.518187398422,0.49071914618,"[0.0, 0.0, 0.0, 0.0, 0.0, 0.0, 0.0, 0.0, 0.0]",,-0.15408879053,-0.152355489899,-0.428429479303,"[0.0, 0.0, 0.0, 0.0, 0.0, 0.0, 0.0, 0.0, 0.0]",,-1.63934715,9.1881972,-1.8651255,"[0.0, 0.0, 0.0, 0.0, 0.0, 0.0, 0.0, 0.0, 0.0]"
1569265700228144329,,62031,,1569265700,185322999,"""knife_link""",,0.297579958913,0.637782807213,0.508795392392,0.495788773127,"[0.0, 0.0, 0.0, 0.0, 0.0, 0.0, 0.0, 0.0, 0.0]",,0.266535559202,-0.120939563363,-0.410976186783,"[0.0, 0.0, 0.0, 0.0, 0.0, 0.0, 0.0, 0.0, 0.0]",,-2.69952375,10.19929155,-0.20614545,"[0.0, 0.0, 0.0, 0.0, 0.0, 0.0, 0.0, 0.0, 0.0]"
1569265700292552556,,62032,,1569265700,227463960,"""knife_link""",,0.29240944599,0.645171303474,0.49621780014,0.502014541516,"[0.0, 0.0, 0.0, 0.0, 0.0, 0.0, 0.0, 0.0, 0.0]",,0.320640766014,0.0134507890412,-0.697210184111,"[0.0, 0.0, 0.0, 0.0, 0.0, 0.0, 0.0, 0.0, 0.0]",,-4.25052285,9.8753487,-0.00981645,"[0.0, 0.0, 0.0, 0.0, 0.0, 0.0, 0.0, 0.0, 0.0]"
1569265700336326585,,62033,,1569265700,291512012,"""knife_link""",,0.265668450775,0.641546509834,0.496515669373,0.520874783465,"[0.0, 0.0, 0.0, 0.0, 0.0, 0.0, 0.0, 0.0, 0.0]",,-0.723066126682,0.0151961182932,-0.758296707931,"[0.0, 0.0, 0.0, 0.0, 0.0, 0.0, 0.0, 0.0, 0.0]",,-5.95858515,8.0298561,-2.95475145,"[0.0, 0.0, 0.0, 0.0, 0.0, 0.0, 0.0, 0.0, 0.0]"
1569265700377512287,,62034,,1569265700,334429979,"""knife_link""",,0.260929597903,0.642591745192,0.489105293267,0.528930624985,"[0.0, 0.0, 0.0, 0.0, 0.0, 0.0, 0.0, 0.0, 0.0]",,-0.030170413638,-0.129666209623,-0.540130551431,"[0.0, 0.0, 0.0, 0.0, 0.0, 0.0, 0.0, 0.0, 0.0]",,-1.65898005,7.85316,-1.96329,"[0.0, 0.0, 0.0, 0.0, 0.0, 0.0, 0.0, 0.0, 0.0]"
1569265700440885942,,62035,,1569265700,376446008,"""knife_link""",,0.251801227834,0.63131947968,0.493993253423,0.542219993923,"[0.0, 0.0, 0.0, 0.0, 0.0, 0.0, 0.0, 0.0, 0.0]",,-0.890617734874,-0.349577695375,-0.430174808555,"[0.0, 0.0, 0.0, 0.0, 0.0, 0.0, 0.0, 0.0, 0.0]",,1.16815755,8.4225141,-1.4528346,"[0.0, 0.0, 0.0, 0.0, 0.0, 0.0, 0.0, 0.0, 0.0]"
1569265700483121157,,62036,,1569265700,439997911,"""knife_link""",,0.247593784505,0.623618411435,0.492480682471,0.554310537684,"[0.0, 0.0, 0.0, 0.0, 0.0, 0.0, 0.0, 0.0, 0.0]",,-0.283243155178,-0.265801891279,-0.231207273827,"[0.0, 0.0, 0.0, 0.0, 0.0, 0.0, 0.0, 0.0, 0.0]",,4.4959341,6.3806925,0.30430995,"[0.0, 0.0, 0.0, 0.0, 0.0, 0.0, 0.0, 0.0, 0.0]"
1569265700547484742,,62037,,1569265700,482341051,"""knife_link""",,0.25068003681,0.618023832878,0.498233265975,0.554048439955,"[0.0, 0.0, 0.0, 0.0, 0.0, 0.0, 0.0, 0.0, 0.0]",,-0.253572557894,-0.0668343565508,0.322062099057,"[0.0, 0.0, 0.0, 0.0, 0.0, 0.0, 0.0, 0.0, 0.0]",,-2.38539735,2.3952138,-2.01237225,"[0.0, 0.0, 0.0, 0.0, 0.0, 0.0, 0.0, 0.0, 0.0]"
1569265700589613082,,62038,,1569265700,546530008,"""knife_link""",,0.289953227087,0.609029584149,0.520470911501,0.523564821215,"[0.0, 0.0, 0.0, 0.0, 0.0, 0.0, 0.0, 0.0, 0.0]",,0.32587675377,0.0501027033332,1.69214556188,"[0.0, 0.0, 0.0, 0.0, 0.0, 0.0, 0.0, 0.0, 0.0]",,3.54373845,16.6094334,4.0640103,"[0.0, 0.0, 0.0, 0.0, 0.0, 0.0, 0.0, 0.0, 0.0]"
1569265700632100775,,62039,,1569265700,588910102,"""knife_link""",,0.325259408145,0.588556284227,0.554403410447,0.490351584269,"[0.0, 0.0, 0.0, 0.0, 0.0, 0.0, 0.0, 0.0, 0.0]",,-0.175032741554,0.126897190421,2.96274525733,"[0.0, 0.0, 0.0, 0.0, 0.0, 0.0, 0.0, 0.0, 0.0]",,-4.2996051,-1.34485365,-4.60391505,"[0.0, 0.0, 0.0, 0.0, 0.0, 0.0, 0.0, 0.0, 0.0]"
1569265700696996786,,62040,,1569265700,631463050,"""knife_link""",,0.38094287863,0.559937500223,0.594270515447,0.43381456123,"[0.0, 0.0, 0.0, 0.0, 0.0, 0.0, 0.0, 0.0, 0.0]",,0.29097016873,0.137369165933,4.39566057322,"[0.0, 0.0, 0.0, 0.0, 0.0, 0.0, 0.0, 0.0, 0.0]",,5.2419843,19.60345065,-0.22577835,"[0.0, 0.0, 0.0, 0.0, 0.0, 0.0, 0.0, 0.0, 0.0]"
1569265700741368551,,62041,,1569265700,695472955,"""knife_link""",,0.38190565628,0.562624247998,0.590793313598,0.434241045819,"[0.0, 0.0, 0.0, 0.0, 0.0, 0.0, 0.0, 0.0, 0.0]",,0.092002634002,0.0169414475452,-0.0549290193752,"[0.0, 0.0, 0.0, 0.0, 0.0, 0.0, 0.0, 0.0, 0.0]",,-1.0405437,9.4434249,-0.79513245,"[0.0, 0.0, 0.0, 0.0, 0.0, 0.0, 0.0, 0.0, 0.0]"
1569265700780841534,,62042,,1569265700,738480091,"""knife_link""",,0.382644935541,0.559952047453,0.589329683959,0.439006926441,"[0.0, 0.0, 0.0, 0.0, 0.0, 0.0, 0.0, 0.0, 0.0]",,-0.12790885175,-0.155846148403,-0.0863449459112,"[0.0, 0.0, 0.0, 0.0, 0.0, 0.0, 0.0, 0.0, 0.0]",,-0.52027185,10.5821331,-0.06871515,"[0.0, 0.0, 0.0, 0.0, 0.0, 0.0, 0.0, 0.0, 0.0]"
1569265700845042868,,62043,,1569265700,779942989,"""knife_link""",,0.381748253961,0.562642223615,0.585987954584,0.440817553967,"[0.0, 0.0, 0.0, 0.0, 0.0, 0.0, 0.0, 0.0, 0.0]",,0.092002634002,0.0431213863252,-0.180592725519,"[0.0, 0.0, 0.0, 0.0, 0.0, 0.0, 0.0, 0.0, 0.0]",,-0.85403115,9.55140585,-0.02944935,"[0.0, 0.0, 0.0, 0.0, 0.0, 0.0, 0.0, 0.0, 0.0]"
1569265700887146604,,62044,,1569265700,844053030,"""knife_link""",,0.37839341092,0.564583310008,0.581826681903,0.446701046404,"[0.0, 0.0, 0.0, 0.0, 0.0, 0.0, 0.0, 0.0, 0.0]",,-0.030170413638,-0.0197104667468,-0.241679249339,"[0.0, 0.0, 0.0, 0.0, 0.0, 0.0, 0.0, 0.0, 0.0]",,-0.7264173,9.7379184,-0.4908225,"[0.0, 0.0, 0.0, 0.0, 0.0, 0.0, 0.0, 0.0, 0.0]"
1569265700929648997,,62045,,1569265700,886435985,"""knife_link""",,0.379363265798,0.565678874258,0.581053986861,0.445496563549,"[0.0, 0.0, 0.0, 0.0, 0.0, 0.0, 0.0, 0.0, 0.0]",,0.067568024474,0.0832639591212,0.0358281017288,"[0.0, 0.0, 0.0, 0.0, 0.0, 0.0, 0.0, 0.0, 0.0]",,-0.9031134,9.49250715,-0.1374303,"[0.0, 0.0, 0.0, 0.0, 0.0, 0.0, 0.0, 0.0, 0.0]"
1569265700994300940,,62046,,1569265700,928831100,"""knife_link""",,0.381737409844,0.5643282129,0.577881649055,0.449291684473,"[0.0, 0.0, 0.0, 0.0, 0.0, 0.0, 0.0, 0.0, 0.0]",,0.022189463922,-0.185516745687,-0.0584196778792,"[0.0, 0.0, 0.0, 0.0, 0.0, 0.0, 0.0, 0.0, 0.0]",,-2.24796705,10.92570885,0.55953765,"[0.0, 0.0, 0.0, 0.0, 0.0, 0.0, 0.0, 0.0, 0.0]"
1569265701036659519,,62047,,1569265700,993081092,"""knife_link""",,0.368741664242,0.572878904249,0.559630871924,0.47186081985,"[0.0, 0.0, 0.0, 0.0, 0.0, 0.0, 0.0, 0.0, 0.0]",,0.02044413467,-0.218678001475,-0.988680169195,"[0.0, 0.0, 0.0, 0.0, 0.0, 0.0, 0.0, 0.0, 0.0]",,-6.7537176,10.63121535,-0.91292985,"[0.0, 0.0, 0.0, 0.0, 0.0, 0.0, 0.0, 0.0, 0.0]"
1569265701079000825,,62048,,1569265701,35164117,"""knife_link""",,0.355911514449,0.581196638182,0.546515844162,0.486680484228,"[0.0, 0.0, 0.0, 0.0, 0.0, 0.0, 0.0, 0.0, 0.0]",,-0.01446245037,-0.0493810640308,-1.1230705216,"[0.0, 0.0, 0.0, 0.0, 0.0, 0.0, 0.0, 0.0, 0.0]",,-3.6517194,8.35379895,-0.73623375,"[0.0, 0.0, 0.0, 0.0, 0.0, 0.0, 0.0, 0.0, 0.0]"
1569265701142794863,,62049,,1569265701,78295946,"""knife_link""",,0.35022995158,0.58084291332,0.539257218874,0.499161439771,"[0.0, 0.0, 0.0, 0.0, 0.0, 0.0, 0.0, 0.0, 0.0]",,-0.166306095294,-0.260565903523,-0.602962404503,"[0.0, 0.0, 0.0, 0.0, 0.0, 0.0, 0.0, 0.0, 0.0]",,-2.52282765,8.4225141,0.4319238,"[0.0, 0.0, 0.0, 0.0, 0.0, 0.0, 0.0, 0.0, 0.0]"
1569265701185298404,,62050,,1569265701,141401052,"""knife_link""",,0.337266542163,0.570357780626,0.540473398702,0.518489910135,"[0.0, 0.0, 0.0, 0.0, 0.0, 0.0, 0.0, 0.0, 0.0]",,-0.656743615106,-0.241367281751,-0.510459954147,"[0.0, 0.0, 0.0, 0.0, 0.0, 0.0, 0.0, 0.0, 0.0]",,2.9645679,10.1502093,-0.4711896,"[0.0, 0.0, 0.0, 0.0, 0.0, 0.0, 0.0, 0.0, 0.0]"
1569265701227679769,,62051,,1569265701,183963060,"""knife_link""",,0.338619506573,0.56845461649,0.541252710639,0.518885037349,"[0.0, 0.0, 0.0, 0.0, 0.0, 0.0, 0.0, 0.0, 0.0]",,-0.051114364662,0.00646947203322,-0.0619103363832,"[0.0, 0.0, 0.0, 0.0, 0.0, 0.0, 0.0, 0.0, 0.0]",,3.64190295,8.4028812,1.3350372,"[0.0, 0.0, 0.0, 0.0, 0.0, 0.0, 0.0, 0.0, 0.0]"
1569265701291648064,,62052,,1569265701,226875066,"""knife_link""",,0.350340585043,0.565432321213,0.54438523375,0.51106993834,"[0.0, 0.0, 0.0, 0.0, 0.0, 0.0, 0.0, 0.0, 0.0]",,0.222902327902,-0.0458904055268,0.610041425637,"[0.0, 0.0, 0.0, 0.0, 0.0, 0.0, 0.0, 0.0, 0.0]",,0.2748606,11.2103859,0.40247445,"[0.0, 0.0, 0.0, 0.0, 0.0, 0.0, 0.0, 0.0, 0.0]"
1569265701341507793,,62053,,1569265701,290396928,"""knife_link""",,0.349637124735,0.573170205277,0.537044788243,0.510698239874,"[0.0, 0.0, 0.0, 0.0, 0.0, 0.0, 0.0, 0.0, 0.0]",,0.24733693743,0.104207910145,-0.205027335047,"[0.0, 0.0, 0.0, 0.0, 0.0, 0.0, 0.0, 0.0, 0.0]",,-1.5509991,12.1527651,0.89329695,"[0.0, 0.0, 0.0, 0.0, 0.0, 0.0, 0.0, 0.0, 0.0]"
1569265701397506078,,62054,,1569265701,339956998,"""knife_link""",,0.33494414202,0.552217164271,0.55925620599,0.519712537151,"[0.0, 0.0, 0.0, 0.0, 0.0, 0.0, 0.0, 0.0, 0.0]",,-1.41072585197,0.0483573740812,0.226068990197,"[0.0, 0.0, 0.0, 0.0, 0.0, 0.0, 0.0, 0.0, 0.0]",,-1.22705625,6.3021609,-2.79768825,"[0.0, 0.0, 0.0, 0.0, 0.0, 0.0, 0.0, 0.0, 0.0]"
1569265701440331468,,62055,,1569265701,396270990,"""knife_link""",,0.384849634387,0.57032374819,0.532890820551,0.492594107288,"[0.0, 0.0, 0.0, 0.0, 0.0, 0.0, 0.0, 0.0, 0.0]",,2.12705654183,-0.393210926675,0.796791655601,"[0.0, 0.0, 0.0, 0.0, 0.0, 0.0, 0.0, 0.0, 0.0]",,-0.10798095,10.23855735,1.0994424,"[0.0, 0.0, 0.0, 0.0, 0.0, 0.0, 0.0, 0.0, 0.0]"
1569265701482212509,,62056,,1569265701,439369916,"""knife_link""",,0.438905520905,0.613566539373,0.479361022905,0.448454072565,"[0.0, 0.0, 0.0, 0.0, 0.0, 0.0, 0.0, 0.0, 0.0]",,4.48150570278,-0.0930142953308,0.648438669181,"[0.0, 0.0, 0.0, 0.0, 0.0, 0.0, 0.0, 0.0, 0.0]",,-6.27271155,7.76481195,-2.97438435,"[0.0, 0.0, 0.0, 0.0, 0.0, 0.0, 0.0, 0.0, 0.0]"
1569265701546386587,,62057,,1569265701,481323957,"""knife_link""",,0.436056624233,0.620636713455,0.471159276409,0.450192877141,"[0.0, 0.0, 0.0, 0.0, 0.0, 0.0, 0.0, 0.0, 0.0]",,0.297951485738,0.0378853985692,-0.452864088831,"[0.0, 0.0, 0.0, 0.0, 0.0, 0.0, 0.0, 0.0, 0.0]",,0.1570632,14.97008625,-1.81604325,"[0.0, 0.0, 0.0, 0.0, 0.0, 0.0, 0.0, 0.0, 0.0]"
1569265701588185379,,62058,,1569265701,545236110,"""knife_link""",,0.43815731504,0.634561438887,0.441759179961,0.45847439893,"[0.0, 0.0, 0.0, 0.0, 0.0, 0.0, 0.0, 0.0, 0.0]",,0.688905238186,-0.372266975651,-0.690228867103,"[0.0, 0.0, 0.0, 0.0, 0.0, 0.0, 0.0, 0.0, 0.0]",,-4.03456095,4.2407064,-1.3350372,"[0.0, 0.0, 0.0, 0.0, 0.0, 0.0, 0.0, 0.0, 0.0]"
1569265701631873597,,62059,,1569265701,587486982,"""knife_link""",,0.425192122709,0.613376811047,0.461275281193,0.479797521271,"[0.0, 0.0, 0.0, 0.0, 0.0, 0.0, 0.0, 0.0, 0.0]",,-1.76153703162,-0.387974938919,0.0218654677128,"[0.0, 0.0, 0.0, 0.0, 0.0, 0.0, 0.0, 0.0, 0.0]",,-4.66281375,9.88516515,-4.50575055,"[0.0, 0.0, 0.0, 0.0, 0.0, 0.0, 0.0, 0.0, 0.0]"
1569265701699675300,,62060,,1569265701,630470037,"""knife_link""",,0.424807868253,0.617823594027,0.449731162524,0.485359828569,"[0.0, 0.0, 0.0, 0.0, 0.0, 0.0, 0.0, 0.0, 0.0]",,0.364273997314,-0.223913989231,-0.407485528279,"[0.0, 0.0, 0.0, 0.0, 0.0, 0.0, 0.0, 0.0, 0.0]",,-5.1830856,8.78572275,1.766961,"[0.0, 0.0, 0.0, 0.0, 0.0, 0.0, 0.0, 0.0, 0.0]"
1569265701759299387,,62061,,1569265701,694242954,"""knife_link""",,0.433797345752,0.635580518531,0.426001884447,0.475793717623,"[0.0, 0.0, 0.0, 0.0, 0.0, 0.0, 0.0, 0.0, 0.0]",,0.969903247758,0.0343947400652,-0.292293797647,"[0.0, 0.0, 0.0, 0.0, 0.0, 0.0, 0.0, 0.0, 0.0]",,-3.5928207,6.2039964,-2.5915428,"[0.0, 0.0, 0.0, 0.0, 0.0, 0.0, 0.0, 0.0, 0.0]"
1569265701780048376,,62062,,1569265701,757914066,"""knife_link""",,0.41855915505,0.639803404127,0.422903167141,0.48642856517,"[0.0, 0.0, 0.0, 0.0, 0.0, 0.0, 0.0, 0.0, 0.0]",,-0.290224472186,0.0291587523092,-0.547111868439,"[0.0, 0.0, 0.0, 0.0, 0.0, 0.0, 0.0, 0.0, 0.0]",,-3.1608969,9.3059946,-3.72043455,"[0.0, 0.0, 0.0, 0.0, 0.0, 0.0, 0.0, 0.0, 0.0]"
1569265701929001440,,62063,,1569265701,779122114,"""knife_link""",,0.413613054937,0.639156535719,0.42076190607,0.493317932001,"[0.0, 0.0, 0.0, 0.0, 0.0, 0.0, 0.0, 0.0, 0.0]",,-0.440322787858,-0.248348598759,-0.548857197691,"[0.0, 0.0, 0.0, 0.0, 0.0, 0.0, 0.0, 0.0, 0.0]",,-5.38923105,9.1292985,-2.11053675,"[0.0, 0.0, 0.0, 0.0, 0.0, 0.0, 0.0, 0.0, 0.0]"
1569265701930524604,,62064,,1569265701,927956104,"""knife_link""",,0.295816112998,0.579736072012,0.476576419351,0.590993934501,"[0.0, 0.0, 0.0, 0.0, 0.0, 0.0, 0.0, 0.0, 0.0]",,-2.1769253936,-0.246603269507,-0.876979097067,"[0.0, 0.0, 0.0, 0.0, 0.0, 0.0, 0.0, 0.0, 0.0]",,-4.6726302,10.70974695,-5.19290205,"[0.0, 0.0, 0.0, 0.0, 0.0, 0.0, 0.0, 0.0, 0.0]"
1569265701964793621,,62065,,1569265701,929811954,"""knife_link""",,0.295093440109,0.578565479101,0.475708388316,0.593197587051,"[0.0, 0.0, 0.0, 0.0, 0.0, 0.0, 0.0, 0.0, 0.0]",,-1.7405930806,-0.871431141723,-1.56463882236,"[0.0, 0.0, 0.0, 0.0, 0.0, 0.0, 0.0, 0.0, 0.0]",,-4.11309255,12.20184735,0.0,"[0.0, 0.0, 0.0, 0.0, 0.0, 0.0, 0.0, 0.0, 0.0]"
1569265702013692385,,62066,,1569265701,963462114,"""knife_link""",,0.239169698293,0.551161369502,0.493755078238,0.628669168085,"[0.0, 0.0, 0.0, 0.0, 0.0, 0.0, 0.0, 0.0, 0.0]",,-4.04442769324,-0.202970038207,-1.80549425913,"[0.0, 0.0, 0.0, 0.0, 0.0, 0.0, 0.0, 0.0, 0.0]",,-2.2185177,7.47031845,2.05163805,"[0.0, 0.0, 0.0, 0.0, 0.0, 0.0, 0.0, 0.0, 0.0]"
1569265702034500618,,62067,,1569265702,12814998,"""knife_link""",,0.272908973988,0.56044732665,0.503968299717,0.597859045969,"[0.0, 0.0, 0.0, 0.0, 0.0, 0.0, 0.0, 0.0, 0.0]",,1.02400845457,0.432329809521,1.36227833325,"[0.0, 0.0, 0.0, 0.0, 0.0, 0.0, 0.0, 0.0, 0.0]",,5.0849211,7.2838059,-0.7656831,"[0.0, 0.0, 0.0, 0.0, 0.0, 0.0, 0.0, 0.0, 0.0]"
1569265702100116546,,62068,,1569265702,33689022,"""knife_link""",,0.264354758096,0.54963381047,0.54691647451,0.573499438683,"[0.0, 0.0, 0.0, 0.0, 0.0, 0.0, 0.0, 0.0, 0.0]",,-2.74241207125,2.4185144983,3.39907757033,"[0.0, 0.0, 0.0, 0.0, 0.0, 0.0, 0.0, 0.0, 0.0]",,2.1792519,7.47031845,2.66025795,"[0.0, 0.0, 0.0, 0.0, 0.0, 0.0, 0.0, 0.0, 0.0]"
1569265702144153267,,62069,,1569265702,98371982,"""knife_link""",,0.260568141551,0.488030303714,0.650127327597,0.520831185872,"[0.0, 0.0, 0.0, 0.0, 0.0, 0.0, 0.0, 0.0, 0.0]",,-2.47188603719,0.781395659921,3.21058201112,"[0.0, 0.0, 0.0, 0.0, 0.0, 0.0, 0.0, 0.0, 0.0]",,1.12889175,7.5586665,1.06999305,"[0.0, 0.0, 0.0, 0.0, 0.0, 0.0, 0.0, 0.0, 0.0]"
1569265702183186031,,62070,,1569265702,142728090,"""knife_link""",,0.279944809887,0.466295874264,0.668679350364,0.5070177388,"[0.0, 0.0, 0.0, 0.0, 0.0, 0.0, 0.0, 0.0, 0.0]",,-0.429850812346,-0.461278767503,1.53332059994,"[0.0, 0.0, 0.0, 0.0, 0.0, 0.0, 0.0, 0.0, 0.0]",,0.32394285,9.61030455,4.8885921,"[0.0, 0.0, 0.0, 0.0, 0.0, 0.0, 0.0, 0.0, 0.0]"
1569265702353632416,,62071,,1569265702,182501077,"""knife_link""",,0.288282551523,0.448822818672,0.663614554032,0.524468275116,"[0.0, 0.0, 0.0, 0.0, 0.0, 0.0, 0.0, 0.0, 0.0]",,-0.53806122597,-1.13672118803,-0.224225956819,"[0.0, 0.0, 0.0, 0.0, 0.0, 0.0, 0.0, 0.0, 0.0]",,-1.4724675,8.98205175,3.15108045,"[0.0, 0.0, 0.0, 0.0, 0.0, 0.0, 0.0, 0.0, 0.0]"
1569265702355851632,,62072,,1569265702,352334022,"""knife_link""",,0.39045474413,0.406623481183,0.614765614409,0.551602825118,"[0.0, 0.0, 0.0, 0.0, 0.0, 0.0, 0.0, 0.0, 0.0]",,0.470739081686,-1.37234063705,0.173709112637,"[0.0, 0.0, 0.0, 0.0, 0.0, 0.0, 0.0, 0.0, 0.0]",,-2.6897073,11.6030439,4.07382675,"[0.0, 0.0, 0.0, 0.0, 0.0, 0.0, 0.0, 0.0, 0.0]"
1569265702388858390,,62073,,1569265702,355004072,"""knife_link""",,0.391401185398,0.40580210557,0.614212773125,0.552152544606,"[0.0, 0.0, 0.0, 0.0, 0.0, 0.0, 0.0, 0.0, 0.0]",,0.032661439434,-0.749258094083,0.185926417401,"[0.0, 0.0, 0.0, 0.0, 0.0, 0.0, 0.0, 0.0, 0.0]",,-2.50319475,11.5441452,3.9854787,"[0.0, 0.0, 0.0, 0.0, 0.0, 0.0, 0.0, 0.0, 0.0]"
1569265702421736616,,62074,,1569265702,387753963,"""knife_link""",,0.395679378069,0.406910470112,0.615464762779,0.546868196974,"[0.0, 0.0, 0.0, 0.0, 0.0, 0.0, 0.0, 0.0, 0.0]",,0.28224352247,0.0658106666012,0.330788745317,"[0.0, 0.0, 0.0, 0.0, 0.0, 0.0, 0.0, 0.0, 0.0]",,-2.36576445,11.06313915,4.3781367,"[0.0, 0.0, 0.0, 0.0, 0.0, 0.0, 0.0, 0.0, 0.0]"
1569265702456799692,,62075,,1569265702,420969009,"""knife_link""",,0.388025886328,0.413690250092,0.621400040127,0.540516677494,"[0.0, 0.0, 0.0, 0.0, 0.0, 0.0, 0.0, 0.0, 0.0]",,0.00299084215003,0.811066257205,0.171963783385,"[0.0, 0.0, 0.0, 0.0, 0.0, 0.0, 0.0, 0.0, 0.0]",,-2.3166822,9.11948205,3.3179601,"[0.0, 0.0, 0.0, 0.0, 0.0, 0.0, 0.0, 0.0, 0.0]"
1569265702488905321,,62076,,1569265702,455189943,"""knife_link""",,0.389272192281,0.418528436686,0.626860252241,0.529478358541,"[0.0, 0.0, 0.0, 0.0, 0.0, 0.0, 0.0, 0.0, 0.0]",,0.37823663133,0.521341601373,0.552445560321,"[0.0, 0.0, 0.0, 0.0, 0.0, 0.0, 0.0, 0.0, 0.0]",,-1.0209108,7.72554615,4.21125705,"[0.0, 0.0, 0.0, 0.0, 0.0, 0.0, 0.0, 0.0, 0.0]"
1569265702587898932,,62077,,1569265702,487783908,"""knife_link""",,0.383537623499,0.421824386248,0.634693789527,0.521657811274,"[0.0, 0.0, 0.0, 0.0, 0.0, 0.0, 0.0, 0.0, 0.0]",,0.00124551289803,0.753470391889,0.365695330357,"[0.0, 0.0, 0.0, 0.0, 0.0, 0.0, 0.0, 0.0, 0.0]",,-0.2355948,7.9316916,5.3401488,"[0.0, 0.0, 0.0, 0.0, 0.0, 0.0, 0.0, 0.0, 0.0]"
1569265702588929043,,62078,,1569265702,586148977,"""knife_link""",,0.36278604674,0.433546618957,0.651221386874,0.506294695567,"[0.0, 0.0, 0.0, 0.0, 0.0, 0.0, 0.0, 0.0, 0.0]",,-0.077294303442,0.674930575549,0.112622588817,"[0.0, 0.0, 0.0, 0.0, 0.0, 0.0, 0.0, 0.0, 0.0]",,0.2552277,7.9513245,4.2603393,"[0.0, 0.0, 0.0, 0.0, 0.0, 0.0, 0.0, 0.0, 0.0]"
1569265702630012725,,62079,,1569265702,588283061,"""knife_link""",,0.362920099111,0.43227131225,0.651178103085,0.507343662944,"[0.0, 0.0, 0.0, 0.0, 0.0, 0.0, 0.0, 0.0, 0.0]",,-0.298951118446,-0.0458904055268,0.00964816294885,"[0.0, 0.0, 0.0, 0.0, 0.0, 0.0, 0.0, 0.0, 0.0]",,0.7460502,8.02003965,4.6333644,"[0.0, 0.0, 0.0, 0.0, 0.0, 0.0, 0.0, 0.0, 0.0]"
1569265702715188115,,62080,,1569265702,629153013,"""knife_link""",,0.357392542892,0.415497053683,0.657257333467,0.517344726724,"[0.0, 0.0, 0.0, 0.0, 0.0, 0.0, 0.0, 0.0, 0.0]",,-0.944722941686,-0.279764525295,-0.000823812563152,"[0.0, 0.0, 0.0, 0.0, 0.0, 0.0, 0.0, 0.0, 0.0]",,1.8651255,8.245818,4.93767435,"[0.0, 0.0, 0.0, 0.0, 0.0, 0.0, 0.0, 0.0, 0.0]"
1569265702737549951,,62081,,1569265702,713922977,"""knife_link""",,0.358495227558,0.370614145232,0.667861692459,0.536737446912,"[0.0, 0.0, 0.0, 0.0, 0.0, 0.0, 0.0, 0.0, 0.0]",,-0.937741624678,-0.644538338963,0.213851685433,"[0.0, 0.0, 0.0, 0.0, 0.0, 0.0, 0.0, 0.0, 0.0]",,2.01237225,8.4225141,5.66409165,"[0.0, 0.0, 0.0, 0.0, 0.0, 0.0, 0.0, 0.0, 0.0]"
1569265702802834368,,62082,,1569265702,735661983,"""knife_link""",,0.361316468908,0.357622312842,0.666781805248,0.544939184537,"[0.0, 0.0, 0.0, 0.0, 0.0, 0.0, 0.0, 0.0, 0.0]",,-0.850475162078,-1.05120005468,-0.0706369826432,"[0.0, 0.0, 0.0, 0.0, 0.0, 0.0, 0.0, 0.0, 0.0]",,2.4737454,8.19673575,5.46776265,"[0.0, 0.0, 0.0, 0.0, 0.0, 0.0, 0.0, 0.0, 0.0]"
1569265702848617843,,62083,,1569265702,800463914,"""knife_link""",,0.367595384071,0.315850300866,0.661212202331,0.572634826518,"[0.0, 0.0, 0.0, 0.0, 0.0, 0.0, 0.0, 0.0, 0.0]",,-0.969157551214,-1.21002501661,-0.114270213943,"[0.0, 0.0, 0.0, 0.0, 0.0, 0.0, 0.0, 0.0, 0.0]",,0.22577835,7.4801349,7.4212362,"[0.0, 0.0, 0.0, 0.0, 0.0, 0.0, 0.0, 0.0, 0.0]"
1569265702927580436,,62084,,1569265702,847889900,"""knife_link""",,0.362520848097,0.285120354907,0.653240652105,0.600467874536,"[0.0, 0.0, 0.0, 0.0, 0.0, 0.0, 0.0, 0.0, 0.0]",,-1.30077010909,-1.09483328598,-0.587254441235,"[0.0, 0.0, 0.0, 0.0, 0.0, 0.0, 0.0, 0.0, 0.0]",,2.7093402,8.3832483,6.39050895,"[0.0, 0.0, 0.0, 0.0, 0.0, 0.0, 0.0, 0.0, 0.0]"
