rosbagTimestamp,secs,nsecs,lwrist.x,lwrist.y,lwrist.z,rwrist.x,rwrist.y,rwrist.z,neck.x,neck.y,neck.z,wDist,wNDist,x,y,z,x.1,y.1,z.1,Label
1569261684.46372,1569261684,463715402,1.174999952,-0.03656229,-0.154510915,1.190999985,0.260313541,-0.135375395,1.184000015,0.132086754,0.168703675,0.297921849171242,0.330083609554321,-2.7426167363,-0.743518220195,1.45676596317,1.4528346,9.8753487,6.25307865,3
1569261684.62853,1569261684,628529741,1.167999983,-0.047706719,-0.147909701,1.182000041,0.304340184,-0.130519867,1.19599998,0.168329358,0.170413509,0.352754064274875,0.330538711608736,-3.85439146983,-0.591674575271,0.0849371710969,1.3939359,4.58428215,7.5782994,1
1569261684.79542,1569261684,795417383,1.149000049,0.023859626,-0.106385402,1.144999981,0.326372564,-0.117152773,1.177000046,0.200004622,0.171522602,0.302730927524176,0.31674332361821,1.29432982357,0.176270295609,0.250743450037,0.61843635,3.4946562,9.1489314,1
1569261684.96706,1569261684,967060729,1.136000037,0.104629986,-0.119915314,1.138000011,0.335447669,-0.121971376,1.174999952,0.237765908,0.169326231,0.230835504358487,0.309459234649721,0.606670098285,0.794116850817,1.33982890328,1.48228395,3.0627324,8.49122925,3
1569261685.12703,1569261685,127028654,1.139999986,0.121633194,-0.125882104,1.159999967,0.377666593,-0.129971161,1.179999948,0.263648808,0.170046762,0.256845909117982,0.321575510040085,0.489733038401,-0.0785477751828,-0.101813058867,1.9436571,1.2368727,9.227463,1
1569261685.30456,1569261685,304556810,1.078999996,0.101129472,-0.152382776,1.139999986,0.445087522,-0.125882104,1.177000046,0.285878092,0.167706281,0.350329023285617,0.336022003517384,-0.115896212043,-0.303695248691,-0.0162919255191,1.570632,3.2394285,8.1083877,1
1569261685.46127,1569261685,461265271,1.003000021,0.120025381,-0.183927581,1.133999944,0.464807957,-0.125219569,1.174999952,0.312063128,0.167421296,0.373473740994188,0.332641938591915,-0.321845063779,0.411889744629,0.191402255469,2.1203532,3.26887785,8.68755825,1
1569261685.62364,1569261685,623643198,1.00999999,0.119225509,-0.178661525,1.151000023,0.468043685,-0.12896277,1.138000011,0.318842053,0.163994253,0.379506383954892,0.329019672099536,-0.107169565783,0.109947784033,-0.229222094263,3.24924495,3.48483975,9.9931461,1
1569261685.77251,1569261685,772505508,1.034999967,0.033238851,-0.161270425,1.172999978,0.476989776,-0.139034465,1.136000037,0.32380718,0.16186434,0.465245445320507,0.339667475925692,0.159865809773,-0.504408112671,-0.162899582687,1.56081555,3.533922,8.90352015,1
1569261685.93243,1569261685,932431845,1.018000007,-0.046531525,-0.163572729,1.157999992,0.457747728,-0.146643355,1.129999995,0.312936455,0.161009416,0.523625977688531,0.341181084065132,0.196517724065,-0.0401505316388,-0.129738326899,1.0994424,3.36704235,8.45196345,5
1569261686.09425,1569261686,94250835,0.986000001,-0.011497689,-0.177613124,1.123999953,0.440663069,-0.142337754,1.129999995,0.309272259,0.161009416,0.474065068904864,0.33063431613108,0.0708540179212,0.305424660257,-0.0145465962671,2.28723285,2.944935,9.423792,1
1569261686.26144,1569261686,261434922,0.981000006,0.001284774,-0.175122038,1.126000047,0.441447169,-0.140765548,1.129999995,0.309272259,0.161009416,0.46470239322308,0.329475849364885,0.271566881901,-0.286241956171,-0.0791237785911,1.9829229,4.319238,8.0887548,1
1569261686.4297,1569261686,429696305,1.003000021,0.015949287,-0.177423269,1.152999997,0.452032477,-0.146010175,1.133999944,0.314044178,0.16157937,0.462228648912234,0.337658260476807,1.37461496917,0.118674430293,-0.475313518795,2.67989085,4.03456095,8.09857125,1
1569261686.60423,1569261686,604231146,1.116000056,0.017746165,-0.141324684,1.146999955,0.449680179,-0.143390834,1.133999944,0.314044178,0.16157937,0.433049945345782,0.334025373858145,1.19659138546,-0.0802931044348,-0.756311528367,2.62099215,5.99785095,9.4826907,1
1569261686.75519,1569261686,755187346,1.202999949,-0.021829931,-0.14064002,1.151000023,0.447516084,-0.1457569,1.151000023,0.298224479,0.164001629,0.472245546894113,0.343858007921467,0.899885412621,-0.380489735779,-0.939571099827,0.5693541,6.2432622,6.37087605,5
1569261686.91515,1569261686,915145773,1.200000048,-0.021775492,-0.15779838,1.144999981,0.396916419,-0.14499709,1.171000004,0.280623645,0.166851357,0.422482895195179,0.333840477439341,1.03602109428,-0.397943028299,-0.300780593595,0.91292985,9.25691235,2.7682389,1
1569261687.06891,1569261687,68912006,1.212000012,-0.021993246,-0.153481632,1.179999948,0.340175331,-0.132212043,1.149000049,0.232504696,0.163716659,0.364201150023497,0.316429701587443,0.816109608525,-0.136143640499,-0.529418725607,-3.17071335,10.5428673,1.52154975,1
1569261687.23734,1569261687,237344880,1.202999949,-0.047185831,-0.152341917,1.184000015,0.247265682,-0.132660225,1.152999997,0.180971265,0.160548091,0.295719563099867,0.302203685306659,0.878941461597,0.113438442537,-0.395028373203,-1.570632,10.55268375,-0.7656831,4
1569261687.39874,1569261687,398736861,1.18900001,-0.062058747,-0.173700497,1.174999952,0.197759703,-0.129746899,1.133999944,0.137540266,0.154225543,0.263881691978719,0.293168431220076,0.0376927621332,0.109947784033,-0.239694069775,-0.785316,8.92315305,0.73623375,4
1569261687.56361,1569261687,563609199,1.18900001,-0.071697526,-0.179483354,1.18900001,0.186621711,-0.113944225,1.105999947,0.110832796,0.154003635,0.266503669082324,0.2905667320487,-0.0181577739308,-0.0558584949068,-0.0319998887871,-1.9436571,9.227463,0.97182855,4
1569261687.72963,1569261687,729631891,1.18599999,-0.073439516,-0.190567046,1.171000004,0.179999337,-0.108422376,1.09800005,0.094009176,0.149329498,0.266840773869671,0.281352678365286,0.128449883237,0.0366439554492,-0.232712752767,-2.01237225,9.5219565,1.56081555,4
1569261687.90797,1569261687,907972298,1.18900001,-0.079408549,-0.192976698,1.184000015,0.181997627,-0.10962604,1.090000033,0.093324229,0.155309975,0.274418514298828,0.294771199700627,-0.0268844201908,-0.150106274515,-0.859285954235,-3.01365015,8.47159635,0.8442147,1
1569261688.06199,1569261688,61985142,1.190999985,-0.077611119,-0.193301305,1.18599999,0.182305053,-0.094429158,1.090000033,0.086255252,0.151775733,0.278131475869818,0.281173263964523,0.114487249221,-0.0994917262068,-0.363612446667,-0.77549955,8.43233055,0.392658,4
1569261688.23672,1569261688,236722321,1.190999985,-0.073749125,-0.193301305,1.184000015,0.199274465,-0.073155247,1.083999991,0.082265422,0.149182871,0.298372176198499,0.27041701066974,0.177319102293,0.445051000417,2.82510409674,-3.05291595,14.79339015,-2.48356185,3
1569261688.40041,1569261688,400410241,1.18599999,-0.077285297,-0.198258072,1.171000004,0.174303621,-0.091336414,1.07099998,0.074333087,0.149130106,0.273777691183705,0.27895924381378,-0.262503869211,0.0209359921812,-0.0162919255191,-1.06999305,8.9722353,-0.8245818,4
1569261688.56964,1569261688,569639728,1.190999985,-0.077611119,-0.204886496,1.184000015,0.16088149,-0.157613918,1.07099998,0.070860207,0.145657465,0.243233264086954,0.335926139277223,0.00976749410119,0.104711796277,1.10071879576,-0.97182855,10.8569937,9.19801365,3
1569261688.73256,1569261688,732556133,1.18599999,-0.071516626,-0.200180829,1.152999997,0.186579421,-0.168441266,1.100000024,0.070995465,0.146034837,0.26212586456597,0.339210653400917,-2.76530601658,-0.979137669215,0.737690311345,1.24668915,4.95730725,6.9304137,3
1569261688.9027,1569261688,902695664,1.18599999,-0.061902165,-0.171339467,1.159999967,0.229088381,-0.12809056,1.138000011,0.075293101,0.154769555,0.295333653710635,0.322717881240091,-0.156038784839,0.628310571877,2.39749843,1.16815755,5.4579462,7.50958425,3
1569261689.06042,1569261689,60422392,1.151000023,-0.01528789,-0.106570579,1.159999967,0.234730586,-0.105523281,1.157999992,0.08037135,0.15936695,0.250182601646211,0.306590293580436,-0.000704481410812,1.31073430941,5.29474498832,4.2603393,5.21253495,11.2692846,3
1569261689.23589,1569261689,235890690,1.154999971,0.001512654,-0.116303444,1.179999948,0.240690842,-0.107342646,1.166000009,0.094159842,0.160467923,0.240648084068336,0.305597501824062,2.44799245915,-2.00190061089,-2.67268304706,3.533922,8.51086215,9.19801365,3
1569261689.39522,1569261689,395217224,1.171000004,-0.044032108,-0.14449273,1.210000038,0.260542721,-0.115956701,1.136000037,0.102788158,0.158180952,0.308384717623084,0.32482911674859,1.61023441819,-1.15541592367,-0.745839552855,-0.2944935,9.2078301,1.56081555,1
1569261689.56187,1569261689,561866770,1.190999985,-0.085335113,-0.148891434,1.210000038,0.231115669,-0.112033367,1.111999989,0.100616574,0.145825148,0.31915610059247,0.305163951275092,-0.152548126335,0.263536758209,-0.243184728279,-0.7067844,9.4041591,0.0392658,4
1569261689.73223,1569261689,732229779,1.177000046,-0.086240314,-0.147141248,1.200000048,0.196130589,-0.114998378,1.083999991,0.094568036,0.136881113,0.285123641680013,0.295320577309303,0.248877601625,-7.95884277677e-06,0.0395586105449,-0.5300883,10.39562055,0.0981645,4
1569261689.9001,1569261689,900097355,1.179999948,-0.090286456,-0.151342347,1.205000043,0.187179312,-0.11547754,1.04400003,0.091078438,0.128445059,0.280888841969534,0.307659903907673,0.297746820681,-0.111709030971,-0.0669064738271,-1.50191685,9.3845262,1.44301815,4
1569261690.06345,1569261690,63449607,1.18599999,-0.09651421,-0.157880157,1.192999959,0.179512575,-0.114327557,1.021999955,0.087502167,0.119110852,0.279529273190121,0.303645199772329,0.144157846505,-0.0453865193948,-0.143700960915,-1.0994424,10.3269054,0.24541125,4
1569261690.23472,1569261690,234724994,1.18599999,-0.09651421,-0.157880157,1.18900001,0.176982924,-0.113944225,1.00999999,0.084837206,0.112800017,0.277019942507616,0.303223996058838,0.0987792859532,-0.153596933019,-0.189079521467,-1.83567615,8.6973747,2.07127095,4
1569261690.4,1569261690,399996750,1.18900001,-0.094830588,-0.160207137,1.19599998,0.179963991,-0.110737115,1.01699996,0.082127415,0.111933023,0.279299737387038,0.301985087579409,0.00104084784119,-0.0593491534108,-0.117521022135,-1.56081555,9.92443095,0.4122909,4
1569261690.56488,1569261690,564880479,1.184000015,-0.09443181,-0.163372472,1.184000015,0.174319029,-0.10962604,1.013000011,0.081804395,0.111492775,0.27407242184491,0.294437581193635,0.0499100668972,0.0855131745052,-0.206532813987,-3.3768588,9.6593868,0.6675186,4
1569261690.73427,1569261690,734273332,1.182000041,-0.094272293,-0.165012777,1.171000004,0.172405049,-0.108422376,1.018000007,0.082208164,0.113693483,0.272837459003574,0.284393973151702,0.137176529497,0.00173737040922,-0.0564344983151,-1.9240242,9.9146145,1.5117333,4
1569261690.90269,1569261690,902685318,1.179999948,-0.096025944,-0.1666466,1.184000015,0.174319029,-0.10962604,1.008000016,0.081400618,0.112576649,0.276321821840203,0.298301635512774,0.329162747217,-0.104727713963,-1.2170784509,8.23600155,1.30558785,4.03456095,3
1569261691.06207,1569261691,62074578,1.179999948,-0.094112784,-0.1666466,1.179999948,0.16033797,-0.12647295,1,0.083997235,0.110061973,0.257602617155748,0.306882158000362,-2.67629422473,-0.268788663651,0.0552665738129,-1.1976069,8.5795773,0.3533922,4
1569261691.23857,1569261691,238571363,1.18599999,-0.09459132,-0.165571198,1.18599999,0.164999023,-0.152111888,1.00999999,0.081562132,0.117712289,0.259939029783012,0.332780409990542,1.74462477059,-0.783660792991,-0.660318419507,0.5104554,9.1881972,5.6346423,1
1569261691.39778,1569261691,397775828,1.182000041,-0.096188702,-0.163096502,1.18599999,0.184227943,-0.150189131,1.021999955,0.085845172,0.125738367,0.280742042827914,0.335724835635047,0.186045748553,-0.195484835067,-0.215259460247,-0.36320865,7.33288815,1.44301815,1
1569261691.5667,1569261691,566695594,1.182000041,-0.096188702,-0.165012777,1.18900001,0.182766199,-0.123582333,1.039000034,0.080534898,0.127829909,0.282101609438794,0.310095706406296,0.224442992097,-0.0488771778988,-0.0546891690631,-0.59880345,9.6004881,1.40375235,4
1569261691.73664,1569261691,736641904,1.18900001,-0.096758343,-0.167917624,1.197999954,0.176380232,-0.118691139,1.034000039,0.078470886,0.125538409,0.277684941922476,0.310048841749875,0.107505932213,-0.00349861734678,-0.143700960915,-0.9423792,10.209108,2.3952138,4
1569261691.9078,1569261691,907795132,1.18599999,-0.09651421,-0.171339467,1.192999959,0.17757833,-0.116261661,1.023000002,0.072660245,0.119227394,0.279659229712567,0.308808816203265,-0.00768579841881,0.132637064309,-0.0197825840231,-0.24541125,9.66920325,0.3533922,4
1569261692.06328,1569261692,63279882,1.190999985,-0.096921101,-0.172061801,1.190999985,0.173418626,-0.110274166,1.013000011,0.070307575,0.116419643,0.277310800066149,0.306114296662625,-0.0338657371988,0.0191906629292,-0.234458082019,-0.81476535,11.37726555,0.32394285,1
1569261692.23633,1569261692,236326276,1.192999959,-0.097083859,-0.172350749,1.190999985,0.167625636,-0.114135891,1.00999999,0.071736902,0.117712289,0.271042591359948,0.309369077426034,0.109251261465,0.123910418049,0.0901731588529,-1.1190753,11.6619426,0.6282528,1
1569261692.40436,1569261692,404358069,1.192999959,-0.097083859,-0.172350749,1.18599999,0.174613491,-0.109811217,1.00999999,0.070099361,0.117712289,0.278890018870885,0.306049259355727,-0.119386870547,-0.00524394659878,-0.0529438398111,-1.374303,11.1514872,2.73878955,4
1569261692.56881,1569261692,568809078,1.18900001,-0.096758343,-0.171772867,1.18900001,0.173127413,-0.110088989,1.008000016,0.069960549,0.11747919,0.276845122942071,0.308531482589655,0.00453150634519,0.0244266506852,-0.230967423515,-1.14852465,8.53049505,-1.0012779,4
1569261692.73325,1569261692,733248626,1.192999959,-0.097083859,-0.172350749,1.192999959,0.175644085,-0.108525239,1.008000016,0.066691957,0.11747919,0.280096817485003,0.311726718510537,-0.119386870547,-0.0907650799468,-0.183843533711,-2.16943545,10.3661712,1.08962595,4
1569261692.90981,1569261692,909808939,1.18900001,-0.096758343,-0.171772867,1.184000015,0.174319029,-0.10962604,1.006999969,0.069891147,0.117362648,0.278154938238735,0.306199384883395,-0.0600456759788,0.0191906629292,0.299612669093,-4.56464925,12.761385,2.13016965,3
1569261693.06391,1569261693,63908155,1.190999985,-0.098852098,-0.172061801,1.190999985,0.167625636,-0.110274166,1.006999969,0.069891147,0.117362648,0.273547243738021,0.308588002547348,-0.0705176514908,-0.0104799343548,-0.0075652792591,2.67989085,10.37598765,1.85530905,4
1569261693.23743,1569261693,237429388,1.190999985,-0.096921101,-0.172061801,1.190999985,0.173418626,-0.108343303,1.013000011,0.070307575,0.11806193,0.277747394194456,0.305900652356463,-0.0530643589708,-0.0139705928588,-0.117521022135,-3.15108045,11.0336898,1.12889175,4
1569261693.40335,1569261693,403353715,1.190999985,-0.096921101,-0.172061801,1.18900001,0.167344153,-0.110088989,1.014999986,0.070446387,0.116649494,0.271441989748956,0.301787218219945,0.0656180301652,0.115183771789,-0.0372358765431,1.4135688,-1.63934715,0.85403115,1
1569261693.56533,1569261693,565332195,1.192999959,-0.097083859,-0.172350749,1.184000015,0.174319029,-0.10962604,1.00999999,0.070099361,0.11607486,0.278702198997206,0.303444631125418,0.266330894145,0.0209359921812,0.968073772609,-1.18779045,13.34055555,0.8638476,3
1569261693.73809,1569261693,738094106,1.197999954,-0.097490743,-0.173073083,1.197999954,0.16084145,-0.141997695,1.00999999,0.066824287,0.117712289,0.260194545829731,0.334114485157184,-9.49180495379,2.5219928103,0.578865349413,-1.766961,12.00551835,12.4079928,3
1569261693.90438,1569261693,904382344,1.19599998,-0.095388889,-0.17278415,1.184000015,0.164720789,-0.149935856,1.024999976,0.072802298,0.121122234,0.261386855614385,0.327417943222675,2.99428051502,-0.225155432351,0.625989239217,-1.22705625,10.4250699,4.97694015,3
1569261694.0714,1569261694,71400801,1.19599998,-0.095388889,-0.17278415,1.177000046,0.180921629,-0.147141248,1.039000034,0.072112113,0.129514337,0.278147547665649,0.327752691515793,3.90883304307,-0.132652981995,0.0325772935369,-0.52027185,10.1894751,-1.10925885,4
1569261694.23664,1569261694,236643914,1.192999959,-0.097083859,-0.16461432,1.192999959,0.193052262,-0.116261661,1.072999954,0.064033806,0.13375254,0.294137635030434,0.305864126517466,3.18103074499,-0.682431696375,0.0413039397969,0.4122909,10.49378505,-4.1032761,4
1569261694.40398,1569261694,403983431,1.144999981,-0.087608464,-0.128290504,1.19599998,0.201294139,-0.091347411,1.103999972,0.062303919,0.139406592,0.295686499587963,0.284657149265871,-6.12681015593,-0.837765999803,0.440984338505,-2.95475145,9.08021625,-3.2001627,1
1569261694.57071,1569261694,570710973,1.105999947,-0.088210791,-0.118541598,1.202999949,0.204422727,-0.076279514,1.133999944,0.060319792,0.146871731,0.311174324116048,0.274450605229182,-1.24861489659,0.555006743293,0.137297048657,-4.52538345,7.7549955,-4.01492805,1
1569261694.73723,1569261694,737229603,1.052999973,-0.072032906,-0.12651813,1.217000008,0.216667473,-0.075194202,1.144999981,0.064617738,0.15572156,0.335973311291379,0.285701268708439,-0.754686718275,0.537553450773,-0.232712752767,-2.0810874,8.8544379,-3.2001627,1
1569261694.9059,1569261694,905900955,1.057999969,-0.086097836,-0.132264599,1.222000003,0.239351496,-0.087389864,1.136000037,0.073318951,0.150814161,0.367187990942743,0.302826613225091,-4.22091061275,2.23750414222,1.45327530466,-0.30430995,10.3072725,0.20614545,5
1569261695.06954,1569261695,69541115,1.052999973,-0.077154674,-0.135053813,1.235999942,0.268145114,-0.088391058,1.146999955,0.075888567,0.150414973,0.393571270484821,0.319236429613439,-1.2555962136,0.839495411369,1.11293610052,0.46137315,8.834805,3.7695168,5
1569261695.23821,1569261695,238210844,1.075000048,-0.066566169,-0.141361058,1.235999942,0.274156988,-0.094402514,1.151000023,0.081751652,0.152805537,0.379760899038669,0.324586845128539,-0.754686718275,0.246083465689,0.927931199813,1.26632205,8.96241885,4.80024405,1
1569261695.40205,1569261695,402049887,1.078999996,-0.000336289,-0.143636331,1.243999958,0.279965311,-0.095013529,1.157999992,0.08037135,0.153734848,0.328874066014474,0.330317269424117,-0.819263900599,1.4782859176,0.638206543981,0.46137315,6.282528,9.59067165,1
1569261695.57186,1569261695,571861834,1.057999969,0.016823875,-0.147701785,1.246000052,0.284455776,-0.095166288,1.139999986,0.082818672,0.155041561,0.331256462708153,0.338374797233361,5.2021220188,-3.1032033689,-0.906409844039,2.11053675,5.31069945,7.2052743,1
1569261695.73727,1569261695,737272130,1.131999969,-0.077437088,-0.141515628,1.253999949,0.274083287,-0.107975304,1.129999995,0.082092196,0.146353662,0.373598076138202,0.341935360210086,0.735824462933,-0.900597852875,-0.703951650807,-0.63806925,10.8177279,2.42466315,1
1569261695.90878,1569261695,908780643,1.212000012,-0.082909673,-0.175095648,1.251000047,0.230833754,-0.123942085,1.105999947,0.083935015,0.13786608,0.320269617234137,0.333388337799131,0.510676989425,-0.666723733107,-0.223986106507,-0.2159619,9.61030455,2.3755809,4
1569261696.07241,1569261696,72408561,1.212000012,-0.080944628,-0.194744736,1.213999987,0.202355355,-0.130117089,1.062000036,0.089205064,0.12549445,0.29058494975576,0.318188988381647,0.0376927621332,-0.158832920775,-0.0983224003631,-0.8049489,9.45324135,2.26759995,4
1569261696.23975,1569261696,239749862,1.202999949,-0.082294002,-0.193298608,1.212000012,0.198091894,-0.124008,1.029999971,0.089857079,0.113363832,0.288960966510594,0.318094603426594,-0.0722629807428,0.127401076553,-0.0442171935511,-0.0196329,9.9735132,2.42466315,4
1569261696.4048,1569261696,404799843,1.202999949,-0.082294002,-0.18354702,1.207000017,0.185533047,-0.125453219,1.019999981,0.088984683,0.11226321,0.274084327232844,0.317489685929464,-0.559209842051,0.0907491622612,-0.382811068439,-0.22577835,10.04222835,0.8245818,4
1569261696.56912,1569261696,569119937,1.197999954,-0.081951968,-0.18278414,1.202999949,0.184918195,-0.119186513,1.006999969,0.091115914,0.109199844,0.274389034055076,0.315238303739464,0.151139163513,-0.0314238853788,-0.0093106085111,-0.32394285,9.78700065,2.26759995,4
1569261696.73916,1569261696,739159961,1.19599998,-0.081815153,-0.184417963,1.197999954,0.184149623,-0.118691139,1.006999969,0.091115914,0.105934724,0.273973132554741,0.309181247181636,-0.100188248775,-0.0261878976228,-0.365357775919,-0.91292985,10.06186125,1.71787875,4
1569261696.90893,1569261696,908933236,1.19599998,-0.081815153,-0.184417963,1.19599998,0.181903094,-0.116554022,0.996999979,0.091827549,0.108115435,0.272310169271741,0.313354382630468,0.241896284617,-0.0122252636068,-0.0162919255191,3.0430995,8.94278595,2.5719099,4
1569261697.06865,1569261697,68648387,1.200000048,-0.082088783,-0.185034752,1.19599998,0.1857813,-0.108798146,1.003000021,0.0875016,0.108766079,0.278536177192175,0.306988722278103,0.182555090049,0.102966467025,0.166967645941,-4.36832025,9.8360829,1.0798095,4
1569261697.24203,1569261697,242026772,1.202999949,-0.082294002,-0.185497329,1.190999985,0.181142628,-0.110274166,1.003000021,0.085875414,0.110392153,0.274228702752799,0.305144970249114,0.0586367131572,-0.0157159221108,-0.0686518030791,-1.65898005,9.6593868,2.4933783,4
1569261697.40597,1569261697,405965392,1.200000048,-0.082088783,-0.185034752,1.19599998,0.183842197,-0.114615053,0.999000013,0.085532941,0.108332314,0.275125826986518,0.313335643145665,0.0219847988652,0.00697335816522,-0.0983224003631,-1.75714455,9.39434265,1.8258597,4
1569261697.57033,1569261697,570329989,1.200000048,-0.082088783,-0.186980203,1.19599998,0.181903094,-0.110737115,0.989000022,0.083073266,0.107247911,0.274810334837981,0.316439234411177,-0.100188248775,-0.0453865193948,-0.346159154147,-0.9031134,7.9316916,1.22705625,4
1569261697.73468,1569261697,734675230,1.202999949,-0.082294002,-0.191348284,1.192999959,0.179512575,-0.110459343,0.986000001,0.082821272,0.106922589,0.274200117316821,0.315361847800098,0.0150034818572,-0.00873460510278,-0.0093106085111,-2.0221887,10.0324119,2.42466315,4
1569261697.90868,1569261697,908682252,1.197999954,-0.081951968,-0.190552995,1.18900001,0.169271901,-0.115871847,0.981000006,0.082401283,0.106380381,0.262243598995152,0.316554195654814,-0.0233937616868,0.0890038330092,-0.0093106085111,-4.60391505,-3.79896615,1.26632205,1
1569261698.06211,1569261698,62107616,1.200000048,-0.082088783,-0.190871119,1.18599999,0.168844804,-0.115579493,0.981000006,0.082401283,0.106380381,0.262359477919922,0.31426686339634,0.0534007254012,-0.0192065806148,0.177439621453,-1.1976069,11.0533227,0.55953765,4
1569261698.22183,1569261698,221825803,1.202999949,-0.082294002,-0.191348284,1.190999985,0.159901649,-0.150822297,0.991999984,0.080108546,0.107573234,0.245855827918801,0.335762103467828,1.90344973252,-0.396197699047,-0.456114897023,-1.0601766,10.3072725,1.4921004,3
1569261698.37484,1569261698,374840899,1.207000017,-0.082567632,-0.182200506,1.190999985,0.159901649,-0.146960571,1.041000009,0.087441117,0.126388282,0.24553860444228,0.320109538961492,0.788184340493,-0.657997086847,0.173948962949,-1.73751165,4.8885921,-1.52154975,1
1569261698.54167,1569261698,541673627,1.217000008,-0.087198012,-0.177790999,1.200000048,0.163055554,-0.134452924,1.100000024,0.072778925,0.142468169,0.254546723963251,0.307953188475,-0.131604175311,0.195468917381,0.0971544758609,-1.7080623,8.31453315,1.9240242,4
1569261698.70743,1569261698,707434730,1.217000008,-0.083251707,-0.179764017,1.179999948,0.166077465,-0.151342347,1.144999981,0.059048489,0.157577857,0.253656917460964,0.328803728435386,0.102269944457,-0.0960010677028,0.112862439129,5.0260224,7.07766045,-0.63806925,1
1569261698.87722,1569261698,877221139,1.218999982,-0.081412129,-0.178083181,1.18900001,0.178910688,-0.123582333,1.19599998,0.051983073,0.170413509,0.267653338861176,0.320301692382163,-0.540011220279,-0.333365845975,-0.499748128323,-4.28978865,11.18093655,4.93767435,1
1569261699.04046,1569261699,40462433,1.213999987,-0.083046481,-0.179320887,1.18599999,0.182305053,-0.127116039,1.241000056,0.047902763,0.176825389,0.271883766677704,0.336852155213422,0.254113589381,0.0488612602132,0.109371780625,-3.4553904,8.5403115,2.85658695,4
1569261699.20778,1569261699,207779809,1.210000038,-0.080811054,-0.182653368,1.190999985,0.208176598,-0.100619845,1.251000047,0.044232212,0.174193978,0.301005587852232,0.325577036126316,-2.8700257717,0.745247631761,3.43422400568,2.4148467,7.2838059,5.54629425,3
1569261699.37478,1569261699,374779170,1.212000012,-0.078979582,-0.177060544,1.212000012,0.245252997,-0.057201087,1.258999944,0.040432576,0.17530793,0.345677674600669,0.313402044430039,-5.89468136541,-1.97572067211,0.299612669093,3.24924495,2.62099215,8.07893835,1
1569261699.54046,1569261699,540460442,1.146999955,-0.043129656,-0.109919287,1.200000048,0.217532083,-0.062471103,1.261000037,0.038452312,0.171497718,0.270194156490126,0.300885314097486,-3.14229713501,-0.401433686803,0.454946972521,3.2983272,-2.60135925,6.74390115,3
1569261699.70136,1569261699,701355543,1.118000031,-0.034788631,-0.087202489,1.18599999,0.180382162,-0.073278822,1.271999955,0.032600764,0.175055921,0.226089214884252,0.301505356761222,1.31178311609,-0.00524394659878,1.50039919447,3.24924495,-3.56337135,8.66792535,6
1569261699.87864,1569261699,878639792,1.128000021,-0.031442091,-0.086153746,1.184000015,0.176238671,-0.075074762,1.274000049,0.02645532,0.17533116,0.215383476894986,0.305349282182651,0.809128291517,0.326368611281,0.545704093625,2.66025795,-4.03456095,8.9329695,6
1569261700.03862,1569261700,38620841,1.095999956,-0.090967171,-0.117469795,1.200000048,0.196130589,-0.078034744,1.269000053,0.020179108,0.168471098,0.307890022865956,0.310620434769225,0.325672088713,0.120419759545,0.470654935789,2.71915665,-1.99273935,9.53177295,1
1569261700.20401,1569261700,204010578,1.034999967,-0.114431433,-0.186439753,1.230999947,0.227143362,-0.076059215,1.256000042,0.022008771,0.170817718,0.408990459434523,0.321952520136483,0.186045748553,-0.0593491534108,0.112862439129,2.9842008,-2.13016965,8.15746995,1
1569261700.37342,1569261700,373420552,1.047999978,-0.097178102,-0.176888287,1.235999942,0.258125335,-0.076368146,1.238999963,0.04380792,0.170514375,0.414353493474683,0.326943318747452,0.0708540179212,-0.150106274515,0.0901731588529,2.355948,-3.4161246,9.96369675,1
1569261700.53276,1569261700,532758488,1.077000022,-0.035259008,-0.134639859,1.233999968,0.299722672,-0.094249755,1.217000008,0.086439416,0.169459686,0.372146569889817,0.339590069351999,-0.484160684215,-0.204211481327,-0.384556397691,1.7865939,-2.95475145,8.9526024,1
1569261700.68447,1569261700,684466756,1.082999945,-0.005605221,-0.138901502,1.192999959,0.322646379,-0.106591128,1.205000043,0.130522117,0.171695888,0.347696816566646,0.338377595799775,0.0202394696132,0.0471159309612,-0.230967423515,2.50319475,-3.01365015,8.64829245,1
1569261700.84427,1569261700,844266616,1.075000048,-0.017764287,-0.136132643,1.182000041,0.356083155,-0.113273405,1.200000048,0.186402634,0.170983464,0.389529784681331,0.331538002395675,0.154629822017,0.0680598819852,0.179184950705,2.8860363,-4.2407064,8.1672864,1
1569261701.00533,1569261701,5328909,1.042000055,-0.049317956,-0.093099713,1.138000011,0.372349024,-0.121971376,1.202999949,0.225877732,0.173361242,0.433419665565267,0.336006229964397,-0.0705176514908,0.139618381317,0.322301949369,2.52282765,-4.72171245,9.19801365,1
1569261701.17748,1569261701,177484375,1.039000034,-0.092974439,-0.128204897,1.146999955,0.401329041,-0.126655057,1.190999985,0.24293457,0.169701084,0.505966713608852,0.33889788047697,0.121468566229,0.127401076553,0.0866825003489,2.56209345,-3.92658,8.47159635,1
1569261701.34126,1569261701,341256503,1.042000055,-0.074659266,-0.162361145,1.200000048,0.421819031,-0.116943836,1.174999952,0.237765908,0.167421296,0.522988937872324,0.339652889261139,0.273312211153,-0.129162323491,0.193147584721,2.52282765,-4.05419385,8.45196345,1
1569261701.50525,1569261701,505248342,1.067999959,-0.078253739,-0.157755107,1.177000046,0.387017965,-0.116610579,1.167999983,0.213624939,0.168317482,0.479636997836295,0.333661718728206,0.220952333593,-0.275769980659,0.0639932200729,1.93384065,-3.337593,9.04095045,1
1569261701.67473,1569261701,674731975,1.046000004,-0.078337677,-0.169767559,1.190999985,0.34720847,-0.114135891,1.161999941,0.157892138,0.165568978,0.453000441722752,0.338993347805297,0.0708540179212,0.162307661593,0.369425839173,2.16943545,-2.1007203,9.25691235,1
1569261701.84612,1569261701,846115013,1.041000009,-0.096529007,-0.184145197,1.197999954,0.28515169,-0.110922292,1.161999941,0.097604781,0.165568978,0.41915478168458,0.336031644934919,0.254113589381,0.191978258877,0.0657385493249,2.7682389,-1.69824585,10.17965865,1
1569261702.00852,1569261702,8521895,1.029999971,-0.10218887,-0.182199374,1.225999951,0.238147229,-0.113514796,1.166000009,0.041226827,0.160467923,0.398700669296624,0.342701281110062,1.45315478551,0.0645692234812,-0.0389812057951,2.7878718,0.59880345,8.3636154,1
1569261702.17783,1569261702,177830760,1.02699995,-0.110216737,-0.180003718,1.258999944,0.213938668,-0.098200299,1.18900001,0.016979227,0.161705628,0.406930612226217,0.333532761582376,5.9002537196,0.0802771867492,-2.9222651301,3.1608969,4.1621748,6.60647085,5
1569261702.33813,1569261702,338131147,1.065999985,-0.109217182,-0.169557169,1.251000047,0.220692366,-0.095548175,1.200000048,0.013245129,0.157365277,0.385412329842288,0.331059768379503,1.41999352972,-1.48353782304,-2.51211275588,1.50191685,7.68628035,4.99657305,5
1569261702.50923,1569261702,509234072,1.190999985,-0.085335113,-0.166269213,1.228999972,0.222789109,-0.113792568,1.167999983,0.04129754,0.155062437,0.314862404020489,0.330065451069378,0.775967035729,-1.32645819036,-0.438661604503,-1.4724675,10.012779,3.4946562,1
1569261702.67681,1569261702,676806726,1.212000012,-0.07504949,-0.18295528,1.213999987,0.206291929,-0.120276332,1.129999995,0.080260098,0.14268972,0.288245805636996,0.303465262568353,-0.229342613423,-0.303695248691,-0.248420716035,-0.5104554,8.4225141,3.3179601,4
1569261702.84552,1569261702,845518994,1.213999987,-0.073205039,-0.177352726,1.18599999,0.201533973,-0.130961552,1.090000033,0.110996671,0.127036035,0.280031543887174,0.289785696153664,0.269821552649,-0.0104799343548,0.0273413057809,-0.4122909,9.92443095,2.1988848,4
1569261703.00737,1569261703,7365466,1.207000017,-0.072782934,-0.174373299,1.192999959,0.200789213,-0.131734505,1.034000039,0.12373504,0.11380408,0.277228764726836,0.302502093977087,0.412938551313,-0.146615616011,-0.0302545595351,0.06871515,8.17710285,2.5130112,4
1569261703.17614,1569261703,176139800,1.213999987,-0.079109907,-0.175384581,1.190999985,0.198521614,-0.13151367,1.013000011,0.121222049,0.109850489,0.28201581228141,0.30970287493494,-0.135094833815,-0.0506225071508,-0.223986106507,0.00981645,10.6606647,1.8847584,4
1569261703.34329,1569261703,343290344,1.217000008,-0.079305403,-0.177790999,1.18599999,0.193842396,-0.130961552,1.003000021,0.115146816,0.103887856,0.27886146797446,0.307954911315744,-0.0513190297188,0.0436252724572,-0.328705861627,-0.48100605,9.7771842,1.7080623,4
1569261703.50903,1569261703,509026569,1.218999982,-0.079435728,-0.178083181,1.177000046,0.190463126,-0.124243245,1.006999969,0.107442655,0.109199844,0.278402810192357,0.30047978399042,-0.0268844201908,0.191978258877,-0.485785494307,-1.0405437,7.0285782,1.2368727,1
1569261703.67378,1569261703,673782720,1.222000003,-0.079631224,-0.180502564,1.179999948,0.183295935,-0.113081738,0.994000018,0.102832414,0.107790112,0.274663909784916,0.299757779372187,0.121468566229,0.0366439554492,-0.0040746207551,-1.28595495,10.405437,2.1007203,4
1569261703.84662,1569261703,846615253,1.217000008,-0.079305403,-0.179764017,1.171000004,0.179999337,-0.114117689,0.994000018,0.101220816,0.107790112,0.271411843762116,0.294581266477696,-0.0548096882228,-0.178031542547,-0.984949660379,-3.15108045,2.7878718,2.6111757,3
1569261704.00405,1569261704,4051728,1.223999977,-0.081746057,-0.18476671,1.179999948,0.18138276,-0.109255679,0.990999997,0.099308588,0.109071411,0.277262858476398,0.300206378039102,0.784693681989,-0.0349145438828,-0.145446290167,-1.9436571,5.8309713,-0.3533922,1
1569261704.17636,1569261704,176359839,1.218999982,-0.081412129,-0.185988203,1.184000015,0.172399372,-0.149935856,0.994000018,0.096386023,0.107790112,0.258737410233005,0.329090721029525,-2.44591076346,-0.246099383375,0.0360679520409,-2.8860363,2.87621985,4.2603393,1
1569261704.34163,1569261704,341626715,1.228999972,-0.080087379,-0.18153654,1.182000041,0.174024567,-0.147766322,1.018000007,0.102014273,0.118644662,0.260619074968965,0.321023840220342,1.69924621004,-0.876163243347,2.0920658109,-0.63806925,9.0900327,5.4579462,3
1569261704.51061,1569261704,510611774,1.218999982,-0.079435728,-0.184011951,1.167999983,0.211731225,-0.155484006,1.078999996,0.092382424,0.134500459,0.296973126836802,0.325969513800714,-3.4372577786,-0.352564467747,1.98734605578,1.61971425,5.7720726,8.07893835,3
1569261704.67719,1569261704,677189887,1.192999959,-0.070004486,-0.172350749,1.182000041,0.231516749,-0.113273405,1.123999953,0.07436683,0.147398815,0.307451111440545,0.309854987904734,-4.55426849988,-0.705120976651,0.570138703153,2.18906835,-0.0392658,7.6764639,1
1569261704.84939,1569261704,849388973,1.146999955,-0.069164895,-0.119216934,1.152999997,0.195926353,-0.106755763,1.174999952,0.043450098,0.159801602,0.265451786682423,0.307873082932838,1.45664544401,-1.04546018079,0.582356007917,3.22961205,-3.4161246,11.0729556,3
1569261705.00661,1569261705,6612068,1.123999953,-0.062310871,-0.120470844,1.190999985,0.183073625,-0.092896394,1.210000038,0.019240914,0.166523322,0.255857197393346,0.307409740016697,1.33621772562,0.0645692234812,0.933167187569,1.75714455,-3.4161246,7.460502,3
1569261705.18258,1569261705,182575414,1.111999989,-0.103112638,-0.142620921,1.182000041,0.160609722,-0.101775765,1.217000008,-0.002352452,0.161567628,0.275894576265349,0.311659125458504,0.592707464269,-0.00698927585078,0.255979437793,2.83695405,-3.2590614,9.37470975,1
1569261705.34678,1569261705,346778138,1.090000033,-0.161158949,-0.159237623,1.238999963,0.182416618,-0.09864901,1.223999977,-0.020226499,0.160512581,0.379362793911897,0.329323492476815,0.236660296861,-0.116945018727,0.276923388817,2.42466315,-2.7878718,9.031134,1
1569261705.51235,1569261705,512347370,1.042000055,-0.170956239,-0.17249696,1.248999953,0.177813798,-0.097420312,1.213999987,-0.029902693,0.165105656,0.412463331165217,0.336587317241294,-0.0164124446788,-0.268788663651,0.348481888149,2.1988848,-2.40503025,8.70719115,1
1569261705.67921,1569261705,679205247,1.014999986,-0.181337282,-0.164736211,1.243999958,0.177101985,-0.095013529,1.207000017,-0.033644151,0.166110456,0.431023140549056,0.337592454025878,0.0691086886692,0.0174453336772,-0.0285092302831,2.9842008,-3.6517194,9.6397539,1
1569261705.84634,1569261705,846342566,1.034999967,-0.18994464,-0.139457017,1.261000037,0.185655653,-0.096311949,1.200000048,-0.023721082,0.165147096,0.440469191470204,0.340470920975011,0.0760900056772,-0.0994917262068,-0.0546891690631,1.97310645,-2.85658695,8.94278595,1
1569261706.00595,1569261706,5952620,1.01699996,-0.175099045,-0.137031674,1.26699996,0.192701682,-0.096770212,1.205000043,-0.021866223,0.163881645,0.446540435015807,0.343253209921836,0.156375151269,-0.0872744214428,0.240271474525,2.2970493,-2.30686575,8.96241885,1
1569261706.17949,1569261706,179493149,1.034999967,-0.161417425,-0.132745191,1.253999949,0.190724477,-0.095777303,1.197999954,-0.0217392,0.164871842,0.416331041364151,0.340902904466347,0.706153865649,-0.261807346643,0.667877141265,2.71915665,-1.6884294,9.81645,1
1569261706.34874,1569261706,348737343,1.103999972,-0.054042365,-0.141594872,1.251000047,0.204466134,-0.095548175,1.190999985,-0.019681178,0.169701084,0.300925180750712,0.35241906066057,0.213971016585,-0.0994917262068,0.121589085389,2.355948,-1.8258597,8.0298561,1
1569261706.51333,1569261706,513331029,1.152999997,0.016465137,-0.162833497,1.222000003,0.231426463,-0.091352105,1.200000048,0.001571589,0.157365277,0.236809970030689,0.339378250968579,0.470534416629,0.132637064309,-0.0948317418591,1.4135688,-0.87366405,8.96241885,1
1569261706.68168,1569261706,681680128,1.126000047,0.112837002,-0.180926219,1.223999977,0.285386771,-0.093485981,1.18900001,0.059389845,0.165560871,0.216848343972129,0.34555011182542,0.863233498329,-0.0226972391188,-0.792963442659,1.9436571,-0.7264173,9.68883615,3
1569261706.85551,1569261706,855510318,1.139999986,0.134571373,-0.188720286,1.281999946,0.348794937,-0.097915873,1.200000048,0.126089349,0.170983464,0.272582401180154,0.358648317488701,-0.527793915515,0.359529867069,-0.550362676631,3.34740945,-1.1190753,9.59067165,3
1569261707.00772,1569261707,7718433,1.161999941,0.076881006,-0.184826866,1.30400002,0.399178863,-0.116508663,1.190999985,0.198521614,0.165839359,0.358758007470144,0.364352501039257,-0.389912904607,-0.413650991567,-0.536400042615,2.552277,-0.1374303,10.19929155,1
1569261707.17705,1569261707,177053337,1.133999944,0.058481213,-0.176696286,1.296000004,0.434552193,-0.130501524,1.19599998,0.242015332,0.166535571,0.412076882965304,0.367833499629619,-0.0809896270028,-0.308931236447,-0.0808691078431,1.4528346,-0.16687965,8.5010457,1
1569261707.34774,1569261707,347737117,1.10800004,0.073308222,-0.161867231,1.248999953,0.437018275,-0.129818618,1.197999954,0.261843503,0.170698479,0.391398890793643,0.351564682857308,0.0813259934332,0.422361720141,0.0674838785769,2.79768825,-1.1976069,10.0520448,1
1569261707.51289,1569261707,512887014,1.136000037,0.078844428,-0.127282098,1.235999942,0.440485477,-0.136482701,1.210000038,0.270351738,0.168484986,0.375325033027898,0.350181059265431,0.130195212489,-0.123926335735,-0.548617347379,2.2577835,-0.18651255,9.47287425,1
1569261707.68575,1569261707,685747460,1.143000007,0.079330266,-0.126213372,1.261000037,0.449394971,-0.135154575,1.210000038,0.272313535,0.168484986,0.388525209063486,0.355184202742879,1.32050976235,0.127401076553,-0.744094223603,2.1203532,0.20614545,9.41397555,1
1569261707.8501,1569261707,850095566,1.18599999,0.078468911,-0.142498091,1.261000037,0.447350472,-0.139243275,1.18900001,0.269515187,0.163633242,0.376442833539161,0.358529743576573,2.38341527682,0.164052990845,-0.873248588251,1.7865939,3.95602935,8.2261851,1
1569261708.0085,1569261708,8504712,1.243999958,0.064153992,-0.157533959,1.261000037,0.428950071,-0.139243275,1.179999948,0.265561968,0.15665555,0.365649738220839,0.347581359189941,0.810873620769,0.240847477933,-0.850559307975,1.18779045,6.23344575,6.95986305,1
1569261708.17867,1569261708,178672435,1.251000047,0.021921158,-0.158420399,1.256000042,0.392630696,-0.138691157,1.179999948,0.257909298,0.152829483,0.371267833920565,0.330015382843123,1.28385784806,0.452032317425,-0.517201420843,0.34357575,7.54885005,3.89713065,1
1569261708.34033,1569261708,340328811,1.225999951,0.01949534,-0.179105803,1.274000049,0.346618384,-0.134482488,1.174999952,0.230145678,0.155991763,0.333623643594732,0.328241071383492,1.00285983849,0.0994758085212,-0.655082431751,-1.1583411,10.49378505,2.13016965,1
1569261708.49508,1569261708,495077253,1.235999942,0.019654356,-0.196597248,1.281999946,0.305145621,-0.131170183,1.190999985,0.198521614,0.158115894,0.296482653107757,0.321459338201253,0.500205013913,0.260046099705,-0.621921175963,-1.79641035,9.21764655,0.6871515,1
1569261708.64678,1569261708,646775252,1.248999953,0.003660797,-0.200689912,1.292999983,0.261643678,-0.126006976,1.205000043,0.146151692,0.156067401,0.27215567320679,0.317251229201978,0.0656180301652,0.188487600373,-0.194315509223,-2.2577835,12.37854345,-0.588987,1
1569261708.81577,1569261708,815768326,1.238999963,0.001622665,-0.209126517,1.289999962,0.238030002,-0.119440533,1.217000008,0.104197785,0.157621607,0.257939924423265,0.316233276257444,-0.185709382123,0.277499392225,-0.604467883443,-2.9056692,9.1292985,-0.63806925,1
1569261708.97782,1569261708,977817908,1.233999968,0.001616117,-0.216284886,1.274000049,0.224749848,-0.115893677,1.222000003,0.076888248,0.160250306,0.247925519530501,0.317525679096457,0.461807770369,-0.0471318486468,-0.0948317418591,-2.77805535,10.04222835,-1.570632,4
1569261709.14809,1569261709,148092101,1.228999972,0.003602177,-0.207438648,1.292999983,0.219716206,-0.111333393,1.251000047,0.064514987,0.164053306,0.245025498626629,0.318887514633619,0.123213895481,-0.185012859555,-0.899428527031,-0.99146145,5.36959815,-2.8075047,3
1569261709.31113,1569261709,311126096,1.222000003,0.00358166,-0.204276025,1.279999971,0.217507154,-0.099838272,1.228999972,0.055409998,0.161168262,0.24502113688993,0.311449672775525,-4.72356543732,-0.849983304567,-0.0826144370951,-1.34485365,6.2039964,-4.36832025,1
1569261709.47735,1569261709,477348302,1.230999947,0.001612188,-0.207776219,1.274000049,0.216487586,-0.142744184,1.230999947,0.059491869,0.16342625,0.228581738146139,0.346752070771182,-1.56626482045,-0.478228173891,2.90538924233,-0.3533922,9.2863617,7.90224225,3
1569261709.64643,1569261709,646433349,1.230999947,0.001612188,-0.207776219,1.258999944,0.258846134,-0.151269063,1.235999942,0.063741423,0.164090052,0.264851583884143,0.37154571691782,-0.140330821571,0.762700924281,1.46025662167,2.40503025,6.8911479,4.17199125,3
1569261709.81756,1569261709,817560268,1.207000017,0.01919321,-0.193941325,1.287999988,0.298220694,-0.135960326,1.251000047,0.086826041,0.164053306,0.296275426544979,0.368869725427318,0.0254754573692,-0.0855290921908,0.301357998345,3.0038337,6.35124315,5.78188905,1
1569261709.97881,1569261709,978805684,1.154999971,0.050201043,-0.153753445,1.317999959,0.335083514,-0.126306549,1.228999972,0.125151291,0.171130612,0.329363553647183,0.374781804098681,-0.327081051535,0.513118841245,0.767360908629,3.70080165,5.4383133,6.5770215,1
1569261710.14892,1569261710,148917753,1.116000056,0.07202813,-0.148561776,1.30400002,0.373808384,-0.131307095,1.228999972,0.166996077,0.175115556,0.355967740370834,0.377215029621743,-0.676146901935,0.582932011325,-0.0581798275671,3.7695168,6.39050895,7.13655915,1
1569261710.31252,1569261710,312515004,1.019999981,0.143558487,-0.165547714,1.309999943,0.40101558,-0.129787475,1.223999977,0.206006706,0.174403131,0.389439247366453,0.371424797057757,0.0184941403612,-0.212938127587,-0.203042155483,2.8467705,4.99657305,6.84206565,1
1569261710.47805,1569261710,478052157,1.001999974,0.183263853,-0.178870842,1.312000036,0.429281145,-0.125731558,1.217000008,0.240345314,0.17537874,0.399309816942997,0.3679526669523,-0.365478295079,0.411889744629,-0.134974314655,4.68244665,4.52538345,7.2838059,1
1569261710.64197,1569261710,641974446,1.121999979,0.168829083,-0.156636491,1.328999996,0.452081382,-0.131669894,1.207000017,0.263810635,0.171980858,0.351716082789153,0.377536287318324,0.0219847988652,-0.776679475983,-0.492766811315,3.2590614,6.0665661,6.82243275,1
1569261710.79957,1569261710,799567103,1.190999985,0.177280635,-0.160476625,1.292999983,0.441931754,-0.144873023,1.212000012,0.274728686,0.168763474,0.284055781098232,0.364534927683267,0.383267954029,-0.649270440587,-0.122757009891,2.2185177,5.64445875,7.03839465,1
1569261710.95134,1569261710,951335654,1.190999985,0.142522663,-0.152753174,1.274000049,0.451962352,-0.142744184,1.200000048,0.279790968,0.167092547,0.320534103697627,0.362101899322887,-0.107169565783,-0.0750571166788,-0.0651611445751,2.99401725,5.76225615,6.7340847,1
1569261711.11196,1569261711,111955510,1.171000004,0.123042189,-0.150188044,1.274000049,0.454027921,-0.151005894,1.179999948,0.278954118,0.162394643,0.34664280309304,0.3710886040783,-0.100188248775,0.282735379981,0.0797011833409,3.28851075,6.1254648,6.871515,1
1569261711.28136,1569261711,281362028,1.179999948,0.116335206,-0.149429321,1.271999955,0.451252818,-0.156955376,1.18900001,0.281081736,0.157850385,0.347405310292813,0.367355216619885,0.0499100668972,-0.0960010677028,-0.108794375875,3.7498839,5.97821805,7.1660085,1
1569261711.44799,1569261711,447990884,1.197999954,0.118109815,-0.149766535,1.27699995,0.450956196,-0.159642622,1.192999959,0.283961564,0.158381417,0.342235664136905,0.368893609305839,0.0411834206372,0.0191906629292,0.0290866350329,3.05291595,5.8309713,7.0285782,1
1569261711.61319,1569261711,613192188,1.205000043,0.124661028,-0.152595192,1.269000053,0.448131084,-0.158642516,1.18599999,0.282295406,0.161297619,0.329796071135185,0.369800179204313,0.791674998997,0.134382393561,-0.632393151475,2.46392895,6.4984899,7.35252105,1
1569261711.784,1569261711,784000261,1.200000048,0.143599659,-0.144180194,1.271999955,0.447128177,-0.156955376,1.18900001,0.281081736,0.157850385,0.312212672904894,0.365462827928585,0.0184941403612,-0.244354054123,-0.0669064738271,1.95347355,6.4984899,6.2432622,1
1569261711.9492,1569261711,949202256,1.207000017,0.120954052,-0.143064454,1.274000049,0.433372229,-0.148940459,1.184000015,0.276060402,0.157186583,0.319575732875268,0.355753823419719,-0.0705176514908,0.347312562305,0.0936638173569,2.1007203,7.43105265,6.46904055,1
1569261712.11887,1569261712,118868430,1.222000003,0.104625881,-0.152766868,1.27699995,0.417829275,-0.153431758,1.184000015,0.262622863,0.161025614,0.317996544418071,0.362796715863119,0.0900526396932,0.261791428957,0.329283266377,1.61971425,6.78316695,6.48867345,1
1569261712.28193,1569261712,281927463,1.18900001,0.121078022,-0.167917624,1.289999962,0.396984696,-0.150810987,1.172999978,0.235459387,0.163332969,0.294309565069154,0.372109992871564,0.245386943121,0.305424660257,0.362444522165,1.79641035,6.9107808,6.9107808,3
1569261712.45628,1569261712,456284771,1.164000034,0.114757784,-0.170048252,1.287999988,0.371310025,-0.142224684,1.18900001,0.200115994,0.165560871,0.286302622919132,0.365841960087532,0.142412517253,0.0663145527332,0.224563511257,2.0418216,7.2445401,6.33161025,3
1569261712.61618,1569261712,616181592,1.157999992,0.093513809,-0.167294353,1.317999959,0.356452584,-0.136990339,1.202999949,0.163463205,0.167510286,0.309281622640295,0.378405250138256,0.997623850733,0.560242731049,0.325792607873,1.71787875,7.8335271,5.66409165,1
1569261712.791,1569261712,790997920,1.159999967,0.09179458,-0.167583287,1.335000038,0.324254245,-0.123607062,1.235999942,0.137887865,0.172105327,0.294272712066831,0.363289503853884,1.09885294735,0.862184691645,-1.6167588496,0.7264173,7.82371065,3.32777655,3
1569261712.9499,1569261712,949901702,1.19599998,0.083008751,-0.161150321,1.350000024,0.308198452,-0.124995902,1.246000052,0.108700894,0.171477735,0.275197305585827,0.372171851783517,0.671247280609,-0.178031542547,-0.138464973159,0.32394285,9.39434265,0.75586665,4
1569261713.11972,1569261713,119719701,1.205000043,0.097309269,-0.162362993,1.324000001,0.293676257,-0.129028037,1.256000042,0.107536912,0.170817718,0.232017678791328,0.359415257011372,0.372795978517,-0.987864315475,-0.285072630327,-2.24796705,9.0115011,2.81732115,4
1569261713.28458,1569261713,284576720,1.200000048,0.10274227,-0.173362017,1.292999983,0.29728201,-0.134391889,1.248999953,0.125162899,0.16581592,0.219119531821351,0.348834802730478,0.200008382569,-0.101237055459,-0.0267639010311,-1.52154975,9.1881972,1.8454926,4
1569261713.45052,1569261713,450521827,1.200000048,0.10274227,-0.194762021,1.271999955,0.308952361,-0.134271368,1.243999958,0.150881916,0.165152118,0.226640039133873,0.339742092450862,-0.831481205363,-0.560258648735,-0.321724544619,-2.13016965,6.41014185,7.19545785,1
1569261713.616,1569261713,615997114,1.192999959,0.1002087,-0.201362342,1.27699995,0.322589397,-0.13272889,1.230999947,0.191218048,0.159434825,0.247426198329203,0.323626432753385,-0.0286297494428,0.937233849481,2.06414054286,-1.58044845,11.387082,4.1818077,3
1569261713.78631,1569261713,786309007,1.18599999,0.099620715,-0.209794611,1.281999946,0.325931013,-0.135326967,1.212000012,0.205952078,0.153044194,0.256861387786801,0.320082586374558,-0.883841082923,0.818551460345,0.687075763037,-0.9620121,8.5403115,3.8676813,3
1569261713.94739,1569261713,947389675,1.18599999,0.093852043,-0.213640139,1.27699995,0.32051897,-0.124447733,1.197999954,0.201630741,0.147391945,0.260027255886174,0.307037816722794,-0.927474314223,1.33865957744,1.14609735631,0.4711896,10.0520448,4.23088995,3
1569261714.11897,1569261714,118967609,1.174999952,0.098696746,-0.196419254,1.296000004,0.327389091,-0.126299337,1.182000041,0.183606595,0.149255976,0.26806343280218,0.331059100830228,0.184300419301,0.188487600373,0.458437631025,0.89329695,8.0298561,6.48867345,3
1569261714.28077,1569261714,280765270,1.075000048,0.100754574,-0.151817873,1.292999983,0.337113112,-0.119718298,1.177000046,0.171380132,0.152440935,0.32314039187431,0.339107732366622,-0.140330821571,0.0663145527332,0.383388473189,0.95219565,7.92187515,5.2027185,1
1569261714.45008,1569261714,450075187,1.039000034,0.159709066,-0.182106972,1.309999943,0.358536869,-0.100054443,1.184000015,0.166640431,0.164864644,0.345985640509994,0.350545785069521,-0.231087942675,0.143109039821,0.194892913973,2.20870125,7.6960968,5.9880345,1
1569261714.6148,1569261714,614804427,1.069000006,0.160854101,-0.189098179,1.328999996,0.363737017,-0.103660204,1.177000046,0.179013327,0.163889945,0.340677442717835,0.358900973357751,-0.257267881455,-0.425868296331,-0.492766811315,2.13016965,7.68628035,6.17454705,1
1569261714.7862,1569261714,786199819,1.07099998,0.164627925,-0.208551466,1.300999999,0.372948378,-0.116240621,1.171000004,0.191390768,0.161156043,0.323757180588693,0.356106828981474,-0.470198050199,-0.589929246019,-0.121011680639,1.75714455,6.33161025,5.86042065,1
1569261714.95178,1569261714,951778319,1.116000056,0.120881893,-0.195602864,1.284999967,0.382945597,-0.118977584,1.164000034,0.21100612,0.160192683,0.32110712917543,0.349485629910429,-0.292174466495,-1.20952113048,-1.09665073251,2.9253021,7.1267427,7.4212362,1
1569261715.1158,1569261715,115796117,1.200000048,0.017136309,-0.167525649,1.27699995,0.386772782,-0.134799168,1.171000004,0.23505792,0.153562278,0.378986978191247,0.34264516842193,0.0917979689452,-1.00008162024,-0.372339092927,1.8454926,7.33288815,6.46904055,1
1569261715.28545,1569261715,285450179,1.210000038,-0.019995151,-0.163036704,1.26699996,0.379635602,-0.148122117,1.179999948,0.229211852,0.150916457,0.403950708325575,0.34586178654488,0.170337785285,0.429343037149,0.409568411969,1.67861295,6.46904055,5.95858515,1
1569261715.45251,1569261715,452508129,1.197999954,-0.029508589,-0.169188663,1.246000052,0.339000374,-0.139606953,1.172999978,0.208833978,0.153824553,0.372797455444467,0.329202597445801,0.864978827581,0.350803220809,-0.791218113407,3.1216311,8.00040675,7.0089453,1
1569261715.6182,1569261715,618203879,1.197999954,-0.056701452,-0.173073083,1.26699996,0.301575273,-0.13990581,1.179999948,0.16033797,0.152829483,0.366364955342323,0.336468318886801,0.355342685997,0.396181781361,-0.688243687539,2.16943545,7.9316916,5.1241869,1
1569261715.78819,1569261715,788194360,1.217000008,-0.097063772,-0.189629093,1.292999983,0.242776304,-0.142776802,1.197999954,0.104513377,0.153218582,0.351372182489785,0.340227732323389,0.282038857413,-0.0314238853788,-0.288563288831,-0.4122909,9.031134,3.42594105,1
1569261715.94457,1569261715,944573656,1.248999953,-0.123916402,-0.202714801,1.279999971,0.173925936,-0.141341299,1.207000017,0.046590362,0.154369637,0.305675916894103,0.330133759800339,0.0254754573692,0.226884843917,-0.257147362295,-0.93256275,9.23727945,3.7498839,4
1569261716.09997,1569261716,99970861,1.241000056,-0.125134766,-0.201416388,1.281999946,0.14509815,-0.141562149,1.212000012,0.017307673,0.153044194,0.279802340583749,0.328668973448553,-0.110660224287,2.00886601021,0.681839775281,-0.48100605,10.6802976,2.26759995,3
1569261716.2547,1569261716,254704906,1.200000048,-0.140456483,-0.194762021,1.281999946,0.130548373,-0.141562149,1.218999982,-0.000379923,0.153928116,0.288093459884822,0.329280595947036,-0.201417345391,0.179760954113,0.400841765709,-0.7460502,8.5010457,4.78061115,1
1569261716.40872,1569261716,408719553,1.192999959,-0.143505633,-0.168482527,1.284999967,0.137104079,-0.137726903,1.233999968,-0.004386028,0.155822232,0.296903553950357,0.329835633211634,-0.272975844723,0.00522802891322,-0.0599251568191,0.00981645,8.31453315,4.58428215,4
1569261716.55848,1569261716,558478742,1.207000017,-0.141275808,-0.154805273,1.30400002,0.153930753,-0.129193023,1.222000003,0.001600401,0.158269182,0.311788231961229,0.335504185118317,0.0708540179212,-0.242608724871,-0.169880899695,0.1570632,9.15874785,4.64318085,4
1569261716.72153,1569261716,721527796,1.225999951,-0.127597749,-0.171155378,1.299000025,0.153340533,-0.137121469,1.235999942,0.005626652,0.156074777,0.292256113809339,0.334293942162555,0.378031966273,0.102966467025,-0.141955631663,-0.87366405,9.031134,3.9658458,4
1569261716.88136,1569261716,881359986,1.233999968,-0.098419636,-0.154267028,1.292999983,0.152632266,-0.138584346,1.212000012,0.021237765,0.156974018,0.2583679658598,0.333437035623514,0.517658306433,-0.132652981995,0.0238506472769,0.18651255,8.29490025,3.30814365,4
1569261717.05444,1569261717,54434944,1.205000043,-0.121504754,-0.191666409,1.292999983,0.156825006,-0.123910755,1.200000048,0.034646619,0.155419827,0.299670274452821,0.318750874822932,0.603179439781,-0.350819138495,-0.557343993639,-0.8245818,10.53305085,0.9620121,1
1569261717.21401,1569261717,214011045,1.202999949,-0.082294002,-0.187447652,1.284999967,0.151687905,-0.118977584,1.210000038,0.032973539,0.158676654,0.257215252205777,0.311142999156574,0.646812671081,-0.521861405191,-0.716168955571,-1.9043913,8.7170076,1.73751165,1
1569261717.36817,1569261717,368174180,1.190999985,-0.08147312,-0.18943958,1.271999955,0.150153309,-0.109525189,1.202999949,0.028881874,0.159709007,0.258066091612583,0.303240521815152,0.0830713226852,-0.417141650071,-0.442152263007,-2.54246055,9.08021625,0.97182855,4
1569261717.52437,1569261717,524371824,1.179999948,-0.084546961,-0.181950837,1.271999955,0.150153309,-0.099214278,1.205000043,0.021115104,0.15997453,0.265317839998055,0.297184597094282,-0.107169565783,-0.109963701719,-0.845323320219,-2.28723285,8.245818,0.5693541,1
1569261717.68167,1569261717,681670131,1.18900001,-0.08904732,-0.185266212,1.248999953,0.149463311,-0.093370527,1.200000048,0.0190819,0.157365277,0.262549292860675,0.286825289038269,0.140667188001,0.0401346139532,-0.705696980059,-4.70207955,9.7968171,1.374303,1
1569261717.85197,1569261717,851974900,1.19599998,-0.095388889,-0.19023487,1.228999972,0.153047815,-0.083905518,1.18599999,0.016936386,0.157452106,0.272242036546753,0.280408313392003,-0.0199031031828,0.0732958697412,-0.241439399027,-3.337593,8.5010457,0.2355948,4
1569261718.02093,1569261718,20927248,1.192999959,-0.097083859,-0.191691801,1.238999963,0.15429312,-0.070527464,1.166000009,0.016650781,0.160467923,0.282820053213728,0.278627485336018,0.116232578473,0.448541658921,2.72736565862,-4.1818077,3.62227005,-0.1570632,3
1569261718.18223,1569261718,182228299,1.19599998,-0.095388889,-0.192173839,1.222000003,0.146232322,-0.077484258,1.152999997,0.012726361,0.156809568,0.268720134696049,0.278349491381342,-0.587135110083,0.0488612602132,0.458437631025,-1.56081555,9.0900327,-0.5300883,3
1569261718.35335,1569261718,353346933,1.190999985,-0.091128103,-0.191370443,1.233999968,0.127661169,-0.146264732,1.152999997,0.010856974,0.1512018,0.227491250919911,0.329682503223489,1.00285983849,-0.914560486891,0.975055089617,-3.5535549,8.8740708,5.72299035,3
1569261718.52367,1569261718,523672001,1.19599998,-0.074058734,-0.207685605,1.213999987,0.145274997,-0.153734908,1.161999941,0.0128257,0.154265895,0.226587650839948,0.339280585516533,-3.06899330643,0.00697335816522,0.893024614773,1.60008135,7.66664745,6.2628951,3
1569261718.68997,1569261718,689970198,1.205000043,-0.082430817,-0.191666409,1.261000037,0.171344221,-0.122888483,1.197999954,0.003511317,0.159045205,0.26882740251835,0.334101030456899,-4.03066972428,0.109947784033,0.118098426885,2.3755809,7.19545785,5.9487687,1
1569261718.85306,1569261718,853064778,1.217000008,-0.063520178,-0.120573558,1.279999971,0.178076521,-0.099838272,1.192999959,0.001562421,0.164183736,0.250535251793435,0.329292955125314,0.0307114451252,0.710341046721,2.34164789393,3.60263715,6.1843635,9.06058335,3
1569261719.025,1569261719,24996404,1.233999968,-0.042399615,-0.120257244,1.296000004,0.180302486,-0.101086251,1.18900001,0.018906981,0.163633242,0.231964991381074,0.327984630317309,1.60150777193,-0.656251757595,0.704529055557,2.11053675,2.28723285,10.12075995,1
1569261719.18954,1569261719,189536340,1.246000052,-0.020590048,-0.133546859,1.315000057,0.257567286,-0.102568224,1.205000043,0.060189035,0.15997453,0.288257140370279,0.346391216294126,0.0376927621332,-0.411905662315,0.343245900393,2.03200515,3.95602935,8.05930545,1
1569261719.36034,1569261719,360336848,1.182000041,0.07053864,-0.134352401,1.300999999,0.326542825,-0.101476245,1.205000043,0.120753631,0.165835202,0.284218180936499,0.350742916701685,-0.412602184883,0.137873052065,-0.321724544619,2.5326441,3.28851075,8.4617799,1
1569261719.51558,1569261719,515577561,1.052999973,0.165275574,-0.160660848,1.279999971,0.369003743,-0.097763121,1.205000043,0.179364532,0.171695888,0.311432641188844,0.337929248630493,-0.122877529051,0.0348986261972,-0.180352875207,3.533922,3.07254885,8.84462145,1
1569261719.67472,1569261719,674715591,1.018000007,0.18453972,-0.186678231,1.296000004,0.407236099,-0.101086251,1.197999954,0.221054226,0.174582914,0.366338180636461,0.346786949243462,-0.178728065115,-0.230391420107,-0.419462982731,3.2197956,3.38667525,8.02003965,1
1569261719.82392,1569261719,823916004,1.113999963,0.124277569,-0.162743777,1.274000049,0.427175522,-0.113828249,1.207000017,0.252068996,0.171980858,0.34603457389561,0.3418159524948,-0.131604175311,-0.443321588851,-0.634138480727,3.60263715,3.01365015,9.43360845,1
1569261719.99056,1569261719,990558497,1.233999968,0.021623269,-0.138262421,1.271999955,0.434754223,-0.123960465,1.167999983,0.260967612,0.162636742,0.415121343838613,0.350935520286942,0.142412517253,-0.574221282751,-0.597486566435,2.48356185,4.3388709,10.16002575,1
1569261720.15472,1569261720,154721106,1.256000042,0.040336229,-0.161089823,1.241000056,0.408062279,-0.139046729,1.161999941,0.242671221,0.152382046,0.368691395914924,0.344275981059343,3.76920670291,0.635291888885,-0.290308618083,0.9031134,5.9291358,7.96114095,1
1569261720.3208,1569261720,320795795,1.228999972,0.043454345,-0.177551597,1.217000008,0.348868698,-0.130438626,1.126000047,0.204117596,0.153137535,0.30925969377023,0.331133377235992,0.215716345837,0.209431551397,-1.30259958424,2.2381506,9.13911495,2.7093402,1
1569261720.49118,1569261720,491178181,1.223999977,-0.048009526,-0.156985626,1.251000047,0.26531446,-0.127998352,1.126000047,0.14387241,0.14218463,0.315818280086641,0.321515186687371,0.854506852069,0.263536758209,-0.412481665723,-2.62099215,10.5625002,1.73751165,1
1569261720.657,1569261720,657002992,1.18900001,-0.098686099,-0.16599001,1.269000053,0.17243126,-0.125725418,1.123999953,0.094412893,0.132820874,0.285527348252428,0.306525822234124,0.809128291517,-0.239118066367,-0.333941849383,-1.67861295,9.43360845,4.0247445,4
1569261720.81428,1569261720,814277833,1.182000041,-0.103854321,-0.174594134,1.271999955,0.150153309,-0.121898286,1.126000047,0.078150377,0.131231725,0.274584619042406,0.30095713618631,0.571763513245,-0.0855290921908,-0.112285034379,-1.6491636,9.15874785,2.07127095,4
1569261720.97089,1569261720,970889574,1.179999948,-0.109418087,-0.180037811,1.261000037,0.14272134,-0.116755433,1.129999995,0.071099609,0.118874118,0.272286548384659,0.278947967656873,0.126704553985,-0.00698927585078,-0.0686518030791,-1.77677745,9.61030455,1.7080623,4
1569261721.12623,1569261721,126227759,1.179999948,-0.111331254,-0.189602956,1.256000042,0.13197352,-0.116292484,1.118000031,0.072157212,0.104924127,0.265231319123633,0.267504734016197,0.00627683559719,0.223394185413,-0.0826144370951,-1.75714455,10.012779,1.01109435,4
1569261721.2925,1569261721,292498225,1.179999948,-0.115157582,-0.189602956,1.256000042,0.129937142,-0.116292484,1.121999979,0.057862364,0.090747528,0.266874246276234,0.256936484518477,0.198263053317,0.155326344585,-0.0110559377631,-1.96329,9.7771842,0.0588987,4
1569261721.45723,1569261721,457226133,1.179999948,-0.115157582,-0.189602956,1.256000042,0.125864372,-0.11425624,1.116000056,0.055743538,0.086643703,0.263713337186369,0.254711041257067,-0.0984429195228,-0.104727713963,-0.0162919255191,-2.2774164,8.8937037,1.1190753,4
