rosbagTimestamp,header,seq,stamp,secs,nsecs,frame_id,orientation,x,y,z,w,orientation_covariance,angular_velocity,x,y,z,angular_velocity_covariance,linear_acceleration,x,y,z,linear_acceleration_covariance
1569267709090561483,,18994,,1569267709,45480966,"""knife_link""",,0.849831709735,0.478198902195,0.0438727340022,0.217225823232,"[0.0, 0.0, 0.0, 0.0, 0.0, 0.0, 0.0, 0.0, 0.0]",,2.49169098607,-0.528345745426,0.773131360554,"[0.0, 0.0, 0.0, 0.0, 0.0, 0.0, 0.0, 0.0, 0.0]",,-0.6871515,5.09473755,-7.9905903,"[0.0, 0.0, 0.0, 0.0, 0.0, 0.0, 0.0, 0.0, 0.0]"
1569267709159277753,,18995,,1569267709,88044881,"""knife_link""",,0.859889150485,0.468751185716,0.0257680286097,0.200496841545,"[0.0, 0.0, 0.0, 0.0, 0.0, 0.0, 0.0, 0.0, 0.0]",,1.20014733959,-0.530091074678,0.581145142834,"[0.0, 0.0, 0.0, 0.0, 0.0, 0.0, 0.0, 0.0, 0.0]",,-1.01109435,4.56464925,-8.94278595,"[0.0, 0.0, 0.0, 0.0, 0.0, 0.0, 0.0, 0.0, 0.0]"
1569267709195876660,,18996,,1569267709,158345937,"""knife_link""",,0.867690073405,0.455434873293,0.00424249767378,0.199185877804,"[0.0, 0.0, 0.0, 0.0, 0.0, 0.0, 0.0, 0.0, 0.0]",,0.395550554423,-0.633065500546,0.404866888382,"[0.0, 0.0, 0.0, 0.0, 0.0, 0.0, 0.0, 0.0, 0.0]",,-1.42338525,5.0849211,-8.6188431,"[0.0, 0.0, 0.0, 0.0, 0.0, 0.0, 0.0, 0.0, 0.0]"
1569267709237464657,,18997,,1569267709,194691896,"""knife_link""",,0.874273284461,0.446515192568,-0.00726263297266,0.190309382445,"[0.0, 0.0, 0.0, 0.0, 0.0, 0.0, 0.0, 0.0, 0.0]",,0.849336159943,-0.51438311141,0.666666276182,"[0.0, 0.0, 0.0, 0.0, 0.0, 0.0, 0.0, 0.0, 0.0]",,-1.3154043,4.23088995,-9.0900327,"[0.0, 0.0, 0.0, 0.0, 0.0, 0.0, 0.0, 0.0, 0.0]"
1569267709301572510,,18998,,1569267709,236819982,"""knife_link""",,0.877506044537,0.442008488456,-0.0158356700945,0.1853668511,"[0.0, 0.0, 0.0, 0.0, 0.0, 0.0, 0.0, 0.0, 0.0]",,0.470599712259,-0.364284795738,0.369960303342,"[0.0, 0.0, 0.0, 0.0, 0.0, 0.0, 0.0, 0.0, 0.0]",,-1.56081555,3.4946562,-8.78572275,"[0.0, 0.0, 0.0, 0.0, 0.0, 0.0, 0.0, 0.0, 0.0]"
1569267709344604836,,18999,,1569267709,300661087,"""knife_link""",,0.881663872192,0.435910692319,-0.0116522926739,0.180318908797,"[0.0, 0.0, 0.0, 0.0, 0.0, 0.0, 0.0, 0.0, 0.0]",,0.140732483631,0.106954102302,0.369960303342,"[0.0, 0.0, 0.0, 0.0, 0.0, 0.0, 0.0, 0.0, 0.0]",,-1.570632,3.62227005,-9.3648933,"[0.0, 0.0, 0.0, 0.0, 0.0, 0.0, 0.0, 0.0, 0.0]"
1569267709392252167,,19000,,1569267709,343323945,"""knife_link""",,0.882596633388,0.434009076081,-0.0129861986786,0.180251666444,"[0.0, 0.0, 0.0, 0.0, 0.0, 0.0, 0.0, 0.0, 0.0]",,0.0796459598108,-0.13041067597,0.284439169994,"[0.0, 0.0, 0.0, 0.0, 0.0, 0.0, 0.0, 0.0, 0.0]",,-1.93384065,3.15108045,-9.1881972,"[0.0, 0.0, 0.0, 0.0, 0.0, 0.0, 0.0, 0.0, 0.0]"
1569267709454086382,,19001,,1569267709,389539003,"""knife_link""",,0.874881973019,0.443931674703,-0.00572039001233,0.193580677287,"[0.0, 0.0, 0.0, 0.0, 0.0, 0.0, 0.0, 0.0, 0.0]",,-0.676081606305,0.0441222492303,-0.289774153914,"[0.0, 0.0, 0.0, 0.0, 0.0, 0.0, 0.0, 0.0, 0.0]",,-1.83567615,3.2786943,-8.7759063,"[0.0, 0.0, 0.0, 0.0, 0.0, 0.0, 0.0, 0.0, 0.0]"
1569267709493434647,,19002,,1569267709,449031114,"""knife_link""",,0.8637652845,0.459776885192,0.00963738579432,0.205965700859,"[0.0, 0.0, 0.0, 0.0, 0.0, 0.0, 0.0, 0.0, 0.0]",,-0.637684362761,0.32337492955,-0.418928518562,"[0.0, 0.0, 0.0, 0.0, 0.0, 0.0, 0.0, 0.0, 0.0]",,-1.5509991,4.0640103,-8.68755825,"[0.0, 0.0, 0.0, 0.0, 0.0, 0.0, 0.0, 0.0, 0.0]"
1569267709534859707,,19003,,1569267709,492468118,"""knife_link""",,0.853701213462,0.473435217176,0.0232870641185,0.215664197113,"[0.0, 0.0, 0.0, 0.0, 0.0, 0.0, 0.0, 0.0, 0.0]",,-0.723205496109,0.405405404394,-0.497468334902,"[0.0, 0.0, 0.0, 0.0, 0.0, 0.0, 0.0, 0.0, 0.0]",,-1.2172398,4.4959341,-8.76608985,"[0.0, 0.0, 0.0, 0.0, 0.0, 0.0, 0.0, 0.0, 0.0]"
1569267709599281531,,19004,,1569267709,534198045,"""knife_link""",,0.843432110552,0.487237956499,0.0339814297405,0.223755918511,"[0.0, 0.0, 0.0, 0.0, 0.0, 0.0, 0.0, 0.0, 0.0]",,-0.621976399493,0.333846905062,-0.581244138998,"[0.0, 0.0, 0.0, 0.0, 0.0, 0.0, 0.0, 0.0, 0.0]",,-0.7460502,4.908225,-8.70719115,"[0.0, 0.0, 0.0, 0.0, 0.0, 0.0, 0.0, 0.0, 0.0]"
1569267709641810557,,19005,,1569267709,598027944,"""knife_link""",,0.827884020633,0.505642820865,0.0517016396701,0.237192593778,"[0.0, 0.0, 0.0, 0.0, 0.0, 0.0, 0.0, 0.0, 0.0]",,-0.691789569573,0.360026843842,-0.555064200218,"[0.0, 0.0, 0.0, 0.0, 0.0, 0.0, 0.0, 0.0, 0.0]",,-0.392658,5.1830856,-8.58939375,"[0.0, 0.0, 0.0, 0.0, 0.0, 0.0, 0.0, 0.0, 0.0]"
1569267709705552992,,19006,,1569267709,640511989,"""knife_link""",,0.818462906329,0.516834123623,0.0621968271162,0.243171779448,"[0.0, 0.0, 0.0, 0.0, 0.0, 0.0, 0.0, 0.0, 0.0]",,-0.529473949137,0.34082822207,-0.483505700886,"[0.0, 0.0, 0.0, 0.0, 0.0, 0.0, 0.0, 0.0, 0.0]",,-0.18651255,5.3794146,-8.6777418,"[0.0, 0.0, 0.0, 0.0, 0.0, 0.0, 0.0, 0.0, 0.0]"
1569267709747949888,,19007,,1569267709,704649925,"""knife_link""",,0.804884848654,0.531668517529,0.0771853717769,0.25205433196,"[0.0, 0.0, 0.0, 0.0, 0.0, 0.0, 0.0, 0.0, 0.0]",,-0.522492632129,0.333846905062,-0.46081642061,"[0.0, 0.0, 0.0, 0.0, 0.0, 0.0, 0.0, 0.0, 0.0]",,-0.20614545,5.5757436,-8.3047167,"[0.0, 0.0, 0.0, 0.0, 0.0, 0.0, 0.0, 0.0, 0.0]"
1569267709811682424,,19008,,1569267709,746958971,"""knife_link""",,0.797130462565,0.538649859736,0.0877763027389,0.258330553622,"[0.0, 0.0, 0.0, 0.0, 0.0, 0.0, 0.0, 0.0, 0.0]",,-0.548672570909,0.295449661518,-0.305482117182,"[0.0, 0.0, 0.0, 0.0, 0.0, 0.0, 0.0, 0.0, 0.0]",,-0.26504415,5.6739081,-8.4814128,"[0.0, 0.0, 0.0, 0.0, 0.0, 0.0, 0.0, 0.0, 0.0]"
1569267709875580830,,19009,,1569267709,810806035,"""knife_link""",,0.788921190994,0.548089248568,0.100451821966,0.259057834214,"[0.0, 0.0, 0.0, 0.0, 0.0, 0.0, 0.0, 0.0, 0.0]",,-0.258947915077,0.368753490102,-0.246140922614,"[0.0, 0.0, 0.0, 0.0, 0.0, 0.0, 0.0, 0.0, 0.0]",,-0.2944935,5.6150094,-8.1672864,"[0.0, 0.0, 0.0, 0.0, 0.0, 0.0, 0.0, 0.0, 0.0]"
1569267709896495126,,19010,,1569267709,874382972,"""knife_link""",,0.778574339424,0.558115563878,0.11641935627,0.262250927231,"[0.0, 0.0, 0.0, 0.0, 0.0, 0.0, 0.0, 0.0, 0.0]",,-0.396828925985,0.426349355418,-0.288028824662,"[0.0, 0.0, 0.0, 0.0, 0.0, 0.0, 0.0, 0.0, 0.0]",,-0.196329,5.6346423,-7.9709574,"[0.0, 0.0, 0.0, 0.0, 0.0, 0.0, 0.0, 0.0, 0.0]"
1569267709939504498,,19011,,1569267709,895505905,"""knife_link""",,0.775154335,0.561506718843,0.121310670096,0.262925242122,"[0.0, 0.0, 0.0, 0.0, 0.0, 0.0, 0.0, 0.0, 0.0]",,-0.307817134133,0.365262831598,-0.270575532142,"[0.0, 0.0, 0.0, 0.0, 0.0, 0.0, 0.0, 0.0, 0.0]",,-0.16687965,6.07638255,-7.8335271,"[0.0, 0.0, 0.0, 0.0, 0.0, 0.0, 0.0, 0.0, 0.0]"
1569267710003211161,,19012,,1569267709,938534021,"""knife_link""",,0.769861192069,0.5666361528,0.128153644037,0.264223123148,"[0.0, 0.0, 0.0, 0.0, 0.0, 0.0, 0.0, 0.0, 0.0]",,-0.234513305549,0.267524393486,-0.226942300842,"[0.0, 0.0, 0.0, 0.0, 0.0, 0.0, 0.0, 0.0, 0.0]",,-0.14724675,6.27271155,-7.6764639,"[0.0, 0.0, 0.0, 0.0, 0.0, 0.0, 0.0, 0.0, 0.0]"
1569267710045054566,,19013,,1569267710,2264976,"""knife_link""",,0.764754070611,0.571345169544,0.135145775334,0.265427067445,"[0.0, 0.0, 0.0, 0.0, 0.0, 0.0, 0.0, 0.0, 0.0]",,-0.152482830705,0.18374858939,-0.143166496746,"[0.0, 0.0, 0.0, 0.0, 0.0, 0.0, 0.0, 0.0, 0.0]",,-0.0392658,6.66536955,-7.31325525,"[0.0, 0.0, 0.0, 0.0, 0.0, 0.0, 0.0, 0.0, 0.0]"
1569267710087789341,,19014,,1569267710,44195890,"""knife_link""",,0.762442518027,0.571328393321,0.143135578916,0.267913194408,"[0.0, 0.0, 0.0, 0.0, 0.0, 0.0, 0.0, 0.0, 0.0]",,-0.302581146377,0.206437869666,0.034857086958,"[0.0, 0.0, 0.0, 0.0, 0.0, 0.0, 0.0, 0.0, 0.0]",,-0.06871515,6.58683795,-7.11692625,"[0.0, 0.0, 0.0, 0.0, 0.0, 0.0, 0.0, 0.0, 0.0]"
1569267710151614192,,19015,,1569267710,87035894,"""knife_link""",,0.76160691423,0.57136484247,0.146707788707,0.268279611077,"[0.0, 0.0, 0.0, 0.0, 0.0, 0.0, 0.0, 0.0, 0.0]",,-0.0861603191292,0.0964821267903,0.029621099202,"[0.0, 0.0, 0.0, 0.0, 0.0, 0.0, 0.0, 0.0, 0.0]",,-0.1570632,6.5770215,-7.13655915,"[0.0, 0.0, 0.0, 0.0, 0.0, 0.0, 0.0, 0.0, 0.0]"
1569267710196312643,,19016,,1569267710,150593042,"""knife_link""",,0.76261963899,0.568993531276,0.146152499687,0.270734361374,"[0.0, 0.0, 0.0, 0.0, 0.0, 0.0, 0.0, 0.0, 0.0]",,-0.0285644538132,-0.100740078686,0.069763671998,"[0.0, 0.0, 0.0, 0.0, 0.0, 0.0, 0.0, 0.0, 0.0]",,-0.2748606,6.70463535,-7.1660085,"[0.0, 0.0, 0.0, 0.0, 0.0, 0.0, 0.0, 0.0, 0.0]"
1569267710265823095,,19017,,1569267710,193497896,"""knife_link""",,0.762685743116,0.566377450258,0.147851367889,0.275076378666,"[0.0, 0.0, 0.0, 0.0, 0.0, 0.0, 0.0, 0.0, 0.0]",,-0.185644086493,-0.116448041954,0.104670257038,"[0.0, 0.0, 0.0, 0.0, 0.0, 0.0, 0.0, 0.0, 0.0]",,-0.3141264,6.478857,-6.9696795,"[0.0, 0.0, 0.0, 0.0, 0.0, 0.0, 0.0, 0.0, 0.0]"
1569267710300300345,,19018,,1569267710,262506008,"""knife_link""",,0.756363335123,0.563358352292,0.156970192233,0.293090823697,"[0.0, 0.0, 0.0, 0.0, 0.0, 0.0, 0.0, 0.0, 0.0]",,-0.595796460713,-0.114702712702,-0.03321075387,"[0.0, 0.0, 0.0, 0.0, 0.0, 0.0, 0.0, 0.0, 0.0]",,0.00981645,6.46904055,-6.7340847,"[0.0, 0.0, 0.0, 0.0, 0.0, 0.0, 0.0, 0.0, 0.0]"
1569267710343488712,,19019,,1569267710,299482107,"""knife_link""",,0.747933739881,0.563450696339,0.162442724964,0.311015746626,"[0.0, 0.0, 0.0, 0.0, 0.0, 0.0, 0.0, 0.0, 0.0]",,-1.00594883493,-0.318906235186,-0.322935409702,"[0.0, 0.0, 0.0, 0.0, 0.0, 0.0, 0.0, 0.0, 0.0]",,0.8245818,7.19545785,-7.09729335,"[0.0, 0.0, 0.0, 0.0, 0.0, 0.0, 0.0, 0.0, 0.0]"
1569267710386406929,,19020,,1569267710,342170953,"""knife_link""",,0.729922092928,0.562269349049,0.179964223304,0.344499340648,"[0.0, 0.0, 0.0, 0.0, 0.0, 0.0, 0.0, 0.0, 0.0]",,-1.87861346093,-0.20022384605,-0.429400494074,"[0.0, 0.0, 0.0, 0.0, 0.0, 0.0, 0.0, 0.0, 0.0]",,0.1766961,8.33416605,-6.6162873,"[0.0, 0.0, 0.0, 0.0, 0.0, 0.0, 0.0, 0.0, 0.0]"
1569267710448860974,,19021,,1569267710,384222030,"""knife_link""",,0.693189047797,0.555627262863,0.221273115967,0.402250539996,"[0.0, 0.0, 0.0, 0.0, 0.0, 0.0, 0.0, 0.0, 0.0]",,-3.74960641908,0.0580848832463,-0.562045517226,"[0.0, 0.0, 0.0, 0.0, 0.0, 0.0, 0.0, 0.0, 0.0]",,-0.73623375,9.2863617,-5.2616172,"[0.0, 0.0, 0.0, 0.0, 0.0, 0.0, 0.0, 0.0, 0.0]"
1569267710491900224,,19022,,1569267710,448019027,"""knife_link""",,0.596654541424,0.532292674575,0.319605342215,0.508448907975,"[0.0, 0.0, 0.0, 0.0, 0.0, 0.0, 0.0, 0.0, 0.0]",,-5.47748237856,0.658478145934,-0.680727906362,"[0.0, 0.0, 0.0, 0.0, 0.0, 0.0, 0.0, 0.0, 0.0]",,-1.22705625,10.7195634,-2.64062505,"[0.0, 0.0, 0.0, 0.0, 0.0, 0.0, 0.0, 0.0, 0.0]"
1569267710534256505,,19023,,1569267710,490597963,"""knife_link""",,0.544061629301,0.521068485814,0.365173696574,0.546930295325,"[0.0, 0.0, 0.0, 0.0, 0.0, 0.0, 0.0, 0.0, 0.0]",,-3.65535863947,0.833011071134,-0.49572300565,"[0.0, 0.0, 0.0, 0.0, 0.0, 0.0, 0.0, 0.0, 0.0]",,-1.48228395,9.6986526,-1.42338525,"[0.0, 0.0, 0.0, 0.0, 0.0, 0.0, 0.0, 0.0, 0.0]"
1569267710597821378,,19024,,1569267710,533061981,"""knife_link""",,0.511113529431,0.513059520106,0.387849935875,0.570180073401,"[0.0, 0.0, 0.0, 0.0, 0.0, 0.0, 0.0, 0.0, 0.0]",,-2.14041284873,0.377480136362,-0.415437860058,"[0.0, 0.0, 0.0, 0.0, 0.0, 0.0, 0.0, 0.0, 0.0]",,-2.01237225,9.45324135,-0.40247445,"[0.0, 0.0, 0.0, 0.0, 0.0, 0.0, 0.0, 0.0, 0.0]"
1569267710640317956,,19025,,1569267710,596712112,"""knife_link""",,0.492911430593,0.506161933301,0.389285073053,0.591012310164,"[0.0, 0.0, 0.0, 0.0, 0.0, 0.0, 0.0, 0.0, 0.0]",,-0.772074715165,-0.212441150814,-0.403220555294,"[0.0, 0.0, 0.0, 0.0, 0.0, 0.0, 0.0, 0.0, 0.0]",,-2.38539735,8.76608985,-0.1766961,"[0.0, 0.0, 0.0, 0.0, 0.0, 0.0, 0.0, 0.0, 0.0]"
1569267710705302337,,19026,,1569267710,639457941,"""knife_link""",,0.484301484388,0.508683053604,0.384890527307,0.598792873359,"[0.0, 0.0, 0.0, 0.0, 0.0, 0.0, 0.0, 0.0, 0.0]",,-0.264183902833,-0.0536161888817,-0.51317629817,"[0.0, 0.0, 0.0, 0.0, 0.0, 0.0, 0.0, 0.0, 0.0]",,-2.67989085,8.98205175,0.30430995,"[0.0, 0.0, 0.0, 0.0, 0.0, 0.0, 0.0, 0.0, 0.0]"
1569267710747465188,,19027,,1569267710,704044103,"""knife_link""",,0.479406095919,0.511700940214,0.379528250907,0.60356461936,"[0.0, 0.0, 0.0, 0.0, 0.0, 0.0, 0.0, 0.0, 0.0]",,-0.0372911000732,-0.0379082256137,-0.270575532142,"[0.0, 0.0, 0.0, 0.0, 0.0, 0.0, 0.0, 0.0, 0.0]",,-2.944935,9.2470959,0.4908225,"[0.0, 0.0, 0.0, 0.0, 0.0, 0.0, 0.0, 0.0, 0.0]"
1569267710791619418,,19028,,1569267710,745743989,"""knife_link""",,0.481072576518,0.512815683677,0.374110943596,0.604673674455,"[0.0, 0.0, 0.0, 0.0, 0.0, 0.0, 0.0, 0.0, 0.0]",,0.200073678199,-0.140882651482,-0.14665715525,"[0.0, 0.0, 0.0, 0.0, 0.0, 0.0, 0.0, 0.0, 0.0]",,-3.0430995,9.02131755,1.1190753,"[0.0, 0.0, 0.0, 0.0, 0.0, 0.0, 0.0, 0.0, 0.0]"
1569267710857170466,,19029,,1569267710,788327932,"""knife_link""",,0.479015740984,0.513192612429,0.369177163971,0.609003681467,"[0.0, 0.0, 0.0, 0.0, 0.0, 0.0, 0.0, 0.0, 0.0]",,-0.0111111612932,-0.161826602506,-0.26883020289,"[0.0, 0.0, 0.0, 0.0, 0.0, 0.0, 0.0, 0.0, 0.0]",,-2.66025795,8.6777418,0.93256275,"[0.0, 0.0, 0.0, 0.0, 0.0, 0.0, 0.0, 0.0, 0.0]"
1569267710895576911,,19030,,1569267710,852081060,"""knife_link""",,0.482829430215,0.511120535721,0.355491064035,0.61583897463,"[0.0, 0.0, 0.0, 0.0, 0.0, 0.0, 0.0, 0.0, 0.0]",,0.182620385679,-0.399191380778,-0.247886251866,"[0.0, 0.0, 0.0, 0.0, 0.0, 0.0, 0.0, 0.0, 0.0]",,-2.73878955,9.1489314,1.05036015,"[0.0, 0.0, 0.0, 0.0, 0.0, 0.0, 0.0, 0.0, 0.0]"
1569267710937321187,,19031,,1569267710,894718885,"""knife_link""",,0.477917034265,0.512209543094,0.362864867401,0.614463815313,"[0.0, 0.0, 0.0, 0.0, 0.0, 0.0, 0.0, 0.0, 0.0]",,-0.255457256573,0.316393612542,0.08023564751,"[0.0, 0.0, 0.0, 0.0, 0.0, 0.0, 0.0, 0.0, 0.0]",,-2.4148467,10.2680067,0.83439825,"[0.0, 0.0, 0.0, 0.0, 0.0, 0.0, 0.0, 0.0, 0.0]"
1569267711001811701,,19032,,1569267710,936557054,"""knife_link""",,0.476744797496,0.513679300872,0.366201551081,0.612163701882,"[0.0, 0.0, 0.0, 0.0, 0.0, 0.0, 0.0, 0.0, 0.0]",,-0.0215831368052,0.20120188191,0.061037025738,"[0.0, 0.0, 0.0, 0.0, 0.0, 0.0, 0.0, 0.0, 0.0]",,-2.1792519,9.6004881,0.8834805,"[0.0, 0.0, 0.0, 0.0, 0.0, 0.0, 0.0, 0.0, 0.0]"
1569267711043788986,,19033,,1569267711,319957,"""knife_link""",,0.473603769797,0.516105881837,0.371895572093,0.609120572157,"[0.0, 0.0, 0.0, 0.0, 0.0, 0.0, 0.0, 0.0, 0.0]",,-0.0704523558612,0.222145832934,0.050565050226,"[0.0, 0.0, 0.0, 0.0, 0.0, 0.0, 0.0, 0.0, 0.0]",,-2.26759995,9.3845262,0.75586665,"[0.0, 0.0, 0.0, 0.0, 0.0, 0.0, 0.0, 0.0, 0.0]"
1569267711086183233,,19034,,1569267711,43174028,"""knife_link""",,0.473866409808,0.518861289606,0.373509894566,0.605577366209,"[0.0, 0.0, 0.0, 0.0, 0.0, 0.0, 0.0, 0.0, 0.0]",,0.104080569339,0.202947211162,0.043583733218,"[0.0, 0.0, 0.0, 0.0, 0.0, 0.0, 0.0, 0.0, 0.0]",,-2.30686575,9.4826907,0.588987,"[0.0, 0.0, 0.0, 0.0, 0.0, 0.0, 0.0, 0.0, 0.0]"
1569267711150191546,,19035,,1569267711,85411071,"""knife_link""",,0.472148680087,0.520637180475,0.376177276465,0.603741009764,"[0.0, 0.0, 0.0, 0.0, 0.0, 0.0, 0.0, 0.0, 0.0]",,-0.0355457708212,0.195965894154,0.01914912369,"[0.0, 0.0, 0.0, 0.0, 0.0, 0.0, 0.0, 0.0, 0.0]",,-2.3755809,9.53177295,0.4908225,"[0.0, 0.0, 0.0, 0.0, 0.0, 0.0, 0.0, 0.0, 0.0]"
1569267711193565116,,19036,,1569267711,149435997,"""knife_link""",,0.469781278278,0.52264539716,0.379391023074,0.601838675242,"[0.0, 0.0, 0.0, 0.0, 0.0, 0.0, 0.0, 0.0, 0.0]",,-0.0390364293252,0.152332662854,0.012167806682,"[0.0, 0.0, 0.0, 0.0, 0.0, 0.0, 0.0, 0.0, 0.0]",,-2.44429605,9.227463,0.61843635,"[0.0, 0.0, 0.0, 0.0, 0.0, 0.0, 0.0, 0.0, 0.0]"
1569267711235121845,,19037,,1569267711,192142009,"""knife_link""",,0.468162389407,0.523547679311,0.382154699469,0.600566058237,"[0.0, 0.0, 0.0, 0.0, 0.0, 0.0, 0.0, 0.0, 0.0]",,-0.0564897218452,0.161059309114,0.033111757706,"[0.0, 0.0, 0.0, 0.0, 0.0, 0.0, 0.0, 0.0, 0.0]",,-2.3166822,9.4434249,0.8049489,"[0.0, 0.0, 0.0, 0.0, 0.0, 0.0, 0.0, 0.0, 0.0]"
1569267711305515624,,19038,,1569267711,234256982,"""knife_link""",,0.469293672707,0.525694975989,0.382593135688,0.597520487934,"[0.0, 0.0, 0.0, 0.0, 0.0, 0.0, 0.0, 0.0, 0.0]",,0.132005837371,0.14011535809,0.038347745462,"[0.0, 0.0, 0.0, 0.0, 0.0, 0.0, 0.0, 0.0, 0.0]",,-2.2774164,9.6790197,0.38284155,"[0.0, 0.0, 0.0, 0.0, 0.0, 0.0, 0.0, 0.0, 0.0]"
1569267711341406771,,19039,,1569267711,304817914,"""knife_link""",,0.469826625573,0.527683462048,0.384963000386,0.593815286194,"[0.0, 0.0, 0.0, 0.0, 0.0, 0.0, 0.0, 0.0, 0.0]",,0.0517206917788,0.124407394822,0.06278235499,"[0.0, 0.0, 0.0, 0.0, 0.0, 0.0, 0.0, 0.0, 0.0]",,-2.77805535,9.84589935,0.69696795,"[0.0, 0.0, 0.0, 0.0, 0.0, 0.0, 0.0, 0.0, 0.0]"
1569267711383829265,,19040,,1569267711,340445041,"""knife_link""",,0.471025320192,0.529168903661,0.394533542484,0.585199712057,"[0.0, 0.0, 0.0, 0.0, 0.0, 0.0, 0.0, 0.0, 0.0]",,0.0237954237468,0.555503720066,0.50784131425,"[0.0, 0.0, 0.0, 0.0, 0.0, 0.0, 0.0, 0.0, 0.0]",,-2.8075047,10.0324119,0.4711896,"[0.0, 0.0, 0.0, 0.0, 0.0, 0.0, 0.0, 0.0, 0.0]"
1569267711447870719,,19041,,1569267711,383037090,"""knife_link""",,0.472341954378,0.532899608692,0.4093677409,0.570376312535,"[0.0, 0.0, 0.0, 0.0, 0.0, 0.0, 0.0, 0.0, 0.0]",,0.0779006305588,0.80334047385,0.642231666654,"[0.0, 0.0, 0.0, 0.0, 0.0, 0.0, 0.0, 0.0, 0.0]",,-2.6504415,9.72810195,0.6871515,"[0.0, 0.0, 0.0, 0.0, 0.0, 0.0, 0.0, 0.0, 0.0]"
1569267711489896417,,19042,,1569267711,446830987,"""knife_link""",,0.472908581579,0.535580186143,0.43351790941,0.549157135892,"[0.0, 0.0, 0.0, 0.0, 0.0, 0.0, 0.0, 0.0, 0.0]",,-0.0338004415692,0.780651193574,0.68237423945,"[0.0, 0.0, 0.0, 0.0, 0.0, 0.0, 0.0, 0.0, 0.0]",,-2.22833415,9.2863617,0.7656831,"[0.0, 0.0, 0.0, 0.0, 0.0, 0.0, 0.0, 0.0, 0.0]"
1569267711553849863,,19043,,1569267711,488996028,"""knife_link""",,0.474577182076,0.534795660689,0.446906942113,0.537628388994,"[0.0, 0.0, 0.0, 0.0, 0.0, 0.0, 0.0, 0.0, 0.0]",,-0.0407817585772,0.581683658846,0.650958312914,"[0.0, 0.0, 0.0, 0.0, 0.0, 0.0, 0.0, 0.0, 0.0]",,-1.6687965,9.31581105,0.588987,"[0.0, 0.0, 0.0, 0.0, 0.0, 0.0, 0.0, 0.0, 0.0]"
1569267711596018907,,19044,,1569267711,552928924,"""knife_link""",,0.478057961157,0.53957449382,0.461177687134,0.517334603795,"[0.0, 0.0, 0.0, 0.0, 0.0, 0.0, 0.0, 0.0, 0.0]",,0.191347031939,0.616590243886,0.513077302006,"[0.0, 0.0, 0.0, 0.0, 0.0, 0.0, 0.0, 0.0, 0.0]",,-1.2172398,8.56976085,0.1766961,"[0.0, 0.0, 0.0, 0.0, 0.0, 0.0, 0.0, 0.0, 0.0]"
1569267711638690478,,19045,,1569267711,595271110,"""knife_link""",,0.481285844376,0.534177714904,0.475631297777,0.506747445458,"[0.0, 0.0, 0.0, 0.0, 0.0, 0.0, 0.0, 0.0, 0.0]",,-0.178662769485,0.44554797719,0.780112677562,"[0.0, 0.0, 0.0, 0.0, 0.0, 0.0, 0.0, 0.0, 0.0]",,-0.2552277,8.29490025,-0.6675186,"[0.0, 0.0, 0.0, 0.0, 0.0, 0.0, 0.0, 0.0, 0.0]"
1569267711702893228,,19046,,1569267711,638056039,"""knife_link""",,0.525691574581,0.523575271517,0.477565919043,0.470582720081,"[0.0, 0.0, 0.0, 0.0, 0.0, 0.0, 0.0, 0.0, 0.0]",,1.58761043354,-0.245602406602,2.18335739617,"[0.0, 0.0, 0.0, 0.0, 0.0, 0.0, 0.0, 0.0, 0.0]",,0.6282528,8.86425435,-0.7067844,"[0.0, 0.0, 0.0, 0.0, 0.0, 0.0, 0.0, 0.0, 0.0]"
1569267711745402669,,19047,,1569267711,701805114,"""knife_link""",,0.594884630842,0.510758463811,0.463511956969,0.412788969547,"[0.0, 0.0, 0.0, 0.0, 0.0, 0.0, 0.0, 0.0, 0.0]",,2.02394274654,-0.484712514126,2.01056980022,"[0.0, 0.0, 0.0, 0.0, 0.0, 0.0, 0.0, 0.0, 0.0]",,2.38539735,14.6068776,-0.46137315,"[0.0, 0.0, 0.0, 0.0, 0.0, 0.0, 0.0, 0.0, 0.0]"
1569267711794698843,,19048,,1569267711,744280099,"""knife_link""",,0.606143411119,0.53240972077,0.431358878048,0.403806355467,"[0.0, 0.0, 0.0, 0.0, 0.0, 0.0, 0.0, 0.0, 0.0]",,1.73421809071,-0.482967184874,-0.77497568597,"[0.0, 0.0, 0.0, 0.0, 0.0, 0.0, 0.0, 0.0, 0.0]",,1.2957714,11.1122214,-1.96329,"[0.0, 0.0, 0.0, 0.0, 0.0, 0.0, 0.0, 0.0, 0.0]"
1569267711850995431,,19049,,1569267711,793634891,"""knife_link""",,0.577825255998,0.533458482799,0.433961227856,0.439565323221,"[0.0, 0.0, 0.0, 0.0, 0.0, 0.0, 0.0, 0.0, 0.0]",,-1.37944929486,-0.172298578018,-1.22701596224,"[0.0, 0.0, 0.0, 0.0, 0.0, 0.0, 0.0, 0.0, 0.0]",,1.26632205,6.84206565,-1.32522075,"[0.0, 0.0, 0.0, 0.0, 0.0, 0.0, 0.0, 0.0, 0.0]"
1569267711898819431,,19050,,1569267711,850213050,"""knife_link""",,0.577178391042,0.531167493325,0.433998877391,0.443137871743,"[0.0, 0.0, 0.0, 0.0, 0.0, 0.0, 0.0, 0.0, 0.0]",,-0.131538879681,-0.0763054691577,-0.054154704894,"[0.0, 0.0, 0.0, 0.0, 0.0, 0.0, 0.0, 0.0, 0.0]",,1.89457485,9.031134,-2.8860363,"[0.0, 0.0, 0.0, 0.0, 0.0, 0.0, 0.0, 0.0, 0.0]"
1569267711936505389,,19051,,1569267711,893649101,"""knife_link""",,0.582100689745,0.530523991977,0.42725823266,0.444019688257,"[0.0, 0.0, 0.0, 0.0, 0.0, 0.0, 0.0, 0.0, 0.0]",,0.217526970719,-0.294471625658,-0.061136021902,"[0.0, 0.0, 0.0, 0.0, 0.0, 0.0, 0.0, 0.0, 0.0]",,1.8454926,9.1881972,-2.81732115,"[0.0, 0.0, 0.0, 0.0, 0.0, 0.0, 0.0, 0.0, 0.0]"
1569267712000207943,,19052,,1569267711,935775995,"""knife_link""",,0.586484292876,0.527749968135,0.420164510261,0.448305620823,"[0.0, 0.0, 0.0, 0.0, 0.0, 0.0, 0.0, 0.0, 0.0]",,0.0796459598108,-0.439333953574,-0.092551948438,"[0.0, 0.0, 0.0, 0.0, 0.0, 0.0, 0.0, 0.0, 0.0]",,1.81604325,9.39434265,-3.13144755,"[0.0, 0.0, 0.0, 0.0, 0.0, 0.0, 0.0, 0.0, 0.0]"
1569267712111387377,,19053,,1569267711,999207973,"""knife_link""",,0.593343301596,0.518274811406,0.416308000357,0.453897119568,"[0.0, 0.0, 0.0, 0.0, 0.0, 0.0, 0.0, 0.0, 0.0]",,-0.0756883436172,-0.38348341751,0.136086183574,"[0.0, 0.0, 0.0, 0.0, 0.0, 0.0, 0.0, 0.0, 0.0]",,1.58044845,9.09984915,-2.7878718,"[0.0, 0.0, 0.0, 0.0, 0.0, 0.0, 0.0, 0.0, 0.0]"
1569267712111399966,,19054,,1569267712,105829954,"""knife_link""",,0.602245224716,0.491202471319,0.419351053725,0.469217982622,"[0.0, 0.0, 0.0, 0.0, 0.0, 0.0, 0.0, 0.0, 0.0]",,-0.344469048425,-0.414899344046,0.284439169994,"[0.0, 0.0, 0.0, 0.0, 0.0, 0.0, 0.0, 0.0, 0.0]",,1.374303,9.1881972,-2.8860363,"[0.0, 0.0, 0.0, 0.0, 0.0, 0.0, 0.0, 0.0, 0.0]"
1569267712149147748,,19055,,1569267712,107939004,"""knife_link""",,0.602747287009,0.490091371889,0.41937841986,0.469710438631,"[0.0, 0.0, 0.0, 0.0, 0.0, 0.0, 0.0, 0.0, 0.0]",,-0.637684362761,-0.908827522362,0.26349521897,"[0.0, 0.0, 0.0, 0.0, 0.0, 0.0, 0.0, 0.0, 0.0]",,1.28595495,9.47287425,-2.2774164,"[0.0, 0.0, 0.0, 0.0, 0.0, 0.0, 0.0, 0.0, 0.0]"
1569267712193784336,,19056,,1569267712,148148059,"""knife_link""",,0.608138989884,0.471259415712,0.410832442505,0.489181189612,"[0.0, 0.0, 0.0, 0.0, 0.0, 0.0, 0.0, 0.0, 0.0]",,-0.644665679769,-1.29629061631,0.081980976762,"[0.0, 0.0, 0.0, 0.0, 0.0, 0.0, 0.0, 0.0, 0.0]",,0.8049489,9.80663355,-1.91420775,"[0.0, 0.0, 0.0, 0.0, 0.0, 0.0, 0.0, 0.0, 0.0]"
1569267712246217113,,19057,,1569267712,192384958,"""knife_link""",,0.609653287316,0.44415574551,0.397136910811,0.522810498236,"[0.0, 0.0, 0.0, 0.0, 0.0, 0.0, 0.0, 0.0, 0.0]",,-1.10717793155,-1.75531220958,-0.162365118518,"[0.0, 0.0, 0.0, 0.0, 0.0, 0.0, 0.0, 0.0, 0.0]",,0.97182855,10.08149415,-1.54118265,"[0.0, 0.0, 0.0, 0.0, 0.0, 0.0, 0.0, 0.0, 0.0]"
1569267712298138433,,19058,,1569267712,242664098,"""knife_link""",,0.623140160095,0.413755574272,0.365290341347,0.554135030615,"[0.0, 0.0, 0.0, 0.0, 0.0, 0.0, 0.0, 0.0, 0.0]",,-0.395083596733,-2.22655110762,-0.197271703558,"[0.0, 0.0, 0.0, 0.0, 0.0, 0.0, 0.0, 0.0, 0.0]",,1.0798095,10.0520448,-1.12889175,"[0.0, 0.0, 0.0, 0.0, 0.0, 0.0, 0.0, 0.0, 0.0]"
1569267712340359435,,19059,,1569267712,296859025,"""knife_link""",,0.640473487001,0.381748915158,0.322186152796,0.583316004556,"[0.0, 0.0, 0.0, 0.0, 0.0, 0.0, 0.0, 0.0, 0.0]",,-0.0756883436172,-2.40457469133,-0.296755470922,"[0.0, 0.0, 0.0, 0.0, 0.0, 0.0, 0.0, 0.0, 0.0]",,1.3546701,9.94406385,-0.52027185,"[0.0, 0.0, 0.0, 0.0, 0.0, 0.0, 0.0, 0.0, 0.0]"
1569267712382956116,,19060,,1569267712,339381933,"""knife_link""",,0.652144958651,0.362742186208,0.287148237869,0.600558863676,"[0.0, 0.0, 0.0, 0.0, 0.0, 0.0, 0.0, 0.0, 0.0]",,0.177384397923,-2.18117254707,-0.45208977435,"[0.0, 0.0, 0.0, 0.0, 0.0, 0.0, 0.0, 0.0, 0.0]",,0.44174025,9.5219565,0.06871515,"[0.0, 0.0, 0.0, 0.0, 0.0, 0.0, 0.0, 0.0, 0.0]"
1569267712448593870,,19061,,1569267712,381759881,"""knife_link""",,0.664443511131,0.343276848849,0.253160999157,0.613665490366,"[0.0, 0.0, 0.0, 0.0, 0.0, 0.0, 0.0, 0.0, 0.0]",,0.322246725839,-2.12706734026,-0.342134031474,"[0.0, 0.0, 0.0, 0.0, 0.0, 0.0, 0.0, 0.0, 0.0]",,0.3533922,9.8949816,0.79513245,"[0.0, 0.0, 0.0, 0.0, 0.0, 0.0, 0.0, 0.0, 0.0]"
1569267712489226837,,19062,,1569267712,447560071,"""knife_link""",,0.674865119554,0.311967769899,0.206939109808,0.635931903418,"[0.0, 0.0, 0.0, 0.0, 0.0, 0.0, 0.0, 0.0, 0.0]",,0.0377580577628,-1.93857178104,-0.300246129426,"[0.0, 0.0, 0.0, 0.0, 0.0, 0.0, 0.0, 0.0, 0.0]",,0.24541125,9.5023236,1.4528346,"[0.0, 0.0, 0.0, 0.0, 0.0, 0.0, 0.0, 0.0, 0.0]"
1569267712574092187,,19063,,1569267712,487956047,"""knife_link""",,0.676873188776,0.296142273384,0.18313321015,0.648540413214,"[0.0, 0.0, 0.0, 0.0, 0.0, 0.0, 0.0, 0.0, 0.0]",,-0.0756883436172,-1.69597101501,-0.322935409702,"[0.0, 0.0, 0.0, 0.0, 0.0, 0.0, 0.0, 0.0, 0.0]",,-0.36320865,9.5612223,1.10925885,"[0.0, 0.0, 0.0, 0.0, 0.0, 0.0, 0.0, 0.0, 0.0]"
1569267712597682057,,19064,,1569267712,573106050,"""knife_link""",,0.68116513746,0.266483986791,0.128974982418,0.669601220282,"[0.0, 0.0, 0.0, 0.0, 0.0, 0.0, 0.0, 0.0, 0.0]",,0.0133234482348,-1.58426994289,-0.411947201554,"[0.0, 0.0, 0.0, 0.0, 0.0, 0.0, 0.0, 0.0, 0.0]",,-1.2761385,10.02259545,0.6871515,"[0.0, 0.0, 0.0, 0.0, 0.0, 0.0, 0.0, 0.0, 0.0]"
1569267712637978470,,19065,,1569267712,596271991,"""knife_link""",,0.682427388581,0.261522675584,0.121858597306,0.671601989077,"[0.0, 0.0, 0.0, 0.0, 0.0, 0.0, 0.0, 0.0, 0.0]",,0.194837690443,-1.14270164213,-0.066372009658,"[0.0, 0.0, 0.0, 0.0, 0.0, 0.0, 0.0, 0.0, 0.0]",,-2.24796705,9.66920325,0.6871515,"[0.0, 0.0, 0.0, 0.0, 0.0, 0.0, 0.0, 0.0, 0.0]"
1569267712701476289,,19066,,1569267712,636641979,"""knife_link""",,0.679582068778,0.261361511055,0.125912799149,0.673798441186,"[0.0, 0.0, 0.0, 0.0, 0.0, 0.0, 0.0, 0.0, 0.0]",,-0.148992172201,-0.0972494201817,0.116887561802,"[0.0, 0.0, 0.0, 0.0, 0.0, 0.0, 0.0, 0.0, 0.0]",,-2.20870125,9.423792,0.6675186,"[0.0, 0.0, 0.0, 0.0, 0.0, 0.0, 0.0, 0.0, 0.0]"
1569267712745316512,,19067,,1569267712,700345993,"""knife_link""",,0.6732455795,0.277498019834,0.159485663131,0.666557995922,"[0.0, 0.0, 0.0, 0.0, 0.0, 0.0, 0.0, 0.0, 0.0]",,-0.145501513697,1.01627064259,0.35948832783,"[0.0, 0.0, 0.0, 0.0, 0.0, 0.0, 0.0, 0.0, 0.0]",,-2.0614545,9.41397555,0.85403115,"[0.0, 0.0, 0.0, 0.0, 0.0, 0.0, 0.0, 0.0, 0.0]"
1569267712786942536,,19068,,1569267712,743962049,"""knife_link""",,0.660426992217,0.28997786173,0.203430082919,0.662091556374,"[0.0, 0.0, 0.0, 0.0, 0.0, 0.0, 0.0, 0.0, 0.0]",,-0.665609630793,1.7213836604,0.858652493902,"[0.0, 0.0, 0.0, 0.0, 0.0, 0.0, 0.0, 0.0, 0.0]",,-2.0810874,9.59067165,0.99146145,"[0.0, 0.0, 0.0, 0.0, 0.0, 0.0, 0.0, 0.0, 0.0]"
1569267712851204262,,19069,,1569267712,785446882,"""knife_link""",,0.648560325443,0.299703813001,0.242919315907,0.656153438377,"[0.0, 0.0, 0.0, 0.0, 0.0, 0.0, 0.0, 0.0, 0.0]",,-0.611504423981,1.60270127127,0.86563381091,"[0.0, 0.0, 0.0, 0.0, 0.0, 0.0, 0.0, 0.0, 0.0]",,-1.46265105,9.7575513,0.5497212,"[0.0, 0.0, 0.0, 0.0, 0.0, 0.0, 0.0, 0.0, 0.0]"
1569267712892971467,,19070,,1569267712,849761009,"""knife_link""",,0.640718521578,0.309513679529,0.290104089809,0.63993802463,"[0.0, 0.0, 0.0, 0.0, 0.0, 0.0, 0.0, 0.0, 0.0]",,-0.190880074249,1.26934338413,0.837708542878,"[0.0, 0.0, 0.0, 0.0, 0.0, 0.0, 0.0, 0.0, 0.0]",,-1.52154975,9.62993745,0.0196329,"[0.0, 0.0, 0.0, 0.0, 0.0, 0.0, 0.0, 0.0, 0.0]"
1569267712935259087,,19071,,1569267712,891419887,"""knife_link""",,0.632295876942,0.320590983456,0.315771245292,0.630644008911,"[0.0, 0.0, 0.0, 0.0, 0.0, 0.0, 0.0, 0.0, 0.0]",,-0.190880074249,1.25363542087,0.465953412202,"[0.0, 0.0, 0.0, 0.0, 0.0, 0.0, 0.0, 0.0, 0.0]",,-0.5497212,9.61030455,0.22577835,"[0.0, 0.0, 0.0, 0.0, 0.0, 0.0, 0.0, 0.0, 0.0]"
1569267712999124324,,19072,,1569267712,934494018,"""knife_link""",,0.630512410151,0.341820601721,0.330102114982,0.613714404726,"[0.0, 0.0, 0.0, 0.0, 0.0, 0.0, 0.0, 0.0, 0.0]",,0.561356833363,1.20651153106,0.013913135934,"[0.0, 0.0, 0.0, 0.0, 0.0, 0.0, 0.0, 0.0, 0.0]",,0.20614545,9.9931461,0.48100605,"[0.0, 0.0, 0.0, 0.0, 0.0, 0.0, 0.0, 0.0, 0.0]"
1569267713042480927,,19073,,1569267712,998039007,"""knife_link""",,0.601053516343,0.373488501932,0.359783959115,0.608108964068,"[0.0, 0.0, 0.0, 0.0, 0.0, 0.0, 0.0, 0.0, 0.0]",,-0.424754194017,1.50845349166,-0.322935409702,"[0.0, 0.0, 0.0, 0.0, 0.0, 0.0, 0.0, 0.0, 0.0]",,0.3337593,10.39562055,1.54118265,"[0.0, 0.0, 0.0, 0.0, 0.0, 0.0, 0.0, 0.0, 0.0]"
1569267713083563675,,19074,,1569267713,40728092,"""knife_link""",,0.57086466022,0.403990207637,0.381229474072,0.604623469561,"[0.0, 0.0, 0.0, 0.0, 0.0, 0.0, 0.0, 0.0, 0.0]",,-0.606268436225,1.98143771895,-0.743559759434,"[0.0, 0.0, 0.0, 0.0, 0.0, 0.0, 0.0, 0.0, 0.0]",,1.08962595,10.9747911,1.36448655,"[0.0, 0.0, 0.0, 0.0, 0.0, 0.0, 0.0, 0.0, 0.0]"
1569267713147854582,,19075,,1569267713,82899093,"""knife_link""",,0.532398577483,0.437023126524,0.396430664609,0.606963977295,"[0.0, 0.0, 0.0, 0.0, 0.0, 0.0, 0.0, 0.0, 0.0]",,-0.838397226741,1.97794706045,-1.29682913232,"[0.0, 0.0, 0.0, 0.0, 0.0, 0.0, 0.0, 0.0, 0.0]",,1.26632205,10.209108,1.4921004,"[0.0, 0.0, 0.0, 0.0, 0.0, 0.0, 0.0, 0.0, 0.0]"
1569267713192191197,,19076,,1569267713,146898031,"""knife_link""",,0.463010023972,0.476342728321,0.42192212169,0.617009761759,"[0.0, 0.0, 0.0, 0.0, 0.0, 0.0, 0.0, 0.0, 0.0]",,-1.34977869758,1.89940724411,-1.25668655952,"[0.0, 0.0, 0.0, 0.0, 0.0, 0.0, 0.0, 0.0, 0.0]",,0.30430995,8.03967255,0.93256275,"[0.0, 0.0, 0.0, 0.0, 0.0, 0.0, 0.0, 0.0, 0.0]"
1569267713232770537,,19077,,1569267713,190924882,"""knife_link""",,0.445613920271,0.475258667983,0.44717409327,0.612856233448,"[0.0, 0.0, 0.0, 0.0, 0.0, 0.0, 0.0, 0.0, 0.0]",,-0.939626323357,0.95169346027,0.392649583618,"[0.0, 0.0, 0.0, 0.0, 0.0, 0.0, 0.0, 0.0, 0.0]",,0.0785316,9.3452604,2.85658695,"[0.0, 0.0, 0.0, 0.0, 0.0, 0.0, 0.0, 0.0, 0.0]"
1569267713303452237,,19078,,1569267713,231877088,"""knife_link""",,0.466787787294,0.484665419213,0.445826948434,0.590293931107,"[0.0, 0.0, 0.0, 0.0, 0.0, 0.0, 0.0, 0.0, 0.0]",,1.36246296003,0.335592234314,0.712044836734,"[0.0, 0.0, 0.0, 0.0, 0.0, 0.0, 0.0, 0.0, 0.0]",,0.53990475,11.0925885,1.34485365,"[0.0, 0.0, 0.0, 0.0, 0.0, 0.0, 0.0, 0.0, 0.0]"
1569267713338732014,,19079,,1569267713,302350997,"""knife_link""",,0.465654970938,0.499592658761,0.427289902045,0.592449122679,"[0.0, 0.0, 0.0, 0.0, 0.0, 0.0, 0.0, 0.0, 0.0]",,0.419985163951,0.00397967643427,-0.577753480494,"[0.0, 0.0, 0.0, 0.0, 0.0, 0.0, 0.0, 0.0, 0.0]",,0.0,9.70846905,2.42466315,"[0.0, 0.0, 0.0, 0.0, 0.0, 0.0, 0.0, 0.0, 0.0]"
1569267713404012783,,19080,,1569267713,337838888,"""knife_link""",,0.458565114395,0.501218523091,0.429151486134,0.595253752546,"[0.0, 0.0, 0.0, 0.0, 0.0, 0.0, 0.0, 0.0, 0.0]",,-0.309562463385,0.223891162186,-0.298500800174,"[0.0, 0.0, 0.0, 0.0, 0.0, 0.0, 0.0, 0.0, 0.0]",,-0.16687965,8.8740708,1.2957714,"[0.0, 0.0, 0.0, 0.0, 0.0, 0.0, 0.0, 0.0, 0.0]"
1569267713467118991,,19081,,1569267713,402251005,"""knife_link""",,0.445263688653,0.511156287106,0.434638739536,0.59291539347,"[0.0, 0.0, 0.0, 0.0, 0.0, 0.0, 0.0, 0.0, 0.0]",,-0.154228159957,0.496162525498,-0.23392361785,"[0.0, 0.0, 0.0, 0.0, 0.0, 0.0, 0.0, 0.0, 0.0]",,-0.93256275,9.4630578,1.73751165,"[0.0, 0.0, 0.0, 0.0, 0.0, 0.0, 0.0, 0.0, 0.0]"
1569267713488127936,,19082,,1569267713,465540885,"""knife_link""",,0.428831692999,0.518975074218,0.451726198109,0.585415829442,"[0.0, 0.0, 0.0, 0.0, 0.0, 0.0, 0.0, 0.0, 0.0]",,-0.374139645709,0.75970724255,0.050565050226,"[0.0, 0.0, 0.0, 0.0, 0.0, 0.0, 0.0, 0.0, 0.0]",,-2.09090385,9.0507669,1.03072725,"[0.0, 0.0, 0.0, 0.0, 0.0, 0.0, 0.0, 0.0, 0.0]"
1569267713551236497,,19083,,1569267713,486638069,"""knife_link""",,0.424954620484,0.525044063205,0.451666691262,0.582871771685,"[0.0, 0.0, 0.0, 0.0, 0.0, 0.0, 0.0, 0.0, 0.0]",,0.144223142135,0.702111377234,-0.296755470922,"[0.0, 0.0, 0.0, 0.0, 0.0, 0.0, 0.0, 0.0, 0.0]",,-2.5915428,8.6777418,0.99146145,"[0.0, 0.0, 0.0, 0.0, 0.0, 0.0, 0.0, 0.0, 0.0]"
1569267713594450851,,19084,,1569267713,550364971,"""knife_link""",,0.421208150493,0.553428024686,0.437386552508,0.570082554667,"[0.0, 0.0, 0.0, 0.0, 0.0, 0.0, 0.0, 0.0, 0.0]",,0.728908441555,0.621826231642,-0.509685639666,"[0.0, 0.0, 0.0, 0.0, 0.0, 0.0, 0.0, 0.0, 0.0]",,-3.09218175,9.2667288,0.0785316,"[0.0, 0.0, 0.0, 0.0, 0.0, 0.0, 0.0, 0.0, 0.0]"
1569267713636273307,,19085,,1569267713,593688011,"""knife_link""",,0.415852923003,0.567675047626,0.436972615159,0.560237735549,"[0.0, 0.0, 0.0, 0.0, 0.0, 0.0, 0.0, 0.0, 0.0]",,0.339700018359,0.77716053507,-0.209489008322,"[0.0, 0.0, 0.0, 0.0, 0.0, 0.0, 0.0, 0.0, 0.0]",,-3.2983272,9.2470959,0.28467705,"[0.0, 0.0, 0.0, 0.0, 0.0, 0.0, 0.0, 0.0, 0.0]"
1569267713700576384,,19086,,1569267713,635533094,"""knife_link""",,0.411396574893,0.581430835828,0.435834161647,0.550217797655,"[0.0, 0.0, 0.0, 0.0, 0.0, 0.0, 0.0, 0.0, 0.0]",,0.362389298635,0.763197901054,-0.204253020566,"[0.0, 0.0, 0.0, 0.0, 0.0, 0.0, 0.0, 0.0, 0.0]",,-3.05291595,8.86425435,-0.91292985,"[0.0, 0.0, 0.0, 0.0, 0.0, 0.0, 0.0, 0.0, 0.0]"
1569267713749049697,,19087,,1569267713,699415922,"""knife_link""",,0.424229460647,0.602061495984,0.430930986133,0.521392179614,"[0.0, 0.0, 0.0, 0.0, 0.0, 0.0, 0.0, 0.0, 0.0]",,0.948819927307,0.682912755462,0.287929828498,"[0.0, 0.0, 0.0, 0.0, 0.0, 0.0, 0.0, 0.0, 0.0]",,-3.4161246,9.37470975,-1.06999305,"[0.0, 0.0, 0.0, 0.0, 0.0, 0.0, 0.0, 0.0, 0.0]"
1569267713785858549,,19088,,1569267713,748264074,"""knife_link""",,0.415345646315,0.613018513313,0.442295328415,0.506034721027,"[0.0, 0.0, 0.0, 0.0, 0.0, 0.0, 0.0, 0.0, 0.0]",,-0.0495084048372,1.0232519596,0.09768894003,"[0.0, 0.0, 0.0, 0.0, 0.0, 0.0, 0.0, 0.0, 0.0]",,-2.3755809,9.27654525,-2.0614545,"[0.0, 0.0, 0.0, 0.0, 0.0, 0.0, 0.0, 0.0, 0.0]"
1569267713849687118,,19089,,1569267713,784435033,"""knife_link""",,0.418807652701,0.624926735252,0.436909168586,0.493129905818,"[0.0, 0.0, 0.0, 0.0, 0.0, 0.0, 0.0, 0.0, 0.0]",,0.838864184431,0.649751499674,-4.94980819757e-05,"[0.0, 0.0, 0.0, 0.0, 0.0, 0.0, 0.0, 0.0, 0.0]",,-2.6504415,9.90479805,-1.56081555,"[0.0, 0.0, 0.0, 0.0, 0.0, 0.0, 0.0, 0.0, 0.0]"
1569267713934020081,,19090,,1569267713,848499059,"""knife_link""",,0.403355292785,0.625616599153,0.449633001542,0.493698837927,"[0.0, 0.0, 0.0, 0.0, 0.0, 0.0, 0.0, 0.0, 0.0]",,-0.505039339609,0.42809468467,-0.134439850486,"[0.0, 0.0, 0.0, 0.0, 0.0, 0.0, 0.0, 0.0, 0.0]",,-2.2185177,9.72810195,-1.5313662,"[0.0, 0.0, 0.0, 0.0, 0.0, 0.0, 0.0, 0.0, 0.0]"
1569267713956850092,,19091,,1569267713,933051109,"""knife_link""",,0.402757070122,0.631937590398,0.444658870224,0.490632360776,"[0.0, 0.0, 0.0, 0.0, 0.0, 0.0, 0.0, 0.0, 0.0]",,0.158185776151,0.120916736318,-0.097787936194,"[0.0, 0.0, 0.0, 0.0, 0.0, 0.0, 0.0, 0.0, 0.0]",,-2.7682389,9.5415894,-0.69696795,"[0.0, 0.0, 0.0, 0.0, 0.0, 0.0, 0.0, 0.0, 0.0]"
1569267714042593564,,19092,,1569267713,954437971,"""knife_link""",,0.404265621743,0.634518206889,0.44044742518,0.489859181659,"[0.0, 0.0, 0.0, 0.0, 0.0, 0.0, 0.0, 0.0, 0.0]",,0.402531871431,0.0982274560423,-0.197271703558,"[0.0, 0.0, 0.0, 0.0, 0.0, 0.0, 0.0, 0.0, 0.0]",,-2.48356185,9.4826907,-1.4921004,"[0.0, 0.0, 0.0, 0.0, 0.0, 0.0, 0.0, 0.0, 0.0]"
1569267714045603440,,19093,,1569267714,39274930,"""knife_link""",,0.407387393078,0.639336259698,0.431033490603,0.489382048071,"[0.0, 0.0, 0.0, 0.0, 0.0, 0.0, 0.0, 0.0, 0.0]",,0.219272299971,-0.0204549330937,-0.106514582454,"[0.0, 0.0, 0.0, 0.0, 0.0, 0.0, 0.0, 0.0, 0.0]",,-2.7682389,8.9329695,-1.50191685,"[0.0, 0.0, 0.0, 0.0, 0.0, 0.0, 0.0, 0.0, 0.0]"
1569267714104239963,,19094,,1569267714,44344902,"""knife_link""",,0.40845964175,0.638727651592,0.430001305388,0.490190356411,"[0.0, 0.0, 0.0, 0.0, 0.0, 0.0, 0.0, 0.0, 0.0]",,0.0831366183148,-0.00823762832973,-0.150147813754,"[0.0, 0.0, 0.0, 0.0, 0.0, 0.0, 0.0, 0.0, 0.0]",,-2.36576445,9.5808552,-1.2957714,"[0.0, 0.0, 0.0, 0.0, 0.0, 0.0, 0.0, 0.0, 0.0]"
1569267714146413390,,19095,,1569267714,103365898,"""knife_link""",,0.40669719522,0.638021557319,0.427811946039,0.494472266789,"[0.0, 0.0, 0.0, 0.0, 0.0, 0.0, 0.0, 0.0, 0.0]",,-0.0687070266092,-0.0536161888817,-0.13793050899,"[0.0, 0.0, 0.0, 0.0, 0.0, 0.0, 0.0, 0.0, 0.0]",,-2.6700744,9.37470975,-1.48228395,"[0.0, 0.0, 0.0, 0.0, 0.0, 0.0, 0.0, 0.0, 0.0]"
1569267714210397864,,19096,,1569267714,145502090,"""knife_link""",,0.408344627148,0.638610441408,0.422631864969,0.496803458438,"[0.0, 0.0, 0.0, 0.0, 0.0, 0.0, 0.0, 0.0, 0.0]",,0.154695117647,-0.107721395694,-0.134439850486,"[0.0, 0.0, 0.0, 0.0, 0.0, 0.0, 0.0, 0.0, 0.0]",,-3.17071335,9.25691235,-0.79513245,"[0.0, 0.0, 0.0, 0.0, 0.0, 0.0, 0.0, 0.0, 0.0]"
1569267714252553957,,19097,,1569267714,209532022,"""knife_link""",,0.408337998997,0.639720418616,0.417247050332,0.499922757603,"[0.0, 0.0, 0.0, 0.0, 0.0, 0.0, 0.0, 0.0, 0.0]",,0.0744099720548,-0.0623428351417,-0.144911825998,"[0.0, 0.0, 0.0, 0.0, 0.0, 0.0, 0.0, 0.0, 0.0]",,-3.01365015,9.11948205,-0.99146145,"[0.0, 0.0, 0.0, 0.0, 0.0, 0.0, 0.0, 0.0, 0.0]"
1569267714316585653,,19098,,1569267714,251889944,"""knife_link""",,0.407862435071,0.636751786552,0.417985430761,0.503471524571,"[0.0, 0.0, 0.0, 0.0, 0.0, 0.0, 0.0, 0.0, 0.0]",,-0.171681452477,-0.0780507984097,-0.02448410761,"[0.0, 0.0, 0.0, 0.0, 0.0, 0.0, 0.0, 0.0, 0.0]",,-2.7682389,9.1685643,-0.89329695,"[0.0, 0.0, 0.0, 0.0, 0.0, 0.0, 0.0, 0.0, 0.0]"
1569267714338144568,,19099,,1569267714,315462112,"""knife_link""",,0.410066590324,0.636835434675,0.415791576944,0.503391880333,"[0.0, 0.0, 0.0, 0.0, 0.0, 0.0, 0.0, 0.0, 0.0]",,0.0674286550468,-0.00649229907773,-0.00179482733398,"[0.0, 0.0, 0.0, 0.0, 0.0, 0.0, 0.0, 0.0, 0.0]",,-2.552277,8.74645695,-1.26632205,"[0.0, 0.0, 0.0, 0.0, 0.0, 0.0, 0.0, 0.0, 0.0]"
1569267714401254439,,19100,,1569267714,337366104,"""knife_link""",,0.411504841943,0.637098526775,0.413316760209,0.503923097276,"[0.0, 0.0, 0.0, 0.0, 0.0, 0.0, 0.0, 0.0, 0.0]",,0.158185776151,-0.0291815793537,-0.097787936194,"[0.0, 0.0, 0.0, 0.0, 0.0, 0.0, 0.0, 0.0, 0.0]",,-2.6111757,9.23727945,-1.42338525,"[0.0, 0.0, 0.0, 0.0, 0.0, 0.0, 0.0, 0.0, 0.0]"
1569267714465727480,,19101,,1569267714,400465965,"""knife_link""",,0.411032698181,0.634516923458,0.414280989958,0.506765879111,"[0.0, 0.0, 0.0, 0.0, 0.0, 0.0, 0.0, 0.0, 0.0]",,-0.110594928657,-0.0326722378577,-0.012266802846,"[0.0, 0.0, 0.0, 0.0, 0.0, 0.0, 0.0, 0.0, 0.0]",,-2.64062505,9.72810195,-1.30558785,"[0.0, 0.0, 0.0, 0.0, 0.0, 0.0, 0.0, 0.0, 0.0]"
1569267714486591447,,19102,,1569267714,464225053,"""knife_link""",,0.411074373944,0.631476842873,0.414062625709,0.51069266491,"[0.0, 0.0, 0.0, 0.0, 0.0, 0.0, 0.0, 0.0, 0.0]",,-0.0983776238932,-0.0832867861657,-0.022738778358,"[0.0, 0.0, 0.0, 0.0, 0.0, 0.0, 0.0, 0.0, 0.0]",,-2.9056692,9.2863617,-1.22705625,"[0.0, 0.0, 0.0, 0.0, 0.0, 0.0, 0.0, 0.0, 0.0]"
1569267714549958353,,19103,,1569267714,485810041,"""knife_link""",,0.412267883513,0.630675355044,0.412547975926,0.511945266921,"[0.0, 0.0, 0.0, 0.0, 0.0, 0.0, 0.0, 0.0, 0.0]",,0.0360127285108,-0.0745601399057,-0.03321075387,"[0.0, 0.0, 0.0, 0.0, 0.0, 0.0, 0.0, 0.0, 0.0]",,-3.1019982,9.1881972,-1.03072725,"[0.0, 0.0, 0.0, 0.0, 0.0, 0.0, 0.0, 0.0, 0.0]"
1569267714594529092,,19104,,1569267714,549221038,"""knife_link""",,0.412962561804,0.629913906563,0.410268366692,0.514150036622,"[0.0, 0.0, 0.0, 0.0, 0.0, 0.0, 0.0, 0.0, 0.0]",,0.00808746047879,-0.0501255303777,-0.047173387886,"[0.0, 0.0, 0.0, 0.0, 0.0, 0.0, 0.0, 0.0, 0.0]",,-3.09218175,9.2667288,-1.05036015,"[0.0, 0.0, 0.0, 0.0, 0.0, 0.0, 0.0, 0.0, 0.0]"
1569267714635314274,,19105,,1569267714,592389106,"""knife_link""",,0.413652803126,0.628870058084,0.409635432602,0.515376193541,"[0.0, 0.0, 0.0, 0.0, 0.0, 0.0, 0.0, 0.0, 0.0]",,-0.0250737953092,-0.0187096038417,-0.00528548583798,"[0.0, 0.0, 0.0, 0.0, 0.0, 0.0, 0.0, 0.0, 0.0]",,-3.09218175,9.1096656,-1.0798095,"[0.0, 0.0, 0.0, 0.0, 0.0, 0.0, 0.0, 0.0, 0.0]"
1569267714698558074,,19106,,1569267714,634298086,"""knife_link""",,0.413365003469,0.627567395892,0.408953155867,0.517731449525,"[0.0, 0.0, 0.0, 0.0, 0.0, 0.0, 0.0, 0.0, 0.0]",,-0.0774336728692,-0.0448895426217,-0.054154704894,"[0.0, 0.0, 0.0, 0.0, 0.0, 0.0, 0.0, 0.0, 0.0]",,-2.944935,8.8151721,-1.10925885,"[0.0, 0.0, 0.0, 0.0, 0.0, 0.0, 0.0, 0.0, 0.0]"
1569267714742486749,,19107,,1569267714,697917938,"""knife_link""",,0.411516276018,0.623241630051,0.412653620346,0.521479831594,"[0.0, 0.0, 0.0, 0.0, 0.0, 0.0, 0.0, 0.0, 0.0]",,-0.222296000785,-0.0291815793537,0.02787576995,"[0.0, 0.0, 0.0, 0.0, 0.0, 0.0, 0.0, 0.0, 0.0]",,-3.1216311,9.1489314,-1.1583411,"[0.0, 0.0, 0.0, 0.0, 0.0, 0.0, 0.0, 0.0, 0.0]"
1569267714784864090,,19108,,1569267714,740751981,"""knife_link""",,0.412682018862,0.621284068342,0.412623626358,0.522916246356,"[0.0, 0.0, 0.0, 0.0, 0.0, 0.0, 0.0, 0.0, 0.0]",,-0.0442724170812,-0.0431442133697,0.038347745462,"[0.0, 0.0, 0.0, 0.0, 0.0, 0.0, 0.0, 0.0, 0.0]",,-3.1608969,9.2470959,-0.5300883,"[0.0, 0.0, 0.0, 0.0, 0.0, 0.0, 0.0, 0.0, 0.0]"
1569267714847619808,,19109,,1569267714,783606052,"""knife_link""",,0.412813088422,0.618468803703,0.414857443962,0.524380581318,"[0.0, 0.0, 0.0, 0.0, 0.0, 0.0, 0.0, 0.0, 0.0]",,-0.164700135469,-0.00474696982573,0.090707623022,"[0.0, 0.0, 0.0, 0.0, 0.0, 0.0, 0.0, 0.0, 0.0]",,-3.3179601,8.5010457,-0.9423792,"[0.0, 0.0, 0.0, 0.0, 0.0, 0.0, 0.0, 0.0, 0.0]"
1569267714890620453,,19110,,1569267714,846884965,"""knife_link""",,0.413193718905,0.612649913263,0.42180241307,0.52537011598,"[0.0, 0.0, 0.0, 0.0, 0.0, 0.0, 0.0, 0.0, 0.0]",,-0.224041330037,0.0161969811983,0.181464744126,"[0.0, 0.0, 0.0, 0.0, 0.0, 0.0, 0.0, 0.0, 0.0]",,-2.7289731,8.68755825,-0.3337593,"[0.0, 0.0, 0.0, 0.0, 0.0, 0.0, 0.0, 0.0, 0.0]"
1569267714932335967,,19111,,1569267714,889527082,"""knife_link""",,0.416802400162,0.609303190422,0.428289421814,0.521146383008,"[0.0, 0.0, 0.0, 0.0, 0.0, 0.0, 0.0, 0.0, 0.0]",,-0.105358940901,0.159313979862,0.413593534642,"[0.0, 0.0, 0.0, 0.0, 0.0, 0.0, 0.0, 0.0, 0.0]",,-2.83695405,7.7942613,-0.99146145,"[0.0, 0.0, 0.0, 0.0, 0.0, 0.0, 0.0, 0.0, 0.0]"
1569267715038876288,,19112,,1569267714,931603908,"""knife_link""",,0.430123755616,0.599501469634,0.438512047178,0.513126424229,"[0.0, 0.0, 0.0, 0.0, 0.0, 0.0, 0.0, 0.0, 0.0]",,-0.0442724170812,-0.0187096038417,0.975589553786,"[0.0, 0.0, 0.0, 0.0, 0.0, 0.0, 0.0, 0.0, 0.0]",,-1.77677745,9.86553225,-1.766961,"[0.0, 0.0, 0.0, 0.0, 0.0, 0.0, 0.0, 0.0, 0.0]"
1569267715040504504,,19113,,1569267715,37868976,"""knife_link""",,0.463549421235,0.572609442219,0.466404087957,0.48959941533,"[0.0, 0.0, 0.0, 0.0, 0.0, 0.0, 0.0, 0.0, 0.0]",,-0.0285644538132,-0.0169642745897,1.05762002863,"[0.0, 0.0, 0.0, 0.0, 0.0, 0.0, 0.0, 0.0, 0.0]",,-1.8258597,11.6030439,-1.42338525,"[0.0, 0.0, 0.0, 0.0, 0.0, 0.0, 0.0, 0.0, 0.0]"
1569267715102530318,,19114,,1569267715,39657115,"""knife_link""",,0.464343500925,0.571434962906,0.466279653872,0.490337109245,"[0.0, 0.0, 0.0, 0.0, 0.0, 0.0, 0.0, 0.0, 0.0]",,-0.669100289297,-0.0309269086057,0.51656796051,"[0.0, 0.0, 0.0, 0.0, 0.0, 0.0, 0.0, 0.0, 0.0]",,-1.32522075,11.4852465,-0.8245818,"[0.0, 0.0, 0.0, 0.0, 0.0, 0.0, 0.0, 0.0, 0.0]"
1569267715166387789,,19115,,1569267715,101670980,"""knife_link""",,0.467716479095,0.560802925232,0.475013874832,0.491022599227,"[0.0, 0.0, 0.0, 0.0, 0.0, 0.0, 0.0, 0.0, 0.0]",,-0.265929232085,-0.0536161888817,0.361233657082,"[0.0, 0.0, 0.0, 0.0, 0.0, 0.0, 0.0, 0.0, 0.0]",,-1.77677745,8.6188431,0.3730251,"[0.0, 0.0, 0.0, 0.0, 0.0, 0.0, 0.0, 0.0, 0.0]"
1569267715188304002,,19116,,1569267715,165570974,"""knife_link""",,0.479979163671,0.552767264965,0.480381789877,0.483013135619,"[0.0, 0.0, 0.0, 0.0, 0.0, 0.0, 0.0, 0.0, 0.0]",,0.0936085938268,-0.0448895426217,0.532275923778,"[0.0, 0.0, 0.0, 0.0, 0.0, 0.0, 0.0, 0.0, 0.0]",,-0.89329695,11.1711201,-0.14724675,"[0.0, 0.0, 0.0, 0.0, 0.0, 0.0, 0.0, 0.0, 0.0]"
1569267715272746483,,19117,,1569267715,186904907,"""knife_link""",,0.478532384842,0.552568368386,0.480002106525,0.485049412584,"[0.0, 0.0, 0.0, 0.0, 0.0, 0.0, 0.0, 0.0, 0.0]",,-0.129793550429,0.0563395539943,-0.167601106274,"[0.0, 0.0, 0.0, 0.0, 0.0, 0.0, 0.0, 0.0, 0.0]",,-1.1387082,10.27782315,-0.14724675,"[0.0, 0.0, 0.0, 0.0, 0.0, 0.0, 0.0, 0.0, 0.0]"
1569267715294033315,,19118,,1569267715,271640062,"""knife_link""",,0.484838820593,0.558719986,0.472024018451,0.479537924773,"[0.0, 0.0, 0.0, 0.0, 0.0, 0.0, 0.0, 0.0, 0.0]",,0.317010738083,0.0127063226943,-0.00877614434198,"[0.0, 0.0, 0.0, 0.0, 0.0, 0.0, 0.0, 0.0, 0.0]",,-1.46265105,8.9918682,0.0,"[0.0, 0.0, 0.0, 0.0, 0.0, 0.0, 0.0, 0.0, 0.0]"
1569267715360215798,,19119,,1569267715,293037891,"""knife_link""",,0.485115951321,0.558386000684,0.4716343843,0.480029786117,"[0.0, 0.0, 0.0, 0.0, 0.0, 0.0, 0.0, 0.0, 0.0]",,-0.0180924783012,0.0511035662383,-0.00528548583798,"[0.0, 0.0, 0.0, 0.0, 0.0, 0.0, 0.0, 0.0, 0.0]",,-1.14852465,10.16002575,-1.0601766,"[0.0, 0.0, 0.0, 0.0, 0.0, 0.0, 0.0, 0.0, 0.0]"
1569267715400271030,,19120,,1569267715,359245061,"""knife_link""",,0.479309893132,0.556584177779,0.472160122566,0.48738167595,"[0.0, 0.0, 0.0, 0.0, 0.0, 0.0, 0.0, 0.0, 0.0]",,-0.220550671533,-0.0204549330937,-0.165855777022,"[0.0, 0.0, 0.0, 0.0, 0.0, 0.0, 0.0, 0.0, 0.0]",,-1.30558785,9.94406385,-0.18651255,"[0.0, 0.0, 0.0, 0.0, 0.0, 0.0, 0.0, 0.0, 0.0]"
1569267715463631153,,19121,,1569267715,399211883,"""knife_link""",,0.478133102849,0.556333890464,0.47112150506,0.489822279761,"[0.0, 0.0, 0.0, 0.0, 0.0, 0.0, 0.0, 0.0, 0.0]",,-0.0442724170812,-0.00474696982573,-0.099533265446,"[0.0, 0.0, 0.0, 0.0, 0.0, 0.0, 0.0, 0.0, 0.0]",,-1.4724675,9.423792,0.2552277,"[0.0, 0.0, 0.0, 0.0, 0.0, 0.0, 0.0, 0.0, 0.0]"
1569267715507333497,,19122,,1569267715,462905883,"""knife_link""",,0.484401118198,0.55883669346,0.464563984032,0.487070232586,"[0.0, 0.0, 0.0, 0.0, 0.0, 0.0, 0.0, 0.0, 0.0]",,0.297812116311,-0.0640881643937,0.017403794438,"[0.0, 0.0, 0.0, 0.0, 0.0, 0.0, 0.0, 0.0, 0.0]",,-1.46265105,9.6004881,-0.1570632,"[0.0, 0.0, 0.0, 0.0, 0.0, 0.0, 0.0, 0.0, 0.0]"
1569267715549064935,,19123,,1569267715,505609989,"""knife_link""",,0.487336955483,0.561618192851,0.460359029879,0.484930160835,"[0.0, 0.0, 0.0, 0.0, 0.0, 0.0, 0.0, 0.0, 0.0]",,0.297812116311,0.0196876397023,-0.031465424618,"[0.0, 0.0, 0.0, 0.0, 0.0, 0.0, 0.0, 0.0, 0.0]",,-1.374303,9.84589935,-0.32394285,"[0.0, 0.0, 0.0, 0.0, 0.0, 0.0, 0.0, 0.0, 0.0]"
1569267715613356084,,19124,,1569267715,547885894,"""knife_link""",,0.488278974558,0.562821895941,0.458144422165,0.484684273411,"[0.0, 0.0, 0.0, 0.0, 0.0, 0.0, 0.0, 0.0, 0.0]",,0.114552544851,0.0214329689543,-0.043682729382,"[0.0, 0.0, 0.0, 0.0, 0.0, 0.0, 0.0, 0.0, 0.0]",,-1.40375235,9.66920325,-0.75586665,"[0.0, 0.0, 0.0, 0.0, 0.0, 0.0, 0.0, 0.0, 0.0]"
1569267715633904823,,19125,,1569267715,611994981,"""knife_link""",,0.486040877944,0.562209018738,0.457709418249,0.488044437181,"[0.0, 0.0, 0.0, 0.0, 0.0, 0.0, 0.0, 0.0, 0.0]",,-0.0844149898772,-0.00474696982573,-0.082079972926,"[0.0, 0.0, 0.0, 0.0, 0.0, 0.0, 0.0, 0.0, 0.0]",,-1.42338525,9.66920325,-0.67733505,"[0.0, 0.0, 0.0, 0.0, 0.0, 0.0, 0.0, 0.0, 0.0]"
1569267715719233338,,19126,,1569267715,633239984,"""knife_link""",,0.484567779334,0.561190328543,0.45740410954,0.490959227389,"[0.0, 0.0, 0.0, 0.0, 0.0, 0.0, 0.0, 0.0, 0.0]",,-0.220550671533,-0.0361628963617,-0.153638472258,"[0.0, 0.0, 0.0, 0.0, 0.0, 0.0, 0.0, 0.0, 0.0]",,-1.69824585,9.9342474,-0.5693541,"[0.0, 0.0, 0.0, 0.0, 0.0, 0.0, 0.0, 0.0, 0.0]"
1569267715739931214,,19127,,1569267715,718180894,"""knife_link""",,0.477534063084,0.5619878302,0.452925306532,0.5009885867,"[0.0, 0.0, 0.0, 0.0, 0.0, 0.0, 0.0, 0.0, 0.0]",,-0.121066904169,-0.0693241521497,-0.24265026411,"[0.0, 0.0, 0.0, 0.0, 0.0, 0.0, 0.0, 0.0, 0.0]",,-3.2197956,9.90479805,0.00981645,"[0.0, 0.0, 0.0, 0.0, 0.0, 0.0, 0.0, 0.0, 0.0]"
1569267715783335007,,19128,,1569267715,739248991,"""knife_link""",,0.475608380354,0.563963243474,0.448997785031,0.504126092941,"[0.0, 0.0, 0.0, 0.0, 0.0, 0.0, 0.0, 0.0, 0.0]",,0.0726646428028,-0.0448895426217,-0.418928518562,"[0.0, 0.0, 0.0, 0.0, 0.0, 0.0, 0.0, 0.0, 0.0]",,-3.66153585,9.64957035,-0.2748606,"[0.0, 0.0, 0.0, 0.0, 0.0, 0.0, 0.0, 0.0, 0.0]"
1569267715852962460,,19129,,1569267715,782399892,"""knife_link""",,0.470115616086,0.566898524715,0.443714917292,0.510621623476,"[0.0, 0.0, 0.0, 0.0, 0.0, 0.0, 0.0, 0.0, 0.0]",,-0.0704523558612,-0.0431442133697,-0.424164506318,"[0.0, 0.0, 0.0, 0.0, 0.0, 0.0, 0.0, 0.0, 0.0]",,-3.72043455,9.66920325,-0.3730251,"[0.0, 0.0, 0.0, 0.0, 0.0, 0.0, 0.0, 0.0, 0.0]"
1569267715889079400,,19130,,1569267715,852299928,"""knife_link""",,0.457377599446,0.57206568735,0.433348261842,0.525124618392,"[0.0, 0.0, 0.0, 0.0, 0.0, 0.0, 0.0, 0.0, 0.0]",,-0.161209476965,-0.10423073719,-0.589970785258,"[0.0, 0.0, 0.0, 0.0, 0.0, 0.0, 0.0, 0.0, 0.0]",,-3.9462129,9.9342474,-1.3154043,"[0.0, 0.0, 0.0, 0.0, 0.0, 0.0, 0.0, 0.0, 0.0]"
1569267715931171752,,19131,,1569267715,888241052,"""knife_link""",,0.450773204562,0.574042239058,0.424829237427,0.535536315158,"[0.0, 0.0, 0.0, 0.0, 0.0, 0.0, 0.0, 0.0, 0.0]",,-0.159464147713,-0.268291686878,-0.734833113174,"[0.0, 0.0, 0.0, 0.0, 0.0, 0.0, 0.0, 0.0, 0.0]",,-3.5142891,9.84589935,-0.9031134,"[0.0, 0.0, 0.0, 0.0, 0.0, 0.0, 0.0, 0.0, 0.0]"
1569267715996387968,,19132,,1569267715,930464982,"""knife_link""",,0.457941721621,0.578587924263,0.406958519212,0.538433057248,"[0.0, 0.0, 0.0, 0.0, 0.0, 0.0, 0.0, 0.0, 0.0]",,0.692256527263,-0.437588624322,-0.404965884546,"[0.0, 0.0, 0.0, 0.0, 0.0, 0.0, 0.0, 0.0, 0.0]",,-2.79768825,8.8151721,-0.5300883,"[0.0, 0.0, 0.0, 0.0, 0.0, 0.0, 0.0, 0.0, 0.0]"
1569267716037546350,,19133,,1569267715,994529008,"""knife_link""",,0.472566189058,0.590908508156,0.377227920776,0.53404815114,"[0.0, 0.0, 0.0, 0.0, 0.0, 0.0, 0.0, 0.0, 0.0]",,1.00641579262,-0.294471625658,-0.354351336238,"[0.0, 0.0, 0.0, 0.0, 0.0, 0.0, 0.0, 0.0, 0.0]",,-2.7878718,8.6188431,-0.6478857,"[0.0, 0.0, 0.0, 0.0, 0.0, 0.0, 0.0, 0.0, 0.0]"
1569267716124598200,,19134,,1569267716,36698102,"""knife_link""",,0.477570437106,0.59604132028,0.368899402335,0.529692791228,"[0.0, 0.0, 0.0, 0.0, 0.0, 0.0, 0.0, 0.0, 0.0]",,0.557866174859,0.0196876397023,-0.134439850486,"[0.0, 0.0, 0.0, 0.0, 0.0, 0.0, 0.0, 0.0, 0.0]",,-1.9240242,9.3648933,-0.79513245,"[0.0, 0.0, 0.0, 0.0, 0.0, 0.0, 0.0, 0.0, 0.0]"
1569267716164897630,,19135,,1569267716,121736049,"""knife_link""",,0.48218280894,0.599585728384,0.380751793865,0.512859400372,"[0.0, 0.0, 0.0, 0.0, 0.0, 0.0, 0.0, 0.0, 0.0]",,0.111061886347,0.396678758134,0.29840180401,"[0.0, 0.0, 0.0, 0.0, 0.0, 0.0, 0.0, 0.0, 0.0]",,-1.12889175,9.3452604,-1.22705625,"[0.0, 0.0, 0.0, 0.0, 0.0, 0.0, 0.0, 0.0, 0.0]"
1569267716207722116,,19136,,1569267716,164210081,"""knife_link""",,0.484475238775,0.602521916659,0.384280511768,0.50455878868,"[0.0, 0.0, 0.0, 0.0, 0.0, 0.0, 0.0, 0.0, 0.0]",,0.205309665955,0.391442770378,0.18495540263,"[0.0, 0.0, 0.0, 0.0, 0.0, 0.0, 0.0, 0.0, 0.0]",,-0.77549955,9.3845262,-1.0405437,"[0.0, 0.0, 0.0, 0.0, 0.0, 0.0, 0.0, 0.0, 0.0]"
1569267716278155691,,19137,,1569267716,206862926,"""knife_link""",,0.493474272054,0.603363298687,0.384324250465,0.49470268154,"[0.0, 0.0, 0.0, 0.0, 0.0, 0.0, 0.0, 0.0, 0.0]",,0.458382407495,0.18374858939,0.354252340074,"[0.0, 0.0, 0.0, 0.0, 0.0, 0.0, 0.0, 0.0, 0.0]",,-0.12761385,8.86425435,-1.20742335,"[0.0, 0.0, 0.0, 0.0, 0.0, 0.0, 0.0, 0.0, 0.0]"
1569267716314032420,,19138,,1569267716,277291059,"""knife_link""",,0.515252323268,0.607931269007,0.383521834782,0.466739346719,"[0.0, 0.0, 0.0, 0.0, 0.0, 0.0, 0.0, 0.0, 0.0]",,0.772541672855,0.325120258802,0.572418496574,"[0.0, 0.0, 0.0, 0.0, 0.0, 0.0, 0.0, 0.0, 0.0]",,-0.14724675,9.11948205,-1.4135688,"[0.0, 0.0, 0.0, 0.0, 0.0, 0.0, 0.0, 0.0, 0.0]"
1569267716336365922,,19139,,1569267716,312944889,"""knife_link""",,0.523478464115,0.611350279116,0.381940442455,0.454249526416,"[0.0, 0.0, 0.0, 0.0, 0.0, 0.0, 0.0, 0.0, 0.0]",,0.732399100059,0.356536185338,0.362978986334,"[0.0, 0.0, 0.0, 0.0, 0.0, 0.0, 0.0, 0.0, 0.0]",,-0.6478857,9.96369675,-1.61971425,"[0.0, 0.0, 0.0, 0.0, 0.0, 0.0, 0.0, 0.0, 0.0]"
1569267716399196310,,19140,,1569267716,334214925,"""knife_link""",,0.530137079365,0.612135737407,0.378958642227,0.447922832142,"[0.0, 0.0, 0.0, 0.0, 0.0, 0.0, 0.0, 0.0, 0.0]",,0.817920233407,0.106954102302,0.364724315586,"[0.0, 0.0, 0.0, 0.0, 0.0, 0.0, 0.0, 0.0, 0.0]",,-0.50063895,9.7968171,-2.36576445,"[0.0, 0.0, 0.0, 0.0, 0.0, 0.0, 0.0, 0.0, 0.0]"
1569267716441225187,,19141,,1569267716,398056030,"""knife_link""",,0.563701859092,0.618134155327,0.359893109473,0.413070611188,"[0.0, 0.0, 0.0, 0.0, 0.0, 0.0, 0.0, 0.0, 0.0]",,1.50208930019,0.0737928465143,0.684119568702,"[0.0, 0.0, 0.0, 0.0, 0.0, 0.0, 0.0, 0.0, 0.0]",,-1.4921004,9.82626645,-3.03328305,"[0.0, 0.0, 0.0, 0.0, 0.0, 0.0, 0.0, 0.0, 0.0]"
1569267716484634556,,19142,,1569267716,440459966,"""knife_link""",,0.585744632301,0.626503522046,0.338398239169,0.387147509771,"[0.0, 0.0, 0.0, 0.0, 0.0, 0.0, 0.0, 0.0, 0.0]",,1.91747766217,0.0231782982063,0.42057485165,"[0.0, 0.0, 0.0, 0.0, 0.0, 0.0, 0.0, 0.0, 0.0]",,-1.0209108,9.620121,-3.52410555,"[0.0, 0.0, 0.0, 0.0, 0.0, 0.0, 0.0, 0.0, 0.0]"
1569267716547510018,,19143,,1569267716,483047962,"""knife_link""",,0.610508273194,0.635511047792,0.310361364697,0.356484473434,"[0.0, 0.0, 0.0, 0.0, 0.0, 0.0, 0.0, 0.0, 0.0]",,2.26828884182,-0.0344175671097,0.471189399958,"[0.0, 0.0, 0.0, 0.0, 0.0, 0.0, 0.0, 0.0, 0.0]",,-2.4541125,7.90224225,-4.87877565,"[0.0, 0.0, 0.0, 0.0, 0.0, 0.0, 0.0, 0.0, 0.0]"
1569267716618857047,,19144,,1569267716,546850919,"""knife_link""",,0.64478316257,0.645180624514,0.268429884448,0.30974510836,"[0.0, 0.0, 0.0, 0.0, 0.0, 0.0, 0.0, 0.0, 0.0]",,2.21941962276,-0.0536161888817,0.488642692478,"[0.0, 0.0, 0.0, 0.0, 0.0, 0.0, 0.0, 0.0, 0.0]",,-2.18906835,7.09729335,-5.60519295,"[0.0, 0.0, 0.0, 0.0, 0.0, 0.0, 0.0, 0.0, 0.0]"
1569267716654407248,,19145,,1569267716,617458105,"""knife_link""",,0.672711263256,0.654235554789,0.21895431557,0.267384372826,"[0.0, 0.0, 0.0, 0.0, 0.0, 0.0, 0.0, 0.0, 0.0]",,2.01172544177,-0.221167797074,0.233824621686,"[0.0, 0.0, 0.0, 0.0, 0.0, 0.0, 0.0, 0.0, 0.0]",,-2.64062505,7.1856414,-6.64573665,"[0.0, 0.0, 0.0, 0.0, 0.0, 0.0, 0.0, 0.0, 0.0]"
1569267716718155769,,19146,,1569267716,653276920,"""knife_link""",,0.680613053716,0.655130237848,0.203817457883,0.256960476399,"[0.0, 0.0, 0.0, 0.0, 0.0, 0.0, 0.0, 0.0, 0.0]",,1.08844626747,-0.170553248766,0.172738097866,"[0.0, 0.0, 0.0, 0.0, 0.0, 0.0, 0.0, 0.0, 0.0]",,-3.75970035,6.44940765,-7.1463756,"[0.0, 0.0, 0.0, 0.0, 0.0, 0.0, 0.0, 0.0, 0.0]"
1569267716753736636,,19147,,1569267716,716898918,"""knife_link""",,0.683964229724,0.651301292006,0.204022459558,0.257632287352,"[0.0, 0.0, 0.0, 0.0, 0.0, 0.0, 0.0, 0.0, 0.0]",,-0.00587517353721,-0.0222002623457,0.144812829834,"[0.0, 0.0, 0.0, 0.0, 0.0, 0.0, 0.0, 0.0, 0.0]",,-2.38539735,6.6359202,-7.2052743,"[0.0, 0.0, 0.0, 0.0, 0.0, 0.0, 0.0, 0.0, 0.0]"
1569267716802915289,,19148,,1569267716,753010034,"""knife_link""",,0.685928056521,0.649497900217,0.20363529386,0.257269986562,"[0.0, 0.0, 0.0, 0.0, 0.0, 0.0, 0.0, 0.0, 0.0]",,0.0534660210308,0.0109609934423,0.12386887881,"[0.0, 0.0, 0.0, 0.0, 0.0, 0.0, 0.0, 0.0, 0.0]",,-1.87494195,6.4592241,-7.03839465,"[0.0, 0.0, 0.0, 0.0, 0.0, 0.0, 0.0, 0.0, 0.0]"
1569267716845421515,,19149,,1569267716,801808118,"""knife_link""",,0.685138708137,0.64791607466,0.204549018884,0.262582196052,"[0.0, 0.0, 0.0, 0.0, 0.0, 0.0, 0.0, 0.0, 0.0]",,-0.182153427989,-0.0902681031737,-0.02448410761,"[0.0, 0.0, 0.0, 0.0, 0.0, 0.0, 0.0, 0.0, 0.0]",,-1.46265105,6.4003254,-6.88133145,"[0.0, 0.0, 0.0, 0.0, 0.0, 0.0, 0.0, 0.0, 0.0]"
1569267716887452264,,19150,,1569267716,844388961,"""knife_link""",,0.684917640098,0.647397662913,0.202370616047,0.266101909236,"[0.0, 0.0, 0.0, 0.0, 0.0, 0.0, 0.0, 0.0, 0.0]",,-0.0390364293252,-0.146118639238,-0.064626680406,"[0.0, 0.0, 0.0, 0.0, 0.0, 0.0, 0.0, 0.0, 0.0]",,-1.42338525,6.60647085,-7.0285782,"[0.0, 0.0, 0.0, 0.0, 0.0, 0.0, 0.0, 0.0, 0.0]"
1569267716972760354,,19151,,1569267716,886693954,"""knife_link""",,0.684949659105,0.647249296895,0.199093814458,0.268838176614,"[0.0, 0.0, 0.0, 0.0, 0.0, 0.0, 0.0, 0.0, 0.0]",,0.0272860822508,-0.161826602506,-0.078589314422,"[0.0, 0.0, 0.0, 0.0, 0.0, 0.0, 0.0, 0.0, 0.0]",,-1.26632205,6.72426825,-7.09729335,"[0.0, 0.0, 0.0, 0.0, 0.0, 0.0, 0.0, 0.0, 0.0]"
1569267717000504622,,19152,,1569267716,972007989,"""knife_link""",,0.681889995382,0.647269792321,0.202272765966,0.27414152968,"[0.0, 0.0, 0.0, 0.0, 0.0, 0.0, 0.0, 0.0, 0.0]",,-0.143756184445,-0.00125631132173,-0.061136021902,"[0.0, 0.0, 0.0, 0.0, 0.0, 0.0, 0.0, 0.0, 0.0]",,-1.1583411,6.8911479,-7.0089453,"[0.0, 0.0, 0.0, 0.0, 0.0, 0.0, 0.0, 0.0, 0.0]"
1569267717079281017,,19153,,1569267716,999650001,"""knife_link""",,0.681373506913,0.646508128583,0.203057224811,0.276631789939,"[0.0, 0.0, 0.0, 0.0, 0.0, 0.0, 0.0, 0.0, 0.0]",,-0.154228159957,-0.0448895426217,-0.034956083122,"[0.0, 0.0, 0.0, 0.0, 0.0, 0.0, 0.0, 0.0, 0.0]",,-1.18779045,7.0482111,-7.11692625,"[0.0, 0.0, 0.0, 0.0, 0.0, 0.0, 0.0, 0.0, 0.0]"
1569267717100627369,,19154,,1569267717,78069925,"""knife_link""",,0.684260251288,0.643955515927,0.197117405725,0.279739039777,"[0.0, 0.0, 0.0, 0.0, 0.0, 0.0, 0.0, 0.0, 0.0]",,0.0587020087868,-0.175789236522,0.026130440698,"[0.0, 0.0, 0.0, 0.0, 0.0, 0.0, 0.0, 0.0, 0.0]",,-1.22705625,6.99912885,-7.33288815,"[0.0, 0.0, 0.0, 0.0, 0.0, 0.0, 0.0, 0.0, 0.0]"
1569267717164630214,,19155,,1569267717,99361896,"""knife_link""",,0.68534356274,0.643176566288,0.195532503869,0.27999133115,"[0.0, 0.0, 0.0, 0.0, 0.0, 0.0, 0.0, 0.0, 0.0]",,0.112807215599,-0.11295738345,0.050565050226,"[0.0, 0.0, 0.0, 0.0, 0.0, 0.0, 0.0, 0.0, 0.0]",,-1.44301815,6.94023015,-7.58811585,"[0.0, 0.0, 0.0, 0.0, 0.0, 0.0, 0.0, 0.0, 0.0]"
1569267717206452450,,19156,,1569267717,163229942,"""knife_link""",,0.686763177718,0.641712064089,0.197046131063,0.278809588729,"[0.0, 0.0, 0.0, 0.0, 0.0, 0.0, 0.0, 0.0, 0.0]",,0.00459680197479,0.0511035662383,0.073254330502,"[0.0, 0.0, 0.0, 0.0, 0.0, 0.0, 0.0, 0.0, 0.0]",,-1.34485365,6.56720505,-7.17582495,"[0.0, 0.0, 0.0, 0.0, 0.0, 0.0, 0.0, 0.0, 0.0]"
1569267717248980801,,19157,,1569267717,205581903,"""knife_link""",,0.686248746705,0.641694130141,0.198435514413,0.279131953756,"[0.0, 0.0, 0.0, 0.0, 0.0, 0.0, 0.0, 0.0, 0.0]",,-0.0460177463332,0.0668115295063,-0.010521473594,"[0.0, 0.0, 0.0, 0.0, 0.0, 0.0, 0.0, 0.0, 0.0]",,-1.3939359,6.6359202,-6.9696795,"[0.0, 0.0, 0.0, 0.0, 0.0, 0.0, 0.0, 0.0, 0.0]"
1569267717291420489,,19158,,1569267717,248008966,"""knife_link""",,0.687319381605,0.641479020904,0.195895081155,0.278786388818,"[0.0, 0.0, 0.0, 0.0, 0.0, 0.0, 0.0, 0.0, 0.0]",,0.116297874103,-0.0571068473857,-4.94980819757e-05,"[0.0, 0.0, 0.0, 0.0, 0.0, 0.0, 0.0, 0.0, 0.0]",,-1.50191685,6.80279985,-7.03839465,"[0.0, 0.0, 0.0, 0.0, 0.0, 0.0, 0.0, 0.0, 0.0]"
1569267717334705151,,19159,,1569267717,290513992,"""knife_link""",,0.689409614609,0.641028827973,0.192376279813,0.277106102345,"[0.0, 0.0, 0.0, 0.0, 0.0, 0.0, 0.0, 0.0, 0.0]",,0.200073678199,-0.0623428351417,0.038347745462,"[0.0, 0.0, 0.0, 0.0, 0.0, 0.0, 0.0, 0.0, 0.0]",,-1.5117333,6.8518821,-7.19545785,"[0.0, 0.0, 0.0, 0.0, 0.0, 0.0, 0.0, 0.0, 0.0]"
1569267717397572571,,19160,,1569267717,333776950,"""knife_link""",,0.690402675876,0.640622534324,0.190589636965,0.276807702098,"[0.0, 0.0, 0.0, 0.0, 0.0, 0.0, 0.0, 0.0, 0.0]",,0.0883726060708,-0.0379082256137,0.012167806682,"[0.0, 0.0, 0.0, 0.0, 0.0, 0.0, 0.0, 0.0, 0.0]",,-1.46265105,6.92059725,-7.25435655,"[0.0, 0.0, 0.0, 0.0, 0.0, 0.0, 0.0, 0.0, 0.0]"
1569267717446908598,,19161,,1569267717,396851062,"""knife_link""",,0.692977954706,0.639782273799,0.188517037446,0.273717962539,"[0.0, 0.0, 0.0, 0.0, 0.0, 0.0, 0.0, 0.0, 0.0]",,0.137241825127,0.0109609934423,0.064527684242,"[0.0, 0.0, 0.0, 0.0, 0.0, 0.0, 0.0, 0.0, 0.0]",,-1.38411945,6.50830635,-7.067844,"[0.0, 0.0, 0.0, 0.0, 0.0, 0.0, 0.0, 0.0, 0.0]"
1569267717482549331,,19162,,1569267717,446003913,"""knife_link""",,0.694015941806,0.64035333606,0.186173561169,0.271346425511,"[0.0, 0.0, 0.0, 0.0, 0.0, 0.0, 0.0, 0.0, 0.0]",,0.158185776151,0.0161969811983,-0.00528548583798,"[0.0, 0.0, 0.0, 0.0, 0.0, 0.0, 0.0, 0.0, 0.0]",,-1.4332017,6.4984899,-7.0482111,"[0.0, 0.0, 0.0, 0.0, 0.0, 0.0, 0.0, 0.0, 0.0]"
