rosbagTimestamp,header,seq,stamp,secs,nsecs,frame_id,orientation,x,y,z,w,orientation_covariance,angular_velocity,x_1,y_1,z_1,angular_velocity_covariance,linear_acceleration,x_2,y_2,z_2,linear_acceleration_covariance,Label
1.56926568545212e+18,NaN,49696,NaN,1569265685,414015054,NaN,NaN,0.0218932541679,0.0262019284842,0.202881166528,0.97860787685,NaN,NaN,0.0248136945785,0.00320777725367,0.00128174887713,NaN,NaN,-0.30430995,0.30430995,9.5808552,NaN,7
1.56926568550809e+18,NaN,49697,NaN,1569265685,451307058,NaN,NaN,0.0211427774312,0.0260418649981,0.20417741088,0.97835902874,NaN,NaN,-0.0310368414855,0.00146244800167,-0.000463580374871,NaN,NaN,-0.28467705,0.196329,9.72810195,NaN,7
1.56926568556417e+18,NaN,49698,NaN,1569265685,507399082,NaN,NaN,0.0207376074845,0.0259627792432,0.20588101149,0.978012727339,NaN,NaN,-0.00834756120948,0.00146244800167,-0.000463580374871,NaN,NaN,-0.2552277,0.22577835,9.70846905,NaN,7
1.56926568560213e+18,NaN,49699,NaN,1569265685,563679933,NaN,NaN,0.0208193683673,0.0259596362386,0.206468188185,0.977887283103,NaN,NaN,0.00736040205852,0.00146244800167,0.00128174887713,NaN,NaN,-0.26504415,0.2748606,9.66920325,NaN,7
1.56926568565779e+18,NaN,49700,NaN,1569265685,601494073,NaN,NaN,0.0207901885189,0.0258749496883,0.206419532513,0.977900420103,NaN,NaN,0.00386974355452,-0.000282881250328,0.00128174887713,NaN,NaN,-0.2748606,0.26504415,9.6790197,NaN,7
1.5692656857151e+18,NaN,49701,NaN,1569265685,657090902,NaN,NaN,0.0209470416048,0.0259298039791,0.206902135405,0.977793624994,NaN,NaN,0.0108510605625,0.00320777725367,0.00128174887713,NaN,NaN,-0.2552277,0.2552277,9.64957035,NaN,7
1.56926568575192e+18,NaN,49702,NaN,1569265685,714365005,NaN,NaN,0.0209142586544,0.0258678594591,0.207809242978,0.977603583343,NaN,NaN,0.00386974355452,-0.000282881250328,0.00128174887713,NaN,NaN,-0.2748606,0.2355948,9.64957035,NaN,7
1.56926568580851e+18,NaN,49703,NaN,1569265685,751403093,NaN,NaN,0.0208299660419,0.0258597265547,0.208666840926,0.977422905684,NaN,NaN,0.00386974355452,0.00320777725367,-0.000463580374871,NaN,NaN,-0.26504415,0.2355948,9.64957035,NaN,7
1.56926568586495e+18,NaN,49704,NaN,1569265685,807670116,NaN,NaN,0.0207277698737,0.0257509244205,0.208695051416,0.977421927809,NaN,NaN,0.000375294200017,-0.000280052437825,-0.000458944571122,NaN,NaN,-0.2552277,0.24541125,9.7575513,NaN,7
1.56926568590186e+18,NaN,49705,NaN,1569265685,864214897,NaN,NaN,0.0208143545284,0.0257773163378,0.210154386146,0.977106660806,NaN,NaN,0.00901092105542,0.00145062404603,-0.000454355125411,NaN,NaN,-0.26504415,0.24541125,9.70846905,NaN,7
1.56926568595852e+18,NaN,49706,NaN,1569265685,901187896,NaN,NaN,0.0207089419317,0.0256684725351,0.20993968517,0.977157918574,NaN,NaN,0.000281432047463,-0.000291758153907,0.00127806438532,NaN,NaN,-0.26504415,0.2355948,9.72810195,NaN,7
1.569265686015e+18,NaN,49707,NaN,1569265685,957567930,NaN,NaN,0.0206967558717,0.0256270093745,0.211683913084,0.976782893804,NaN,NaN,0.00546224560543,-0.000288840572368,-0.00046259221801,NaN,NaN,-0.2552277,0.2355948,9.7379184,NaN,7
1.56926568605213e+18,NaN,49708,NaN,1569265686,14147043,NaN,NaN,0.0206437778207,0.0255260399789,0.211101596999,0.976912673408,NaN,NaN,0.00197158710143,-0.000288840572368,-0.00046259221801,NaN,NaN,-0.2748606,0.22577835,9.68883615,NaN,7
1.56926568610844e+18,NaN,49709,NaN,1569265686,51573038,NaN,NaN,0.0204844176637,0.025421032786,0.211112605319,0.976916387211,NaN,NaN,-0.00150388068855,-0.000285952166644,-0.00045796629583,NaN,NaN,-0.2748606,0.20614545,9.70846905,NaN,7
1.56926568616432e+18,NaN,49710,NaN,1569265686,107544898,NaN,NaN,0.020499243424,0.0253120807841,0.209710416213,0.977220865985,NaN,NaN,0.00373210706745,-0.000285952166644,0.00128736295617,NaN,NaN,-0.2748606,0.2159619,9.6986526,NaN,2
1.569265686202e+18,NaN,49711,NaN,1569265686,163517951,NaN,NaN,0.020228502033,0.0252029782612,0.210320044105,0.977098304491,NaN,NaN,-0.00494459380062,-0.000283092644978,-0.000453386632872,NaN,NaN,-0.28467705,0.22577835,9.72810195,NaN,7
1.56926568625849e+18,NaN,49712,NaN,1569265686,201344966,NaN,NaN,0.0201635408601,0.0251409999552,0.209678838109,0.977239042707,NaN,NaN,0.00203672320738,0.00146223660702,0.00129194261913,NaN,NaN,-0.28467705,0.2355948,9.66920325,NaN,7
1.56926568631474e+18,NaN,49713,NaN,1569265686,257841110,NaN,NaN,0.020083438579,0.0251178279355,0.210230907464,0.977122671808,NaN,NaN,0.00203672320738,0.00146223660702,-0.000453386632872,NaN,NaN,-0.2748606,0.2355948,9.66920325,NaN,7
1.56926568635233e+18,NaN,49714,NaN,1569265686,314021110,NaN,NaN,0.019937004766,0.0250536563195,0.211586610159,0.97683465159,NaN,NaN,0.000288480015825,-0.000280261718528,0.00127902319294,NaN,NaN,-0.28467705,0.2159619,9.70846905,NaN,2
1.56926568640893e+18,NaN,49715,NaN,1569265686,351486921,NaN,NaN,0.0198769188066,0.0250162072123,0.211779484887,0.976795038509,NaN,NaN,0.00374134713463,0.00145041685814,-0.000461642998473,NaN,NaN,-0.28467705,0.22577835,9.70846905,NaN,7
1.56926568646481e+18,NaN,49716,NaN,1569265686,407938003,NaN,NaN,0.019645329035,0.0249591008884,0.212092600754,0.976733245587,NaN,NaN,-0.00323996987337,0.00145041685814,-0.000461642998473,NaN,NaN,-0.28467705,0.20614545,9.6986526,NaN,7
1.56926568650222e+18,NaN,49717,NaN,1569265686,463977098,NaN,NaN,0.019542770603,0.0248640758257,0.211987393304,0.976760565815,NaN,NaN,0.000248181744321,-0.000291963269924,-0.000457026568488,NaN,NaN,-0.2748606,0.22577835,9.72810195,NaN,7
1.56926568655828e+18,NaN,49718,NaN,1569265686,501523971,NaN,NaN,0.0193975957199,0.0248391346668,0.213443529312,0.976446931719,NaN,NaN,0.000245699926878,0.00143883232226,0.00127541965668,NaN,NaN,-0.28467705,0.2355948,9.72810195,NaN,7
1.56926568661447e+18,NaN,49719,NaN,1569265686,557590961,NaN,NaN,0.0192405519435,0.0248727567433,0.214502948232,0.976217000637,NaN,NaN,0.000245699926878,0.00318416157426,-0.000469909595323,NaN,NaN,-0.2944935,0.2159619,9.64957035,NaN,7
1.56926568665195e+18,NaN,49720,NaN,1569265686,613929033,NaN,NaN,0.0190468829731,0.0248480375226,0.215676980352,0.975962720306,NaN,NaN,-0.00149962932512,0.00143883232226,0.00127541965668,NaN,NaN,-0.2944935,0.2159619,9.68883615,NaN,2
1.56926568670775e+18,NaN,49721,NaN,1569265686,651375055,NaN,NaN,0.0188804863396,0.0248307522861,0.217210221158,0.975626301819,NaN,NaN,0.000243242927609,0.00142444399903,-0.00046521049937,NaN,NaN,-0.30430995,0.196329,9.72810195,NaN,7
1.56926568676504e+18,NaN,49722,NaN,1569265686,707242965,NaN,NaN,0.0185852726259,0.0248388482986,0.217747196229,0.975512059275,NaN,NaN,-0.00499274482839,0.00316977325103,-0.00046521049937,NaN,NaN,-0.3337593,0.196329,9.6790197,NaN,7
1.56926568680152e+18,NaN,49723,NaN,1569265686,764208078,NaN,NaN,0.0183646172256,0.0247525095686,0.218900684085,0.975260244556,NaN,NaN,-0.00321494142063,-0.000317676400438,-0.000460558394376,NaN,NaN,-0.28467705,0.22577835,9.70846905,NaN,7
1.56926568686031e+18,NaN,49724,NaN,1569265686,800910949,NaN,NaN,0.0183174103802,0.0247362765329,0.220011181541,0.975011625109,NaN,NaN,0.00376637558737,-0.000317676400438,-0.000460558394376,NaN,NaN,-0.3337593,0.26504415,9.55140585,NaN,7
1.56926568691454e+18,NaN,49725,NaN,1569265686,859442949,NaN,NaN,0.019939118386,0.0253605831636,0.220617090688,0.974826841893,NaN,NaN,0.0631075701554,0.00840896985956,0.00303010010962,NaN,NaN,-0.3730251,0.2552277,9.45324135,NaN,2
1.56926568695169e+18,NaN,49726,NaN,1569265686,914005041,NaN,NaN,0.0200339830215,0.0254189813387,0.221353544308,0.974656412965,NaN,NaN,0.00900236334337,0.00317298210356,-0.000460558394376,NaN,NaN,-0.2552277,0.24541125,9.5219565,NaN,7
1.56926568700799e+18,NaN,49727,NaN,1569265686,950877904,NaN,NaN,0.0206108223811,0.025573697206,0.222384960358,0.974405515901,NaN,NaN,0.0404182898794,0.00317298210356,0.00128477085762,NaN,NaN,-0.2748606,0.2552277,9.6593868,NaN,7
1.56926568706465e+18,NaN,49728,NaN,1569265687,7378101,NaN,NaN,0.0202507607675,0.0253949752402,0.223224458477,0.974225765959,NaN,NaN,-0.00845092917663,-0.000317676400438,-0.000460558394376,NaN,NaN,-0.18651255,0.2355948,9.72810195,NaN,7
1.56926568710158e+18,NaN,49729,NaN,1569265687,63935041,NaN,NaN,0.0199606079274,0.0254280795189,0.224418147484,0.973956611961,NaN,NaN,-0.00318279200642,0.00659700420149,0.00127192314905,NaN,NaN,-0.16687965,0.1766961,9.70846905,NaN,2
1.56926568715889e+18,NaN,49730,NaN,1569265687,101011037,NaN,NaN,0.0201298871376,0.0253733496758,0.224983617153,0.973824087186,NaN,NaN,0.0177611590176,-0.00387497131051,0.00127192314905,NaN,NaN,-0.3337593,0.1766961,9.8753487,NaN,2
1.56926568721457e+18,NaN,49731,NaN,1569265687,157874107,NaN,NaN,0.019519711917,0.0251684329344,0.225420426048,0.973740808609,NaN,NaN,-0.0171454260224,-0.000384312806513,-0.000473406102952,NaN,NaN,-0.2748606,0.20614545,9.88516515,NaN,7
1.5692656872517e+18,NaN,49732,NaN,1569265687,214099884,NaN,NaN,0.0193777379961,0.0249927782722,0.226097235262,0.973591240979,NaN,NaN,-0.00143746275442,-0.00212964205851,-0.000473406102952,NaN,NaN,-0.20614545,0.24541125,9.94406385,NaN,7
1.56926568730774e+18,NaN,49733,NaN,1569265687,251024007,NaN,NaN,0.0193742526886,0.0249106406681,0.226500533675,0.973499669522,NaN,NaN,0.00379852500158,-0.000384312806513,-0.000473406102952,NaN,NaN,-0.22577835,0.3141264,9.6593868,NaN,7
1.56926568736478e+18,NaN,49734,NaN,1569265687,307363033,NaN,NaN,0.0197921674108,0.0250280396953,0.226834552743,0.973410475093,NaN,NaN,0.0195064882696,0.00310634569749,-0.000473406102952,NaN,NaN,-0.2355948,0.2748606,9.62993745,NaN,7
1.5692656874018e+18,NaN,49735,NaN,1569265687,364211082,NaN,NaN,0.0201008056857,0.0251379400883,0.227298079581,0.973293185324,NaN,NaN,0.0160158297656,0.00310634569749,0.00127192314905,NaN,NaN,-0.26504415,0.2552277,9.6004881,NaN,7
1.56926568745828e+18,NaN,49736,NaN,1569265687,401074886,NaN,NaN,0.0200328415497,0.025093932404,0.227537882105,0.973239688886,NaN,NaN,0.00379852500158,0.00136101644549,0.00127192314905,NaN,NaN,-0.2748606,0.2159619,9.68883615,NaN,2
1.5692656875143e+18,NaN,49737,NaN,1569265687,457602024,NaN,NaN,0.0200325996014,0.0251414025084,0.229466696654,0.972785505628,NaN,NaN,0.00721629167052,0.00134740628103,-0.000468672041923,NaN,NaN,-0.30430995,0.196329,9.7182855,NaN,7
1.56926568755174e+18,NaN,49738,NaN,1569265687,513659954,NaN,NaN,0.0198161696259,0.0250243814984,0.229218836347,0.972851388865,NaN,NaN,-0.00325568384148,-0.000397922970968,-0.000468672041923,NaN,NaN,-0.2944935,0.196329,9.72810195,NaN,7
1.56926568760815e+18,NaN,49739,NaN,1569265687,551178932,NaN,NaN,0.0195447611445,0.0249272689562,0.230081876856,0.972655624318,NaN,NaN,-0.00667887892202,-0.000393943741258,-0.000463985321504,NaN,NaN,-0.2944935,0.20614545,9.7575513,NaN,7
1.56926568766452e+18,NaN,49740,NaN,1569265687,607536077,NaN,NaN,0.0193859376293,0.024908148992,0.231320783345,0.972365396715,NaN,NaN,0.000299413705118,0.00133787165563,-0.000459345468288,NaN,NaN,-0.28467705,0.20614545,9.72810195,NaN,7
1.56926568770188e+18,NaN,49741,NaN,1569265687,663937091,NaN,NaN,0.019116048525,0.0248371437781,0.231408961761,0.972351574995,NaN,NaN,-0.00488720831037,0.00132449293908,-0.000454752013606,NaN,NaN,-0.2944935,0.20614545,9.7379184,NaN,7
1.56926568775832e+18,NaN,49742,NaN,1569265687,701291084,NaN,NaN,0.0190002332,0.0249157829412,0.23293745933,0.971986797719,NaN,NaN,0.00380104357013,0.00822275184761,-0.00045020449347,NaN,NaN,-0.2159619,0.2159619,9.7968171,NaN,7
1.56926568781467e+18,NaN,49743,NaN,1569265687,757576942,NaN,NaN,0.0189396633635,0.024782093872,0.231734623524,0.972278870096,NaN,NaN,0.000307281215469,-0.000498855468269,-0.000445702448535,NaN,NaN,-0.24541125,0.2355948,9.78700065,NaN,7
1.56926568785204e+18,NaN,49744,NaN,1569265687,814055919,NaN,NaN,0.0186411563349,0.024564713602,0.232938521865,0.972002431667,NaN,NaN,-0.00660729543461,-0.00394961883255,-0.00044124542405,NaN,NaN,-0.26504415,0.2159619,9.7968171,NaN,7
1.56926568790795e+18,NaN,49745,NaN,1569265687,851280927,NaN,NaN,0.0187856873043,0.0244837742465,0.232849011201,0.972023137962,NaN,NaN,0.0125913263374,-0.00394961883255,-0.00044124542405,NaN,NaN,-0.30430995,0.24541125,9.6593868,NaN,7
1.5692656879645e+18,NaN,49746,NaN,1569265687,907490015,NaN,NaN,0.0194189211433,0.0246223357643,0.235077678638,0.971470602277,NaN,NaN,0.0282992896054,-0.000458960328546,0.00130408382795,NaN,NaN,-0.26504415,0.2748606,9.5219565,NaN,7
1.56926568800239e+18,NaN,49747,NaN,1569265687,963823080,NaN,NaN,0.0190757850769,0.0244266952163,0.235722912465,0.971325980052,NaN,NaN,-0.00835262468661,-0.00220428958055,0.00130408382795,NaN,NaN,-0.2552277,0.2159619,9.70846905,NaN,2
1.56926568805837e+18,NaN,49748,NaN,1569265688,1419067,NaN,NaN,0.0189900089955,0.0243269870559,0.235597670495,0.971360548363,NaN,NaN,0.000374021573395,-0.000458960328546,-0.00044124542405,NaN,NaN,-0.24541125,0.24541125,9.6593868,NaN,7
1.56926568811448e+18,NaN,49749,NaN,1569265688,57784080,NaN,NaN,0.0190287063602,0.0243748232705,0.237405588006,0.970918309184,NaN,NaN,0.00735533858139,0.00128636892345,-0.00044124542405,NaN,NaN,-0.28467705,0.2355948,9.6593868,NaN,7
1.5692656881517e+18,NaN,49750,NaN,1569265688,113673925,NaN,NaN,0.0188340046012,0.0242603302298,0.237072548772,0.971006345637,NaN,NaN,-0.00311663693061,-0.000458960328546,-0.00044124542405,NaN,NaN,-0.28467705,0.20614545,9.6790197,NaN,7
1.56926568820809e+18,NaN,49751,NaN,1569265688,150938987,NaN,NaN,0.0187294438771,0.0242379259985,0.238423894792,0.970677998755,NaN,NaN,0.00211935082539,0.00128636892345,-0.00044124542405,NaN,NaN,-0.26504415,0.2355948,9.6986526,NaN,7
1.56926568826434e+18,NaN,49752,NaN,1569265688,207523107,NaN,NaN,0.0186939757414,0.024292129338,0.238858923702,0.970570369572,NaN,NaN,0.00386468007739,0.00303169817545,0.00130408382795,NaN,NaN,-0.30430995,0.22577835,9.62993745,NaN,7
1.56926568830199e+18,NaN,49753,NaN,1569265688,263780117,NaN,NaN,0.0188299112724,0.0243528636555,0.238273829852,0.970710025951,NaN,NaN,0.00910066783339,0.00303169817545,-0.00044124542405,NaN,NaN,-0.28467705,0.2355948,9.66920325,NaN,7
1.56926568835845e+18,NaN,49754,NaN,1569265688,301250934,NaN,NaN,0.0188322320905,0.0243736695621,0.239000325627,0.970530842177,NaN,NaN,0.00735533858139,0.00303169817545,-0.00044124542405,NaN,NaN,-0.26504415,0.24541125,9.6986526,NaN,7
1.5692656884143e+18,NaN,49755,NaN,1569265688,357713937,NaN,NaN,0.0188615057872,0.0243473104657,0.239984177448,0.970288125583,NaN,NaN,0.00561000932939,-0.000458960328546,-0.00044124542405,NaN,NaN,-0.28467705,0.24541125,9.6986526,NaN,7
1.56926568845166e+18,NaN,49756,NaN,1569265688,413569927,NaN,NaN,0.0189694867867,0.0242975645692,0.239465184154,0.970415484473,NaN,NaN,0.00735533858139,-0.000458960328546,-0.00044124542405,NaN,NaN,-0.2748606,0.2355948,9.68883615,NaN,7
1.56926568850862e+18,NaN,49757,NaN,1569265688,450946092,NaN,NaN,0.0189479830952,0.0242510816361,0.240205797182,0.970234009905,NaN,NaN,0.0055539092361,-0.000454370725261,0.00129104298967,NaN,NaN,-0.2748606,0.2355948,9.70846905,NaN,7
1.56926568856444e+18,NaN,49758,NaN,1569265688,508004903,NaN,NaN,0.0195415268059,0.024402954693,0.241284947611,0.969950616572,NaN,NaN,0.0264978602601,0.00129095852674,0.00129104298967,NaN,NaN,-0.2552277,0.24541125,9.66920325,NaN,7
1.56926568860194e+18,NaN,49759,NaN,1569265688,563688039,NaN,NaN,0.0192305207236,0.0242702594965,0.241934348833,0.969798387517,NaN,NaN,-0.0066633955279,-0.000454370725261,-0.000454286262329,NaN,NaN,-0.2552277,0.2159619,9.6986526,NaN,7
1.56926568865864e+18,NaN,49760,NaN,1569265688,601273059,NaN,NaN,0.0191379500119,0.0242909338011,0.243031004525,0.96952546137,NaN,NaN,0.0038085799841,0.00303628777874,-0.000454286262329,NaN,NaN,-0.28467705,0.2159619,9.68883615,NaN,7
1.56926568871428e+18,NaN,49761,NaN,1569265688,657974004,NaN,NaN,0.0190779053998,0.0243567717127,0.243907324446,0.969304904702,NaN,NaN,0.0038085799841,0.00303628777874,0.00129104298967,NaN,NaN,-0.3141264,0.2159619,9.68883615,NaN,2
1.56926568875164e+18,NaN,49762,NaN,1569265688,713692903,NaN,NaN,0.0189223414926,0.0242579686172,0.244101555041,0.96926153683,NaN,NaN,-0.00141313369418,-0.000449827018008,0.00127813255977,NaN,NaN,-0.2748606,0.2159619,9.7379184,NaN,2
1.56926568880914e+18,NaN,49763,NaN,1569265688,751041889,NaN,NaN,0.0189157784191,0.0242231221165,0.243564553903,0.96939761799,NaN,NaN,0.00551250148068,0.00128254721165,-0.000462524725303,NaN,NaN,-0.28467705,0.22577835,9.7379184,NaN,7
1.56926568886441e+18,NaN,49764,NaN,1569265688,808317899,NaN,NaN,0.0188279055708,0.0242612646042,0.243915294936,0.969310182505,NaN,NaN,0.00202184297668,0.00302787646365,-0.000462524725303,NaN,NaN,-0.2944935,0.22577835,9.6790197,NaN,7
1.56926568890191e+18,NaN,49765,NaN,1569265688,863532066,NaN,NaN,0.0185267052488,0.024209594126,0.243264420371,0.969480829376,NaN,NaN,-0.00663775525049,0.00299759769902,-0.00045789947805,NaN,NaN,-0.28467705,0.20614545,9.7182855,NaN,7
1.56926568895863e+18,NaN,49766,NaN,1569265688,901093959,NaN,NaN,0.0185525958383,0.0241789316402,0.24302245067,0.969541782969,NaN,NaN,0.00732487876551,0.00125226844702,-0.00045789947805,NaN,NaN,-0.26504415,0.22577835,9.74773485,NaN,7
1.56926568901445e+18,NaN,49767,NaN,1569265688,957818984,NaN,NaN,0.0184033158402,0.0240885689781,0.244138092617,0.969266552886,NaN,NaN,-0.00138774981954,-0.000488130196935,0.00127455547621,NaN,NaN,-0.24541125,0.2552277,9.7182855,NaN,7
1.56926568905195e+18,NaN,49768,NaN,1569265689,13865947,NaN,NaN,0.0180224999187,0.0240242759106,0.245252151818,0.968994017367,NaN,NaN,-0.00836906682754,0.00125719905507,-0.00047077377579,NaN,NaN,-0.30430995,0.20614545,9.6790197,NaN,7
1.56926568910758e+18,NaN,49769,NaN,1569265689,51235914,NaN,NaN,0.0181359172962,0.0240576494044,0.245447630965,0.968941576393,NaN,NaN,0.0125748841965,0.00125719905507,-0.00047077377579,NaN,NaN,-0.3141264,0.2355948,9.53177295,NaN,7
1.56926568916475e+18,NaN,49770,NaN,1569265689,106893062,NaN,NaN,0.0180602800992,0.0238184018585,0.244682497149,0.96914239697,NaN,NaN,-0.00138774981954,-0.00397878870093,0.00127455547621,NaN,NaN,-0.20614545,0.24541125,9.81645,NaN,7
1.56926568920184e+18,NaN,49771,NaN,1569265689,163978099,NaN,NaN,0.0180952993443,0.0238624865743,0.245021750841,0.969054943484,NaN,NaN,0.00559356718846,0.00300252830707,-0.00047077377579,NaN,NaN,-0.24541125,0.24541125,9.6397539,NaN,7
1.56926568925789e+18,NaN,49772,NaN,1569265689,201241970,NaN,NaN,0.0179678662551,0.0238637296661,0.245921821021,0.968829260569,NaN,NaN,0.00035757943246,0.00300252830707,-0.00047077377579,NaN,NaN,-0.2748606,0.2355948,9.66920325,NaN,7
1.5692656893144e+18,NaN,49773,NaN,1569265689,257328987,NaN,NaN,0.0178809145875,0.0237829026592,0.245770493548,0.96887125612,NaN,NaN,0.00035757943246,-0.000488130196935,-0.00047077377579,NaN,NaN,-0.28467705,0.22577835,9.6986526,NaN,7
1.56926568935199e+18,NaN,49774,NaN,1569265689,313764095,NaN,NaN,0.0178626375733,0.0237378475503,0.246764552856,0.968619995781,NaN,NaN,0.0038097555571,-0.000483248894965,-0.000466066038032,NaN,NaN,-0.26504415,0.22577835,9.70846905,NaN,7
1.56926568940797e+18,NaN,49775,NaN,1569265689,351121902,NaN,NaN,0.0177256404255,0.0236467984097,0.246924790837,0.968583903576,NaN,NaN,-0.00141196987692,-0.000478416406016,-0.000461405377652,NaN,NaN,-0.26504415,0.20614545,9.72810195,NaN,7
1.56926568946507e+18,NaN,49776,NaN,1569265689,407356023,NaN,NaN,0.0178049164187,0.0236300475951,0.245524153275,0.968938850475,NaN,NaN,0.00556934713108,0.00126691284598,-0.000461405377652,NaN,NaN,-0.28467705,0.2355948,9.6790197,NaN,7
1.56926568950196e+18,NaN,49777,NaN,1569265689,464097976,NaN,NaN,0.0177240481392,0.0235356561414,0.245312990539,0.968996113346,NaN,NaN,0.000330025781333,-0.000473632241956,-0.000456791323875,NaN,NaN,-0.2552277,0.22577835,9.70846905,NaN,7
1.56926568955797e+18,NaN,49778,NaN,1569265689,501288890,NaN,NaN,0.017599206618,0.0234533649161,0.245648192795,0.968915462245,NaN,NaN,-0.00140115043596,-0.000468895919536,-0.000452223410636,NaN,NaN,-0.26504415,0.2355948,9.74773485,NaN,7
1.56926568961501e+18,NaN,49779,NaN,1569265689,557389974,NaN,NaN,0.0176516696295,0.0234977325565,0.244916099626,0.969098745881,NaN,NaN,0.00558016657204,0.00302176258446,-0.000452223410636,NaN,NaN,-0.28467705,0.2355948,9.6790197,NaN,7
1.56926568965186e+18,NaN,49780,NaN,1569265689,614134073,NaN,NaN,0.017553017194,0.0235088483433,0.244381193011,0.96923529555,NaN,NaN,0.00034417881604,0.00302176258446,-0.000452223410636,NaN,NaN,-0.28467705,0.22577835,9.6986526,NaN,7
1.56926568970816e+18,NaN,49781,NaN,1569265689,651027917,NaN,NaN,0.0176569469104,0.0235590021897,0.244687686994,0.969154859388,NaN,NaN,0.01256148358,0.00302176258446,0.00129310584136,NaN,NaN,-0.28467705,0.22577835,9.68883615,NaN,7
1.56926568976504e+18,NaN,49782,NaN,1569265689,707495927,NaN,NaN,0.0173761162722,0.0235475516356,0.245296499995,0.96900630054,NaN,NaN,-0.00489180893996,0.00302176258446,0.00129310584136,NaN,NaN,-0.28467705,0.196329,9.74773485,NaN,2
1.56926568980274e+18,NaN,49783,NaN,1569265689,764288902,NaN,NaN,0.0171870530166,0.0234837560618,0.24586405474,0.968867372243,NaN,NaN,-0.00311501489108,0.00126366899914,-0.00044770117653,NaN,NaN,-0.2355948,0.24541125,9.72810195,NaN,7
1.5692656898579e+18,NaN,49784,NaN,1569265689,801964998,NaN,NaN,0.017099184746,0.0234093226269,0.24601873629,0.968831462582,NaN,NaN,0.00037188717679,-0.000476843650332,0.00128465179472,NaN,NaN,-0.2748606,0.22577835,9.72810195,NaN,7
1.56926568991469e+18,NaN,49785,NaN,1569265689,857362031,NaN,NaN,0.0169156792163,0.0233232434204,0.246453725144,0.968726198405,NaN,NaN,-0.00308758361394,-0.000472075213829,0.00127180527677,NaN,NaN,-0.2944935,0.22577835,9.7379184,NaN,7
1.56926568995198e+18,NaN,49786,NaN,1569265689,913894891,NaN,NaN,0.0169053245811,0.0232518134827,0.246074304474,0.968824545441,NaN,NaN,0.00212692010064,-0.000467354461691,0.001259087224,NaN,NaN,-0.2748606,0.24541125,9.74773485,NaN,7
1.56926569000798e+18,NaN,49787,NaN,1569265689,951355934,NaN,NaN,0.0167977166188,0.0231655120573,0.245803710229,0.968897172978,NaN,NaN,-0.00135010101932,-0.000462680917074,-0.00048137960772,NaN,NaN,-0.2748606,0.22577835,9.74773485,NaN,7
1.56926569006449e+18,NaN,49788,NaN,1569265690,7513046,NaN,NaN,0.0167392681581,0.0230676817284,0.244862909484,0.969138707575,NaN,NaN,0.000391275950349,-0.000458054107903,-0.000476565811642,NaN,NaN,-0.26504415,0.2159619,9.72810195,NaN,7
1.56926569010175e+18,NaN,49789,NaN,1569265690,63852071,NaN,NaN,0.0167171725722,0.0230120781764,0.244636336613,0.969197628561,NaN,NaN,0.00211523915033,-0.000453473566824,-0.000471800153526,NaN,NaN,-0.2944935,0.2355948,9.72810195,NaN,7
1.569265690158e+18,NaN,49790,NaN,1569265690,100903034,NaN,NaN,0.0166009299876,0.0229271144527,0.244409994076,0.969258743238,NaN,NaN,-0.00136166516014,-0.000448938831156,-0.000467082151991,NaN,NaN,-0.2748606,0.20614545,9.72810195,NaN,7
1.56926569021462e+18,NaN,49791,NaN,1569265690,157361030,NaN,NaN,0.0166487138749,0.0229065423042,0.242504843906,0.969736825808,NaN,NaN,0.0038355793699,0.00128342651664,-0.000462411330471,NaN,NaN,-0.30430995,0.22577835,9.72810195,NaN,7
1.56926569025196e+18,NaN,49792,NaN,1569265690,213984966,NaN,NaN,0.0165497758278,0.0228437389386,0.242994033261,0.969617537131,NaN,NaN,0.000341471657244,-0.00045728370801,-0.000457787217166,NaN,NaN,-0.28467705,0.20614545,9.72810195,NaN,7
1.56926569030826e+18,NaN,49793,NaN,1569265690,251390933,NaN,NaN,0.0165197791662,0.0228021201939,0.241773091074,0.969924189122,NaN,NaN,0.00206593290015,0.00127516508855,-0.000453209344994,NaN,NaN,-0.2944935,0.22577835,9.7182855,NaN,7
1.56926569036469e+18,NaN,49794,NaN,1569265690,307569980,NaN,NaN,0.0164374263119,0.0227247072894,0.241643502276,0.969959698391,NaN,NaN,0.00031739761167,-0.000465462521816,-0.000448677251545,NaN,NaN,-0.2748606,0.20614545,9.7182855,NaN,7
1.56926569040206e+18,NaN,49795,NaN,1569265690,364031076,NaN,NaN,0.0163587825804,0.0226595119898,0.241849337656,0.969911250901,NaN,NaN,0.000314223635554,-0.000460807896598,0.00128368548045,NaN,NaN,-0.28467705,0.22577835,9.7182855,NaN,7
1.56926569045783e+18,NaN,49796,NaN,1569265690,401359081,NaN,NaN,0.0163231235645,0.0226442070216,0.242451073413,0.969761966942,NaN,NaN,0.00380488213955,0.0012845213554,-0.000461643771549,NaN,NaN,-0.26504415,0.22577835,9.68883615,NaN,7
1.56926569051483e+18,NaN,49797,NaN,1569265690,457351922,NaN,NaN,0.0161569616392,0.0225533422037,0.242365455896,0.969788268198,NaN,NaN,-0.00314467051976,-0.000456199817632,-0.000457027333834,NaN,NaN,-0.28467705,0.22577835,9.72810195,NaN,7
1.56926569055232e+18,NaN,49798,NaN,1569265690,514179944,NaN,NaN,0.0162956545643,0.0226072478844,0.243366654842,0.969533926841,NaN,NaN,0.00907263424424,0.00128912943437,0.00128830191817,NaN,NaN,-0.2748606,0.2355948,9.70846905,NaN,7
1.5692656906079e+18,NaN,49799,NaN,1569265690,551472902,NaN,NaN,0.015923071253,0.0224817660785,0.244654176892,0.969218943132,NaN,NaN,-0.0136166460318,-0.000456199817632,0.00128830191817,NaN,NaN,-0.2552277,0.18651255,9.78700065,NaN,2
1.56926569066484e+18,NaN,49800,NaN,1569265690,607383966,NaN,NaN,0.0161236965835,0.0227194535877,0.244480362392,0.969253942598,NaN,NaN,0.0125632927482,0.00652511719037,-0.000457027333834,NaN,NaN,-0.3533922,0.2159619,9.64957035,NaN,7
1.56926569070206e+18,NaN,49801,NaN,1569265690,664127111,NaN,NaN,0.0160103969128,0.0227417259996,0.245296839907,0.969048988143,NaN,NaN,0.000345987984238,0.00128912943437,0.00128830191817,NaN,NaN,-0.34357575,0.2159619,9.6593868,NaN,2
1.5692656907584e+18,NaN,49802,NaN,1569265690,701441049,NaN,NaN,0.0156879433784,0.0225596877331,0.244764234922,0.969193179003,NaN,NaN,-0.0136166460318,-0.00220152906963,-0.000457027333834,NaN,NaN,-0.26504415,0.18651255,9.76736775,NaN,2
1.56926569081489e+18,NaN,49803,NaN,1569265690,757850885,NaN,NaN,0.0156905455742,0.0226571522461,0.246511149564,0.968748013351,NaN,NaN,0.00558197574024,0.00303445868637,-0.000457027333834,NaN,NaN,-0.2944935,0.2159619,9.7182855,NaN,7
1.56926569085236e+18,NaN,49804,NaN,1569265690,814109086,NaN,NaN,0.0156482428428,0.0226251864699,0.247008525302,0.96862274486,NaN,NaN,0.00207040406388,-0.000451637819455,-0.000452457060495,NaN,NaN,-0.3141264,0.2159619,9.70846905,NaN,7
1.56926569090791e+18,NaN,49805,NaN,1569265690,851555109,NaN,NaN,0.0155254970407,0.0225968446756,0.248888589337,0.968144003571,NaN,NaN,0.000321824063757,-0.000447121441261,-0.00044793248989,NaN,NaN,-0.2944935,0.2159619,9.72810195,NaN,7
1.56926569096461e+18,NaN,49806,NaN,1569265690,907349109,NaN,NaN,0.0153591189444,0.022575726819,0.250120958504,0.96782949952,NaN,NaN,-0.00140927013636,0.00128522573263,0.00128442279449,NaN,NaN,-0.2748606,0.196329,9.7379184,NaN,2
1.56926569100217e+18,NaN,49807,NaN,1569265690,964077949,NaN,NaN,0.0153951543348,0.022576499374,0.249136850848,0.96808270331,NaN,NaN,0.00378845044344,0.00127237347531,-0.000456297392936,NaN,NaN,-0.30430995,0.22577835,9.7182855,NaN,7
1.56926569105831e+18,NaN,49808,NaN,1569265691,1276016,NaN,NaN,0.0152810335513,0.0225602717468,0.250230100465,0.967802883326,NaN,NaN,0.000294814020049,0.00125964974055,-0.000451734419007,NaN,NaN,-0.28467705,0.20614545,9.7182855,NaN,7
1.56926569111464e+18,NaN,49809,NaN,1569265691,57713985,NaN,NaN,0.0151395916004,0.0225012551468,0.251535602965,0.967467997778,NaN,NaN,-0.00143601007963,-0.000480822716333,0.00128065888466,NaN,NaN,-0.28467705,0.22577835,9.74773485,NaN,7
1.56926569115238e+18,NaN,49810,NaN,1569265691,113979101,NaN,NaN,0.0150368545581,0.0224485275314,0.252793946938,0.967142790392,NaN,NaN,0.000306225980644,-0.00047601448917,-0.000460023663663,NaN,NaN,-0.2748606,0.20614545,9.74773485,NaN,7
1.56926569120794e+18,NaN,49811,NaN,1569265691,151442050,NaN,NaN,0.0149895190399,0.0224077351024,0.253455458824,0.966971322284,NaN,NaN,0.00203103968032,-0.000471254344278,-0.000455423427027,NaN,NaN,-0.28467705,0.2355948,9.72810195,NaN,7
1.56926569126484e+18,NaN,49812,NaN,1569265691,207389116,NaN,NaN,0.0149388457283,0.0223225957929,0.252849924385,0.967132590881,NaN,NaN,0.000282853324035,-0.000466541800835,0.00127700676672,NaN,NaN,-0.26504415,0.2159619,9.72810195,NaN,2
1.569265691302e+18,NaN,49813,NaN,1569265691,263930082,NaN,NaN,0.0150124288622,0.0222940284433,0.250419935408,0.967764154753,NaN,NaN,0.00373577670975,0.00126599957665,-0.000463639260424,NaN,NaN,-0.28467705,0.22577835,9.70846905,NaN,7
1.56926569135881e+18,NaN,49814,NaN,1569265691,301450014,NaN,NaN,0.0149218580437,0.0222367566575,0.251284986069,0.967542619517,NaN,NaN,0.000242667023697,-0.000474536378593,-0.00045900286782,NaN,NaN,-0.26504415,0.2159619,9.7379184,NaN,7
1.56926569141475e+18,NaN,49815,NaN,1569265691,357716083,NaN,NaN,0.0149581271547,0.0221983053073,0.251165179254,0.967574050088,NaN,NaN,0.00369599227242,-0.000469791014808,-0.000454412839141,NaN,NaN,-0.28467705,0.2355948,9.7182855,NaN,7
1.56926569145182e+18,NaN,49816,NaN,1569265691,414022922,NaN,NaN,0.0148595639705,0.0221542173659,0.25264881164,0.967190240846,NaN,NaN,0.000203280430736,-0.000465093104659,-0.00044986871075,NaN,NaN,-0.2748606,0.22577835,9.72810195,NaN,7
1.56926569150795e+18,NaN,49817,NaN,1569265691,451292991,NaN,NaN,0.014778903386,0.0221301728246,0.252849263442,0.967139643197,NaN,NaN,0.000201247626428,0.00126743378587,-0.000445370023642,NaN,NaN,-0.28467705,0.22577835,9.7379184,NaN,7
1.56926569156411e+18,NaN,49818,NaN,1569265691,507483959,NaN,NaN,0.0147902155805,0.0221045136206,0.253338009833,0.96701214717,NaN,NaN,0.00365498706912,-0.000473116511472,-0.000440916323406,NaN,NaN,-0.2944935,0.2159619,9.70846905,NaN,7
1.56926569160225e+18,NaN,49819,NaN,1569265691,563515901,NaN,NaN,0.0146935033315,0.0220594761081,0.254486654998,0.966712999241,NaN,NaN,0.000162685279473,-0.000468385346357,-0.000436507160172,NaN,NaN,-0.28467705,0.2159619,9.72810195,NaN,7
1.56926569165911e+18,NaN,49820,NaN,1569265691,601555109,NaN,NaN,0.0146573178589,0.0219772384512,0.252908600089,0.96712946601,NaN,NaN,0.000161058426678,-0.000463701492893,-0.00043214208857,NaN,NaN,-0.28467705,0.2159619,9.72810195,NaN,7
1.56926569171482e+18,NaN,49821,NaN,1569265691,657922029,NaN,NaN,0.0145221336827,0.0219507845362,0.253010578777,0.967105432576,NaN,NaN,-0.00156842811707,0.00126881148152,-0.000427820667685,NaN,NaN,-0.28467705,0.20614545,9.72810195,NaN,7
1.56926569175187e+18,NaN,49822,NaN,1569265691,714005947,NaN,NaN,0.0145365491564,0.0219260376297,0.253803707687,0.966897934415,NaN,NaN,0.00363088404254,-0.000471752592779,0.00130433349847,NaN,NaN,-0.28467705,0.22577835,9.7182855,NaN,7
1.56926569180811e+18,NaN,49823,NaN,1569265691,751317024,NaN,NaN,0.0144589816272,0.021873820261,0.254106338247,0.966820791409,NaN,NaN,0.000138823283157,-0.000467035066852,-0.000436585795992,NaN,NaN,-0.28467705,0.2159619,9.70846905,NaN,7
1.56926569186476e+18,NaN,49824,NaN,1569265691,807532072,NaN,NaN,0.0143643293165,0.0217885402457,0.253229887101,0.96705405735,NaN,NaN,-0.00159044090916,-0.000462364716183,-0.000432219938032,NaN,NaN,-0.28467705,0.2159619,9.7182855,NaN,7
1.5692656919026e+18,NaN,49825,NaN,1569265691,863943099,NaN,NaN,0.0143004549552,0.0217712520785,0.252521333878,0.967240655425,NaN,NaN,0.000154888342845,0.00128296453582,-0.000432219938032,NaN,NaN,-0.2944935,0.2159619,9.6986526,NaN,7
1.56926569195846e+18,NaN,49826,NaN,1569265691,901719093,NaN,NaN,0.0142276997823,0.0217532663799,0.252592870823,0.967223453794,NaN,NaN,0.000153339459417,0.00127013489046,0.00129997822083,NaN,NaN,-0.2944935,0.22577835,9.72810195,NaN,7
1.5692656920146e+18,NaN,49827,NaN,1569265691,957627058,NaN,NaN,0.0141099116062,0.021686228127,0.252882890933,0.967150898969,NaN,NaN,-0.00157606989466,-0.000470442417926,-0.00044089752086,NaN,NaN,-0.28467705,0.2159619,9.72810195,NaN,7
1.56926569205263e+18,NaN,49828,NaN,1569265692,13710975,NaN,NaN,0.0140227598621,0.0216827604547,0.25340437224,0.967015741462,NaN,NaN,0.000169259357342,0.00127488683407,-0.00044089752086,NaN,NaN,-0.28467705,0.2159619,9.6986526,NaN,7
1.56926569210822e+18,NaN,49829,NaN,1569265692,51875114,NaN,NaN,0.0139396692928,0.0216659171881,0.253841409068,0.966902690396,NaN,NaN,0.000167566763769,0.00126213796573,-0.000436488545652,NaN,NaN,-0.28467705,0.2159619,9.72810195,NaN,7
1.56926569216487e+18,NaN,49830,NaN,1569265692,107528924,NaN,NaN,0.0139125715125,0.0216699991487,0.254023793724,0.966855089304,NaN,NaN,0.00189376705561,0.00124951658608,-0.000432123660195,NaN,NaN,-0.28467705,0.22577835,9.70846905,NaN,7
1.56926569220203e+18,NaN,49831,NaN,1569265692,164021968,NaN,NaN,0.0138860466031,0.0215841911528,0.252490943749,0.96725881941,NaN,NaN,0.000146953425575,-0.000490854539265,-0.000427802423593,NaN,NaN,-0.2748606,0.2159619,9.72810195,NaN,7
1.56926569225825e+18,NaN,49832,NaN,1569265692,201313972,NaN,NaN,0.0138821682606,0.0215619255422,0.252784048788,0.967182812838,NaN,NaN,0.00363761192958,-0.000490854539265,0.00131752682841,NaN,NaN,-0.30430995,0.22577835,9.6593868,NaN,7
1.56926569231478e+18,NaN,49833,NaN,1569265692,257477998,NaN,NaN,0.0138504376569,0.0215736294461,0.253357317314,0.967032995121,NaN,NaN,0.00189228267758,0.00125447471274,0.00131752682841,NaN,NaN,-0.28467705,0.22577835,9.6004881,NaN,7
1.56926569235194e+18,NaN,49834,NaN,1569265692,313931941,NaN,NaN,0.0138250475214,0.0215358255511,0.253965270879,0.966874716531,NaN,NaN,0.00189228267758,-0.000490854539265,0.00131752682841,NaN,NaN,-0.28467705,0.2159619,9.6986526,NaN,2
1.56926569240814e+18,NaN,49835,NaN,1569265692,351264953,NaN,NaN,0.0138319226072,0.0215758097372,0.254975155599,0.966607900019,NaN,NaN,0.00532911176976,0.00296980592509,-0.000423524399357,NaN,NaN,-0.26504415,0.24541125,9.7968171,NaN,7
1.56926569246416e+18,NaN,49836,NaN,1569265692,407489061,NaN,NaN,0.0138821210484,0.021603435952,0.255797051189,0.966389386776,NaN,NaN,0.00532911176976,0.00122447667309,-0.000423524399357,NaN,NaN,-0.26504415,0.2159619,9.6986526,NaN,7
1.56926569250186e+18,NaN,49837,NaN,1569265692,463653087,NaN,NaN,0.0138110567297,0.0215452061675,0.256201265807,0.966284621735,NaN,NaN,9.21927736218e-05,-0.000515644053123,-0.000419289155364,NaN,NaN,-0.2748606,0.2159619,9.72810195,NaN,7
1.56926569255823e+18,NaN,49838,NaN,1569265692,501276016,NaN,NaN,0.0137424538507,0.0214979809014,0.256600238266,0.966180779927,NaN,NaN,9.12708458856e-05,-0.000510487612592,-0.00041509626381,NaN,NaN,-0.28467705,0.22577835,9.72810195,NaN,7
1.56926569261437e+18,NaN,49839,NaN,1569265692,557645082,NaN,NaN,0.0136763712143,0.0214472836958,0.256999430519,0.966076737949,NaN,NaN,9.03581374267e-05,-0.000505382736466,-0.000410945301172,NaN,NaN,-0.28467705,0.22577835,9.7182855,NaN,7
1.56926569265177e+18,NaN,49840,NaN,1569265692,613575935,NaN,NaN,0.013629384292,0.0214280111447,0.258673845324,0.965630841454,NaN,NaN,0.00183568738943,-0.000505382736466,-0.000410945301172,NaN,NaN,-0.28467705,0.22577835,9.6986526,NaN,7
1.56926569270882e+18,NaN,49841,NaN,1569265692,651304960,NaN,NaN,0.0135783613308,0.0213683413333,0.258406948152,0.965704339453,NaN,NaN,8.94545560525e-05,-0.000500328909101,-0.00040683584816,NaN,NaN,-0.2748606,0.22577835,9.70846905,NaN,7
1.56926569276432e+18,NaN,49842,NaN,1569265692,708234071,NaN,NaN,0.0136073333757,0.0213022158245,0.256692547108,0.966162508245,NaN,NaN,0.00181643596997,-0.00049532562001,-0.000402767489679,NaN,NaN,-0.28467705,0.22577835,9.70846905,NaN,7
1.56926569280176e+18,NaN,49843,NaN,1569265692,763813018,NaN,NaN,0.013554746377,0.0212372544272,0.256348043814,0.966256140114,NaN,NaN,7.03956507922e-05,-0.00049037236381,-0.000398739814782,NaN,NaN,-0.2748606,0.2159619,9.7182855,NaN,7
1.56926569285814e+18,NaN,49844,NaN,1569265692,801213979,NaN,NaN,0.0137639698711,0.0212616793659,0.257072861218,0.966060059287,NaN,NaN,0.0157783589188,-0.00049037236381,-0.000398739814782,NaN,NaN,-0.26504415,0.22577835,9.80663355,NaN,7
1.5692656929144e+18,NaN,49845,NaN,1569265692,857601881,NaN,NaN,0.0136937395424,0.0212666007782,0.257823684186,0.965860839387,NaN,NaN,7.03956507922e-05,0.00125495688819,-0.000398739814782,NaN,NaN,-0.2748606,0.2552277,9.61030455,NaN,7
1.56926569295159e+18,NaN,49846,NaN,1569265692,913683891,NaN,NaN,0.0169548069476,0.0223946121435,0.264977307909,0.963845445163,NaN,NaN,0.0855915289988,0.0204535786602,0.254419330977,NaN,NaN,0.06871515,2.2970493,9.8949816,NaN,2
1.56926569300855e+18,NaN,49847,NaN,1569265692,951106071,NaN,NaN,0.00912628420877,0.0233660887667,0.263984838984,0.96420057126,NaN,NaN,-0.396119344553,0.167061235828,0.133991612589,NaN,NaN,-2.71915665,-3.4357575,12.88899885,NaN,5
1.56926569306455e+18,NaN,49848,NaN,1569265693,7785081,NaN,NaN,0.0206494453382,0.037937171311,0.276701240252,0.959984788985,NaN,NaN,0.539377134519,0.38697272158,0.535417340549,NaN,NaN,-2.1203532,-2.14980255,10.84717725,NaN,5
1.56926569310234e+18,NaN,49849,NaN,1569265693,63843965,NaN,NaN,0.233078297868,0.131883321931,0.208635742852,0.940612791357,NaN,NaN,8.57487301073,1.09557639789,-2.09479384221,NaN,NaN,-2.66025795,12.39817635,15.08788365,NaN,3
1.56926569315872e+18,NaN,49850,NaN,1569265693,101577043,NaN,NaN,0.101183955778,0.0687587910747,0.257967921356,0.95837705904,NaN,NaN,-7.90801644516,-1.29901533585,1.94215271766,NaN,NaN,1.24668915,11.49506295,9.68883615,NaN,3
1.56926569321432e+18,NaN,49851,NaN,1569265693,157875061,NaN,NaN,-0.153122549624,0.00570671829718,0.269141207817,0.950833281084,NaN,NaN,-9.73537617201,0.296215600476,-0.0335599956028,NaN,NaN,1.52154975,6.3806925,8.0887548,NaN,1
1.56926569325165e+18,NaN,49852,NaN,1569265693,213717937,NaN,NaN,-0.222274333872,-0.055654316986,0.273126758274,0.934290367829,NaN,NaN,-3.06472777086,-1.53638011412,0.167152868377,NaN,NaN,6.54757215,1.9043913,11.5637781,NaN,2
1.5692656933081e+18,NaN,49853,NaN,1569265693,251180887,NaN,NaN,-0.194919228125,-0.131752780388,0.29897312621,0.924804178824,NaN,NaN,0.127479431047,-4.69542606024,0.961277678037,NaN,NaN,4.28978865,0.588987,7.5979323,NaN,5
1.56926569338338e+18,NaN,49854,NaN,1569265693,307528018,NaN,NaN,-0.059430912913,-0.198026506684,0.393625185744,0.895719086761,NaN,NaN,3.97593043171,-4.3550868561,2.04861780203,NaN,NaN,1.6491636,1.10925885,0.83439825,NaN,5
1.56926569340184e+18,NaN,49855,NaN,1569265693,382736921,NaN,NaN,-0.0688164869673,-0.297787658983,0.456322451299,0.835677343069,NaN,NaN,-1.1326482889,-2.63768287214,1.81997967002,NaN,NaN,6.7929834,5.84078775,10.04222835,NaN,5
1.56926569349594e+18,NaN,49856,NaN,1569265693,401279926,NaN,NaN,-0.137760443056,-0.32450139578,0.433244901877,0.829469565122,NaN,NaN,-8.88889148479,1.42020763876,-0.544941466439,NaN,NaN,2.8860363,1.24668915,7.48995135,NaN,2
1.56926569351468e+18,NaN,49857,NaN,1569265693,495191097,NaN,NaN,-0.090295611181,-0.279184161884,0.391125667759,0.87230935933,NaN,NaN,1.0053800448,0.880900899896,-1.51010854279,NaN,NaN,3.11181465,1.3154043,5.21253495,NaN,5
1.56926569355183e+18,NaN,49858,NaN,1569265693,514004945,NaN,NaN,-0.0544331695778,-0.263297129833,0.409908166578,0.871600221687,NaN,NaN,4.10508479635,0.140881297048,-0.0230880200908,NaN,NaN,3.15108045,-5.1241869,12.8399166,NaN,5
1.56926569360889e+18,NaN,49859,NaN,1569265693,551209926,NaN,NaN,-0.0460291102902,-0.240966778641,0.429860048593,0.868928461509,NaN,NaN,0.956510825747,0.91929814344,0.493529438501,NaN,NaN,5.82115485,1.52154975,13.53688455,NaN,2
1.56926569366488e+18,NaN,49860,NaN,1569265693,608089923,NaN,NaN,0.0138778875694,-0.165088017273,0.43703397737,0.884055797681,NaN,NaN,2.9653847948,1.60346721022,-0.695039782111,NaN,NaN,5.9095029,3.9069471,12.71230275,NaN,5
1.5692656937021e+18,NaN,49861,NaN,1569265693,664283037,NaN,NaN,0.0085326757284,-0.181157374551,0.43562129602,0.881670735334,NaN,NaN,-0.527019038453,-0.394934783316,-0.270924773875,NaN,NaN,4.2603393,-1.2957714,5.58556005,NaN,2
1.56926569375858e+18,NaN,49862,NaN,1569265693,701385021,NaN,NaN,0.0207109723189,-0.174599782454,0.444025304497,0.878594047646,NaN,NaN,0.626643597119,0.0518695051962,-0.0894105316668,NaN,NaN,2.944935,1.1583411,10.74901275,NaN,2
1.56926569381454e+18,NaN,49863,NaN,1569265693,757904052,NaN,NaN,0.0294320827576,-0.146225115585,0.432988412643,0.888973004423,NaN,NaN,0.495743903219,0.844248985604,-0.862591390303,NaN,NaN,3.2590614,2.11053675,8.8151721,NaN,2
1.56926569385195e+18,NaN,49864,NaN,1569265693,813955068,NaN,NaN,0.0403687120001,-0.1359189092,0.415860363965,0.898307617076,NaN,NaN,0.284559063727,0.214185125632,-1.04585096176,NaN,NaN,2.99401725,1.5313662,9.0900327,NaN,2
1.56926569390877e+18,NaN,49865,NaN,1569265693,851298093,NaN,NaN,0.0552274196732,-0.136306740086,0.420029471612,0.895514180625,NaN,NaN,0.560321085543,-0.325121613236,-0.269179444623,NaN,NaN,3.91676355,1.97310645,9.7968171,NaN,2
1.56926569396419e+18,NaN,49866,NaN,1569265693,907972097,NaN,NaN,0.0633781435027,-0.125787889773,0.427505080265,0.89297257744,NaN,NaN,0.331682953531,0.23861973516,-0.0597399343828,NaN,NaN,3.72043455,2.1399861,8.43233055,NaN,2
1.569265694002e+18,NaN,49867,NaN,1569265693,963685989,NaN,NaN,0.0745467571151,-0.106188556055,0.43240854659,0.892294581628,NaN,NaN,0.565557073299,0.472493854928,-0.206347591551,NaN,NaN,3.141264,2.4541125,8.92315305,NaN,2
1.56926569405838e+18,NaN,49868,NaN,1569265694,1179933,NaN,NaN,0.07556796131,-0.0986987919731,0.430604767004,0.893939352708,NaN,NaN,0.0245050051788,0.3171595515,-0.560649429707,NaN,NaN,2.24796705,3.1216311,8.8544379,NaN,2
1.56926569411461e+18,NaN,49869,NaN,1569265694,57719945,NaN,NaN,0.0695958661445,-0.089455722224,0.423520869926,0.898768135791,NaN,NaN,-0.195406480573,0.36951942906,-0.572866734471,NaN,NaN,2.159619,2.85658695,9.0900327,NaN,2
1.56926569417101e+18,NaN,49870,NaN,1569265694,113965034,NaN,NaN,0.0660869294145,-0.0849701822456,0.427284804798,0.897686070672,NaN,NaN,-0.130829298249,0.19498650386,-0.138279750723,NaN,NaN,2.30686575,2.56209345,9.0900327,NaN,2
1.56926569420867e+18,NaN,49871,NaN,1569265694,170047998,NaN,NaN,0.0677464616923,-0.0834350101356,0.441594966127,0.890754119779,NaN,NaN,0.0419582976988,0.0309255541722,0.284089928261,NaN,NaN,2.36576445,2.3363151,9.0703998,NaN,2
1.56926569426482e+18,NaN,49872,NaN,1569265694,208002090,NaN,NaN,0.0693197350427,-0.0813614346109,0.456063681793,0.883504957225,NaN,NaN,0.0716288949828,0.0763041147242,0.439424231689,NaN,NaN,2.5326441,2.46392895,9.1292985,NaN,2
1.56926569430222e+18,NaN,49873,NaN,1569265694,264008998,NaN,NaN,0.0670827970266,-0.0727319894342,0.474450259966,0.874703896684,NaN,NaN,0.0524302732108,0.32588619776,0.448150877949,NaN,NaN,2.38539735,2.56209345,9.1685643,NaN,2
1.56926569435849e+18,NaN,49874,NaN,1569265694,301492929,NaN,NaN,0.06376037977,-0.0654128836982,0.48919256861,0.867379040233,NaN,NaN,-0.0243642138772,0.435841940636,0.469094828973,NaN,NaN,1.83567615,2.7093402,9.09984915,NaN,2
1.5692656944147e+18,NaN,49875,NaN,1569265694,357846021,NaN,NaN,0.0695985091727,-0.0573442412929,0.508902236869,0.856087728461,NaN,NaN,0.314229661011,0.137390638544,0.516218718777,NaN,NaN,0.91292985,2.3755809,9.68883615,NaN,2
1.56926569445174e+18,NaN,49876,NaN,1569265694,414005041,NaN,NaN,0.0849735155292,-0.0496645162272,0.527526257078,0.843818099818,NaN,NaN,0.595227670583,-0.0685582131918,0.505746743265,NaN,NaN,0.2552277,3.2786943,10.0716777,NaN,5
1.56926569450843e+18,NaN,49877,NaN,1569265694,451246023,NaN,NaN,0.104927466237,-0.0433488482109,0.539117550064,0.834543810355,NaN,NaN,1.07693854413,-0.312904308472,0.367865732357,NaN,NaN,0.87366405,1.69824585,8.62865955,NaN,2
1.56926569456442e+18,NaN,49878,NaN,1569265694,507617950,NaN,NaN,0.095189815763,-0.032005409532,0.561410178522,0.821421429102,NaN,NaN,-0.0557801404132,0.585940256308,0.673298351457,NaN,NaN,2.944935,2.66025795,8.6777418,NaN,5
1.56926569460221e+18,NaN,49879,NaN,1569265694,563848972,NaN,NaN,0.105810798132,-0.0395112040709,0.579407875905,0.807173744054,NaN,NaN,0.162386016087,-0.353046881268,0.622683803149,NaN,NaN,4.76097825,2.6897073,8.0102232,NaN,5
1.56926569465826e+18,NaN,49880,NaN,1569265694,601485967,NaN,NaN,0.112060608271,-0.0472063857808,0.585635710773,0.801401766584,NaN,NaN,-0.0348361893892,-0.492673221428,0.168898197629,NaN,NaN,3.58300425,2.91548565,8.6188431,NaN,2
1.56926569471458e+18,NaN,49881,NaN,1569265694,657749891,NaN,NaN,0.107935069903,-0.0375406854693,0.586611950535,0.801765013648,NaN,NaN,0.0227596759268,0.374755416816,-0.218564896315,NaN,NaN,3.72043455,2.2774164,8.8937037,NaN,2
1.56926569475211e+18,NaN,49882,NaN,1569265694,713963985,NaN,NaN,0.100942114166,-0.0468766269136,0.582917864834,0.80487268204,NaN,NaN,-0.499093770421,-0.15407934654,-0.335501956199,NaN,NaN,1.95347355,3.58300425,9.17838075,NaN,2
1.56926569480813e+18,NaN,49883,NaN,1569265694,751435995,NaN,NaN,0.0948196653277,-0.0477030321123,0.583117793659,0.805423671438,NaN,NaN,-0.411827307821,0.0885214194882,-0.312812675923,NaN,NaN,0.5497212,2.99401725,9.5023236,NaN,2
1.56926569486502e+18,NaN,49884,NaN,1569265694,807509899,NaN,NaN,0.088779026862,-0.043457483759,0.578887482397,0.809394226702,NaN,NaN,-0.181443846557,0.2298930889,-0.428004406555,NaN,NaN,2.1988848,2.71915665,8.98205175,NaN,2
1.56926569490231e+18,NaN,49885,NaN,1569265694,864072084,NaN,NaN,0.0999337788,-0.058839615649,0.566239801358,0.816041436964,NaN,NaN,-0.108140017973,-0.71258470718,-0.696785111363,NaN,NaN,2.355948,2.3363151,8.9526024,NaN,2
1.56926569495807e+18,NaN,49886,NaN,1569265694,901487112,NaN,NaN,0.0987336068429,-0.066714945703,0.561531351005,0.81883046642,NaN,NaN,-0.457205868373,-0.35479221052,-0.595556014747,NaN,NaN,2.09090385,2.8271376,8.8544379,NaN,2
1.56926569501496e+18,NaN,49887,NaN,1569265694,957493066,NaN,NaN,0.106280446749,-0.0633053532169,0.560966540507,0.81854348652,NaN,NaN,0.209509905891,-0.0563409084278,-0.276160761631,NaN,NaN,3.2786943,2.36576445,9.06058335,NaN,2
1.56926569505181e+18,NaN,49888,NaN,1569265695,14214992,NaN,NaN,0.107501619259,-0.062820459576,0.57321931106,0.809886790325,NaN,NaN,0.0175236881708,0.00823627389619,0.296307233025,NaN,NaN,2.9842008,2.83695405,8.86425435,NaN,2
1.56926569510833e+18,NaN,49889,NaN,1569265695,51249027,NaN,NaN,0.107355015757,-0.0614741594248,0.581764785154,0.803893999896,NaN,NaN,0.00705171265879,0.0937574072442,0.207295441173,NaN,NaN,3.4750233,1.40375235,9.0900327,NaN,2
1.56926569516467e+18,NaN,49890,NaN,1569265695,107635021,NaN,NaN,0.108561126385,-0.0605654569751,0.588225424495,0.799085200237,NaN,NaN,0.00530638340679,-0.00049037236381,0.0571971255012,NaN,NaN,2.552277,2.52282765,9.06058335,NaN,2
1.56926569520231e+18,NaN,49891,NaN,1569265695,163844108,NaN,NaN,0.111260600614,-0.0604521407107,0.596072447027,0.792883506784,NaN,NaN,0.0367223099428,-0.0528502499238,0.125264966329,NaN,NaN,2.5719099,2.6504415,9.031134,NaN,2
1.5692656952582e+18,NaN,49892,NaN,1569265695,201570987,NaN,NaN,0.111379535407,-0.0593062458325,0.608787520445,0.783233760284,NaN,NaN,0.0157783589188,0.0728134562202,0.507492072517,NaN,NaN,2.8271376,2.56209345,8.80535565,NaN,2
1.56926569531464e+18,NaN,49893,NaN,1569265695,257559061,NaN,NaN,0.109550636607,-0.0592283522236,0.618214216958,0.776081079696,NaN,NaN,-0.0767240914372,0.0588508222042,0.210786099677,NaN,NaN,3.0038337,2.2381506,8.8544379,NaN,2
1.56926569535197e+18,NaN,49894,NaN,1569265695,314023017,NaN,NaN,0.110366002351,-0.0541383386538,0.618015405263,0.776495553542,NaN,NaN,0.0559209317148,0.10772004126,-0.248235493599,NaN,NaN,2.50319475,2.4148467,9.06058335,NaN,2
1.56926569540824e+18,NaN,49895,NaN,1569265695,351484060,NaN,NaN,0.112121119323,-0.0505521375799,0.617754021259,0.776693829772,NaN,NaN,0.0698835657308,0.0605961514562,-0.365172553483,NaN,NaN,2.3166822,2.71915665,9.11948205,NaN,2
1.56926569546461e+18,NaN,49896,NaN,1569265695,407526016,NaN,NaN,0.113639940507,-0.0482253404185,0.618920347405,0.775691874413,NaN,NaN,0.0210143466748,0.0134722616522,-0.169695677259,NaN,NaN,2.30686575,2.75842245,9.0900327,NaN,2
1.56926569550243e+18,NaN,49897,NaN,1569265695,464076042,NaN,NaN,0.113781376982,-0.0487171107648,0.623539503684,0.771931945651,NaN,NaN,-0.0557801404132,-0.0231796526398,-0.000398739814782,NaN,NaN,2.42466315,2.40503025,9.08021625,NaN,2
1.56926569555815e+18,NaN,49898,NaN,1569265695,501481056,NaN,NaN,0.113847815187,-0.0490490676664,0.62837315079,0.767971384431,NaN,NaN,-0.0802147499412,-0.0214343233878,0.0153092234532,NaN,NaN,2.552277,2.38539735,9.0900327,NaN,2
1.5692656956152e+18,NaN,49899,NaN,1569265695,557533979,NaN,NaN,0.114655918703,-0.0471582422268,0.632128521316,0.764881463388,NaN,NaN,0.0105423711628,0.0274348956682,-0.0527586173748,NaN,NaN,2.56209345,2.38539735,9.0115011,NaN,2
1.56926569565252e+18,NaN,49900,NaN,1569265695,614552021,NaN,NaN,0.114958582716,-0.0466771787477,0.636031116665,0.761623387166,NaN,NaN,-0.0348361893892,0.00300028614019,-0.0335599956028,NaN,NaN,2.6897073,2.52282765,9.0115011,NaN,2
1.56926569572713e+18,NaN,49901,NaN,1569265695,651653051,NaN,NaN,0.115783405104,-0.0433242624669,0.642872397295,0.75593140706,NaN,NaN,0.0943181752588,0.100738724252,0.146208917353,NaN,NaN,2.11053675,2.5130112,9.27654525,NaN,2
1.56926569576477e+18,NaN,49902,NaN,1569265695,726392984,NaN,NaN,0.115388734387,-0.0403271590396,0.650871157012,0.749283589297,NaN,NaN,0.0210143466748,0.0658321392122,0.116538320069,NaN,NaN,2.01237225,2.48356185,9.08021625,NaN,2
1.5692656958025e+18,NaN,49903,NaN,1569265695,764224052,NaN,NaN,0.115603267377,-0.0433721521229,0.654269921383,0.746113671611,NaN,NaN,-0.169226541793,-0.138371383272,-0.0353053248548,NaN,NaN,2.50319475,2.32649865,9.1292985,NaN,2
1.56926569585871e+18,NaN,49904,NaN,1569265695,801733970,NaN,NaN,0.116786537534,-0.0423108801717,0.657116765379,0.743483860436,NaN,NaN,-0.00167493360121,-0.00747168937181,-0.110354482691,NaN,NaN,2.66025795,2.5326441,8.9722353,NaN,2
1.56926569593342e+18,NaN,49905,NaN,1569265695,857965946,NaN,NaN,0.117509964934,-0.0415354439575,0.660944754304,0.740012328812,NaN,NaN,-0.0138922383652,-0.00398103086781,-0.0230880200908,NaN,NaN,2.4148467,2.52282765,9.0703998,NaN,2
1.56926569595225e+18,NaN,49906,NaN,1569265695,932785034,NaN,NaN,0.120418720063,-0.0376925626314,0.665862824013,0.735326663584,NaN,NaN,0.0943181752588,0.0204535786602,0.0135638942012,NaN,NaN,2.4344796,2.46392895,9.17838075,NaN,2
1.56926569600889e+18,NaN,49907,NaN,1569265695,951617956,NaN,NaN,0.133197852326,-0.0198795413392,0.668197637138,0.731693278427,NaN,NaN,2.18696794841,0.400935355596,-0.358191236475,NaN,NaN,0.87366405,2.77805535,11.08277205,NaN,2
1.56926569606428e+18,NaN,49908,NaN,1569265696,8099079,NaN,NaN,0.227754189564,0.0856859228464,0.657041680914,0.713499951859,NaN,NaN,4.98996672712,0.353811465792,-0.506544222895,NaN,NaN,-1.26632205,6.92059725,6.4199583,NaN,1
1.56926569610221e+18,NaN,49909,NaN,1569265696,63755035,NaN,NaN,0.263375683931,0.123618762965,0.645298894649,0.706357549066,NaN,NaN,1.89200730482,0.0169629201562,-0.405315126279,NaN,NaN,0.95219565,9.49250715,7.4801349,NaN,1
1.5692656961579e+18,NaN,49910,NaN,1569265696,101398944,NaN,NaN,0.262903106428,0.148327021926,0.600901958388,0.740133695762,NaN,NaN,0.637115572631,0.0483788466922,-3.25718312405,NaN,NaN,1.14852465,8.05930545,9.88516515,NaN,3
1.56926569623317e+18,NaN,49911,NaN,1569265696,157320976,NaN,NaN,0.372947249436,0.203664555355,0.520289836325,0.740762839407,NaN,NaN,4.56236106038,-1.65680783251,-2.20125892659,NaN,NaN,4.95730725,6.92059725,4.95730725,NaN,3
1.56926569625215e+18,NaN,49912,NaN,1569265696,232559919,NaN,NaN,0.506687699381,0.258544460939,0.435807505603,0.697491329748,NaN,NaN,4.33895891612,-1.44213233452,-0.927168572627,NaN,NaN,3.34740945,10.1698422,8.4814128,NaN,1
1.56926569632697e+18,NaN,49913,NaN,1569265696,251394033,NaN,NaN,0.524335954461,0.270625609888,0.417585934437,0.690981601414,NaN,NaN,2.63900822467,-0.902825595648,-1.38793549515,NaN,NaN,2.6700744,9.9538803,1.8847584,NaN,1
1.5692656963835e+18,NaN,49914,NaN,1569265696,326210975,NaN,NaN,0.58681524019,0.300111333468,0.359889042107,0.660349103714,NaN,NaN,2.34579291034,-0.810323145292,-0.707257086875,NaN,NaN,0.52027185,8.5795773,1.7080623,NaN,1
1.56926569640179e+18,NaN,49915,NaN,1569265696,382906913,NaN,NaN,0.610161921084,0.320869791937,0.315368111474,0.652141059087,NaN,NaN,1.45392966257,-0.749236621472,-1.11915479035,NaN,NaN,-0.67733505,8.6777418,0.588987,NaN,1
1.56926569645916e+18,NaN,49916,NaN,1569265696,401163101,NaN,NaN,0.613274723395,0.32753513862,0.304943186492,0.650864424919,NaN,NaN,0.879716338659,-0.593902318044,-1.01094437672,NaN,NaN,-1.2957714,8.4225141,-0.5497212,NaN,1
1.56926569655154e+18,NaN,49917,NaN,1569265696,458376884,NaN,NaN,0.62347696847,0.345674845999,0.281783333367,0.642170945829,NaN,NaN,0.872735021651,-0.194221919336,-0.682822477347,NaN,NaN,-2.14980255,9.031134,-0.77549955,NaN,1
1.56926569655208e+18,NaN,49918,NaN,1569265696,550997972,NaN,NaN,0.623870461263,0.369260359047,0.257505455734,0.638845345187,NaN,NaN,0.382297501839,-0.0406329451598,-0.621735953527,NaN,NaN,-2.159619,9.6593868,-0.55953765,NaN,1
1.56926569660967e+18,NaN,49919,NaN,1569265696,551841020,NaN,NaN,0.622467950366,0.371132011764,0.259029974423,0.638512453254,NaN,NaN,0.158895357583,-0.218656528864,-0.321539322183,NaN,NaN,-2.22833415,9.92443095,0.32394285,NaN,1
1.56926569666471e+18,NaN,49920,NaN,1569265696,608884096,NaN,NaN,0.618898301081,0.377647648074,0.253971465498,0.640191878687,NaN,NaN,0.0227596759268,-0.0528502499238,-0.304086029663,NaN,NaN,-2.13016965,9.7379184,-0.6086199,NaN,4
1.56926569670251e+18,NaN,49921,NaN,1569265696,664076089,NaN,NaN,0.614684788544,0.387877360029,0.244768135874,0.641718259028,NaN,NaN,0.106535480023,-0.0528502499238,-0.504798893643,NaN,NaN,-2.0418216,8.03967255,-0.52027185,NaN,1
1.56926569675823e+18,NaN,49922,NaN,1569265696,701627969,NaN,NaN,0.612004179245,0.392096944145,0.24529996724,0.641512897026,NaN,NaN,-0.0365815186412,0.0501241759442,-0.152242384739,NaN,NaN,-2.5915428,10.1698422,-1.61971425,NaN,4
1.56926569683334e+18,NaN,49923,NaN,1569265696,757740974,NaN,NaN,0.607949173875,0.397554685338,0.243682663333,0.642624955741,NaN,NaN,-0.0156375676172,0.0152175909042,-0.213328908559,NaN,NaN,-2.44429605,10.14039285,0.0392658,NaN,4
1.56926569685217e+18,NaN,49924,NaN,1569265696,832637071,NaN,NaN,0.597348113069,0.408228867247,0.239975669632,0.647252734056,NaN,NaN,-0.130829298249,0.0728134562202,-0.373899199743,NaN,NaN,-2.7093402,10.209108,-0.42210735,NaN,1
1.56926569690925e+18,NaN,49925,NaN,1569265696,851433038,NaN,NaN,0.593411087268,0.412565452591,0.239054196826,0.64846443219,NaN,NaN,-0.141301273761,0.0204535786602,-0.520506856911,NaN,NaN,-2.7878718,10.10112705,-0.69696795,NaN,1
1.56926569696424e+18,NaN,49926,NaN,1569265696,908550024,NaN,NaN,0.582290867744,0.422442206321,0.228369125342,0.655993498635,NaN,NaN,-0.153518578525,-0.103464798232,-0.670605172583,NaN,NaN,-2.67989085,9.39434265,-0.7067844,NaN,1
1.56926569700296e+18,NaN,49927,NaN,1569265696,963567972,NaN,NaN,0.57459675631,0.429950498853,0.221218062159,0.660336054709,NaN,NaN,-0.0784694206892,-0.0650675546878,-0.480364284115,NaN,NaN,-2.7093402,8.13783705,-0.4711896,NaN,1
1.5692656970583e+18,NaN,49928,NaN,1569265697,1676082,NaN,NaN,0.56597389543,0.433340431452,0.216986143355,0.666938253329,NaN,NaN,-0.319324857465,-0.187240602328,-0.517016198407,NaN,NaN,-1.73751165,6.7929834,-0.0196329,NaN,1
1.56926569711457e+18,NaN,49929,NaN,1569265697,57688951,NaN,NaN,0.564491191823,0.433279087556,0.211821577763,0.669888457756,NaN,NaN,0.0157783589188,-0.227383175124,-0.166205018755,NaN,NaN,-1.766961,7.1660085,0.4908225,NaN,1
1.56926569715174e+18,NaN,49930,NaN,1569265697,113778114,NaN,NaN,0.565405720591,0.429433153919,0.215945234437,0.670276952582,NaN,NaN,-0.0470534941532,-0.11044611524,0.188096819401,NaN,NaN,-2.5130112,4.76097825,0.2552277,NaN,5
1.56926569720835e+18,NaN,49931,NaN,1569265697,151187896,NaN,NaN,0.567932381005,0.420400183548,0.234246587073,0.667716281607,NaN,NaN,-0.312343540457,0.12517333378,1.0171282141,NaN,NaN,-4.34868735,5.4579462,0.46137315,NaN,5
1.56926569726433e+18,NaN,49932,NaN,1569265697,207402944,NaN,NaN,0.589887271668,0.390031002015,0.276232528979,0.650848994871,NaN,NaN,0.00356105415479,0.105974712008,2.08352438707,NaN,NaN,-6.9893124,10.1894751,-0.52027185,NaN,3
1.56926569730203e+18,NaN,49933,NaN,1569265697,263665914,NaN,NaN,0.594946005583,0.354505324356,0.31534869128,0.648783807098,NaN,NaN,-0.764383816725,-0.12789940776,1.77809176797,NaN,NaN,-2.6700744,8.7562734,-2.01237225,NaN,5
1.56926569735841e+18,NaN,49934,NaN,1569265697,301318883,NaN,NaN,0.530732981551,0.313288059546,0.364049231253,0.698313146993,NaN,NaN,-5.40346896854,0.105974712008,0.924625763745,NaN,NaN,0.4319238,15.53944035,3.8873142,NaN,3
1.5692656974149e+18,NaN,49935,NaN,1569265697,357665061,NaN,NaN,0.347899364001,0.234466763779,0.447289051765,0.789888519591,NaN,NaN,-8.42812456226,0.912316826432,0.303288550033,NaN,NaN,-4.40758605,13.9000932,4.8885921,NaN,3
1.56926569745202e+18,NaN,49936,NaN,1569265697,414052963,NaN,NaN,0.372793400434,0.235359668316,0.444104250444,0.780001488371,NaN,NaN,0.925094899211,-0.40715208808,0.247438013969,NaN,NaN,-2.52282765,5.46776265,8.7170076,NaN,1
1.56926569750883e+18,NaN,49937,NaN,1569265697,451411008,NaN,NaN,0.375209503563,0.248716931882,0.442670350062,0.775500275569,NaN,NaN,0.541122463771,0.427115294376,-0.227291542575,NaN,NaN,-1.52154975,7.03839465,5.6346423,NaN,1
1.56926569756496e+18,NaN,49938,NaN,1569265697,508217096,NaN,NaN,0.395271380693,0.26839929217,0.436759079862,0.762209854126,NaN,NaN,1.1327890802,0.215930454884,-0.0684665806428,NaN,NaN,-0.67733505,5.21253495,6.82243275,NaN,1
1.56926569760234e+18,NaN,49939,NaN,1569265697,564197063,NaN,NaN,0.370181903709,0.262885479438,0.447035616544,0.770724166228,NaN,NaN,-0.975568656217,0.24734638142,-0.0195973615868,NaN,NaN,-2.18906835,6.99912885,5.693541,NaN,1
1.56926569765848e+18,NaN,49940,NaN,1569265697,601676940,NaN,NaN,0.327094798417,0.235869734759,0.476189579939,0.781420466222,NaN,NaN,-2.96000801574,0.29970625898,0.858303252169,NaN,NaN,-1.2172398,5.42849685,9.17838075,NaN,5
1.56926569773368e+18,NaN,49941,NaN,1569265697,657792091,NaN,NaN,0.238534019518,0.182859521217,0.530567004561,0.79256707647,NaN,NaN,-3.98102562816,0.577213610048,1.21435041958,NaN,NaN,-0.6675186,9.55140585,6.9893124,NaN,1
1.56926569775212e+18,NaN,49942,NaN,1569265697,732882022,NaN,NaN,0.205401310635,0.170336552879,0.542680437349,0.796425579236,NaN,NaN,-0.972077997713,0.278762307956,0.140972929597,NaN,NaN,-0.3337593,6.2039964,8.78572275,NaN,1
1.56926569782719e+18,NaN,49943,NaN,1569265697,751382112,NaN,NaN,0.220193487708,0.182073371202,0.536200206904,0.794262836589,NaN,NaN,2.00196304769,0.0675774684642,-0.332011297695,NaN,NaN,-0.87366405,6.84206565,6.58683795,NaN,1
1.56926569784595e+18,NaN,49944,NaN,1569265697,826412916,NaN,NaN,0.416722001731,0.294222259407,0.439402066682,0.739392899032,NaN,NaN,6.78241986892,-0.773671231,-1.01268970597,NaN,NaN,-0.8049489,8.78572275,7.1856414,NaN,1
1.56926569790219e+18,NaN,49945,NaN,1569265697,845391988,NaN,NaN,0.445950486267,0.312926643954,0.422424815836,0.724404827612,NaN,NaN,4.50127453656,-0.32861227174,-0.515270869155,NaN,NaN,-2.3166822,6.8911479,6.17454705,NaN,1
1.56926569795822e+18,NaN,49946,NaN,1569265697,901424884,NaN,NaN,0.431644208539,0.319903670128,0.435004608239,0.722575885208,NaN,NaN,-0.443243234357,0.566741634536,0.0729050887692,NaN,NaN,-1.3546701,9.43360845,0.3533922,NaN,4
1.56926569799604e+18,NaN,49947,NaN,1569265697,957590103,NaN,NaN,0.464623480654,0.347837021757,0.42840485784,0.692534262906,NaN,NaN,1.82393946399,0.414897989612,0.228239392197,NaN,NaN,-1.1387082,11.7012084,1.71787875,NaN,1
1.56926569805179e+18,NaN,49948,NaN,1569265697,995243072,NaN,NaN,0.479413553422,0.348388138453,0.429669021581,0.681302342337,NaN,NaN,0.815139156335,-0.13662605402,0.542398657557,NaN,NaN,-1.2172398,12.3883599,1.67861295,NaN,1
1.56926569810889e+18,NaN,49949,NaN,1569265698,51100969,NaN,NaN,0.500265570927,0.346427655071,0.437449112154,0.662087994622,NaN,NaN,0.713910059719,-0.0458689329158,0.778018106577,NaN,NaN,-0.9423792,9.96369675,2.6897073,NaN,1
1.56926569816421e+18,NaN,49950,NaN,1569265698,108103990,NaN,NaN,0.517982285297,0.357349051726,0.425999383675,0.650015794006,NaN,NaN,0.928585557715,-0.126154078508,-0.0597399343828,NaN,NaN,-1.374303,10.9551582,1.97310645,NaN,1
1.56926569820177e+18,NaN,49951,NaN,1569265698,163638114,NaN,NaN,0.526953547551,0.370131774317,0.406885138438,0.64789421396,NaN,NaN,0.701692754955,-0.227383175124,-0.541450807935,NaN,NaN,-1.96329,7.3034388,2.8075047,NaN,1
1.5692656982588e+18,NaN,49952,NaN,1569265698,201155900,NaN,NaN,0.529660860796,0.380707147699,0.391328358558,0.649140628847,NaN,NaN,0.596972999835,-0.24134580914,-0.817212829751,NaN,NaN,-2.0810874,7.66664745,0.06871515,NaN,1
1.56926569829606e+18,NaN,49953,NaN,1569265698,257945060,NaN,NaN,0.539017229743,0.388812801466,0.373174406759,0.647322094167,NaN,NaN,0.558575756291,-0.325121613236,-0.401824467775,NaN,NaN,-2.01237225,8.5795773,-1.48228395,NaN,4
1.56926569835177e+18,NaN,49954,NaN,1569265698,295242071,NaN,NaN,0.541531395631,0.391153496804,0.365022174984,0.648460871028,NaN,NaN,0.216491222899,-0.332102930244,-0.298850041907,NaN,NaN,-2.2970493,9.5415894,-1.32522075,NaN,4
