rosbagTimestamp,header,seq,stamp,secs,nsecs,frame_id,orientation,x,y,z,w,orientation_covariance,angular_velocity,x,y,z,angular_velocity_covariance,linear_acceleration,x,y,z,linear_acceleration_covariance
1569265685452117207,,49696,,1569265685,414015054,"""knife_link""",,0.0218932541679,0.0262019284842,0.202881166528,0.97860787685,"[0.0, 0.0, 0.0, 0.0, 0.0, 0.0, 0.0, 0.0, 0.0]",,0.0248136945785,0.00320777725367,0.00128174887713,"[0.0, 0.0, 0.0, 0.0, 0.0, 0.0, 0.0, 0.0, 0.0]",,-0.30430995,0.30430995,9.5808552,"[0.0, 0.0, 0.0, 0.0, 0.0, 0.0, 0.0, 0.0, 0.0]"
1569265685508093251,,49697,,1569265685,451307058,"""knife_link""",,0.0211427774312,0.0260418649981,0.20417741088,0.97835902874,"[0.0, 0.0, 0.0, 0.0, 0.0, 0.0, 0.0, 0.0, 0.0]",,-0.0310368414855,0.00146244800167,-0.000463580374871,"[0.0, 0.0, 0.0, 0.0, 0.0, 0.0, 0.0, 0.0, 0.0]",,-0.28467705,0.196329,9.72810195,"[0.0, 0.0, 0.0, 0.0, 0.0, 0.0, 0.0, 0.0, 0.0]"
1569265685564169955,,49698,,1569265685,507399082,"""knife_link""",,0.0207376074845,0.0259627792432,0.20588101149,0.978012727339,"[0.0, 0.0, 0.0, 0.0, 0.0, 0.0, 0.0, 0.0, 0.0]",,-0.00834756120948,0.00146244800167,-0.000463580374871,"[0.0, 0.0, 0.0, 0.0, 0.0, 0.0, 0.0, 0.0, 0.0]",,-0.2552277,0.22577835,9.70846905,"[0.0, 0.0, 0.0, 0.0, 0.0, 0.0, 0.0, 0.0, 0.0]"
1569265685602132004,,49699,,1569265685,563679933,"""knife_link""",,0.0208193683673,0.0259596362386,0.206468188185,0.977887283103,"[0.0, 0.0, 0.0, 0.0, 0.0, 0.0, 0.0, 0.0, 0.0]",,0.00736040205852,0.00146244800167,0.00128174887713,"[0.0, 0.0, 0.0, 0.0, 0.0, 0.0, 0.0, 0.0, 0.0]",,-0.26504415,0.2748606,9.66920325,"[0.0, 0.0, 0.0, 0.0, 0.0, 0.0, 0.0, 0.0, 0.0]"
1569265685657789534,,49700,,1569265685,601494073,"""knife_link""",,0.0207901885189,0.0258749496883,0.206419532513,0.977900420103,"[0.0, 0.0, 0.0, 0.0, 0.0, 0.0, 0.0, 0.0, 0.0]",,0.00386974355452,-0.000282881250328,0.00128174887713,"[0.0, 0.0, 0.0, 0.0, 0.0, 0.0, 0.0, 0.0, 0.0]",,-0.2748606,0.26504415,9.6790197,"[0.0, 0.0, 0.0, 0.0, 0.0, 0.0, 0.0, 0.0, 0.0]"
1569265685715101497,,49701,,1569265685,657090902,"""knife_link""",,0.0209470416048,0.0259298039791,0.206902135405,0.977793624994,"[0.0, 0.0, 0.0, 0.0, 0.0, 0.0, 0.0, 0.0, 0.0]",,0.0108510605625,0.00320777725367,0.00128174887713,"[0.0, 0.0, 0.0, 0.0, 0.0, 0.0, 0.0, 0.0, 0.0]",,-0.2552277,0.2552277,9.64957035,"[0.0, 0.0, 0.0, 0.0, 0.0, 0.0, 0.0, 0.0, 0.0]"
1569265685751915940,,49702,,1569265685,714365005,"""knife_link""",,0.0209142586544,0.0258678594591,0.207809242978,0.977603583343,"[0.0, 0.0, 0.0, 0.0, 0.0, 0.0, 0.0, 0.0, 0.0]",,0.00386974355452,-0.000282881250328,0.00128174887713,"[0.0, 0.0, 0.0, 0.0, 0.0, 0.0, 0.0, 0.0, 0.0]",,-0.2748606,0.2355948,9.64957035,"[0.0, 0.0, 0.0, 0.0, 0.0, 0.0, 0.0, 0.0, 0.0]"
1569265685808506876,,49703,,1569265685,751403093,"""knife_link""",,0.0208299660419,0.0258597265547,0.208666840926,0.977422905684,"[0.0, 0.0, 0.0, 0.0, 0.0, 0.0, 0.0, 0.0, 0.0]",,0.00386974355452,0.00320777725367,-0.000463580374871,"[0.0, 0.0, 0.0, 0.0, 0.0, 0.0, 0.0, 0.0, 0.0]",,-0.26504415,0.2355948,9.64957035,"[0.0, 0.0, 0.0, 0.0, 0.0, 0.0, 0.0, 0.0, 0.0]"
1569265685864945927,,49704,,1569265685,807670116,"""knife_link""",,0.0207277698737,0.0257509244205,0.208695051416,0.977421927809,"[0.0, 0.0, 0.0, 0.0, 0.0, 0.0, 0.0, 0.0, 0.0]",,0.000375294200017,-0.000280052437825,-0.000458944571122,"[0.0, 0.0, 0.0, 0.0, 0.0, 0.0, 0.0, 0.0, 0.0]",,-0.2552277,0.24541125,9.7575513,"[0.0, 0.0, 0.0, 0.0, 0.0, 0.0, 0.0, 0.0, 0.0]"
1569265685901860657,,49705,,1569265685,864214897,"""knife_link""",,0.0208143545284,0.0257773163378,0.210154386146,0.977106660806,"[0.0, 0.0, 0.0, 0.0, 0.0, 0.0, 0.0, 0.0, 0.0]",,0.00901092105542,0.00145062404603,-0.000454355125411,"[0.0, 0.0, 0.0, 0.0, 0.0, 0.0, 0.0, 0.0, 0.0]",,-0.26504415,0.24541125,9.70846905,"[0.0, 0.0, 0.0, 0.0, 0.0, 0.0, 0.0, 0.0, 0.0]"
1569265685958519980,,49706,,1569265685,901187896,"""knife_link""",,0.0207089419317,0.0256684725351,0.20993968517,0.977157918574,"[0.0, 0.0, 0.0, 0.0, 0.0, 0.0, 0.0, 0.0, 0.0]",,0.000281432047463,-0.000291758153907,0.00127806438532,"[0.0, 0.0, 0.0, 0.0, 0.0, 0.0, 0.0, 0.0, 0.0]",,-0.26504415,0.2355948,9.72810195,"[0.0, 0.0, 0.0, 0.0, 0.0, 0.0, 0.0, 0.0, 0.0]"
1569265686015000349,,49707,,1569265685,957567930,"""knife_link""",,0.0206967558717,0.0256270093745,0.211683913084,0.976782893804,"[0.0, 0.0, 0.0, 0.0, 0.0, 0.0, 0.0, 0.0, 0.0]",,0.00546224560543,-0.000288840572368,-0.00046259221801,"[0.0, 0.0, 0.0, 0.0, 0.0, 0.0, 0.0, 0.0, 0.0]",,-0.2552277,0.2355948,9.7379184,"[0.0, 0.0, 0.0, 0.0, 0.0, 0.0, 0.0, 0.0, 0.0]"
1569265686052130463,,49708,,1569265686,14147043,"""knife_link""",,0.0206437778207,0.0255260399789,0.211101596999,0.976912673408,"[0.0, 0.0, 0.0, 0.0, 0.0, 0.0, 0.0, 0.0, 0.0]",,0.00197158710143,-0.000288840572368,-0.00046259221801,"[0.0, 0.0, 0.0, 0.0, 0.0, 0.0, 0.0, 0.0, 0.0]",,-0.2748606,0.22577835,9.68883615,"[0.0, 0.0, 0.0, 0.0, 0.0, 0.0, 0.0, 0.0, 0.0]"
1569265686108440261,,49709,,1569265686,51573038,"""knife_link""",,0.0204844176637,0.025421032786,0.211112605319,0.976916387211,"[0.0, 0.0, 0.0, 0.0, 0.0, 0.0, 0.0, 0.0, 0.0]",,-0.00150388068855,-0.000285952166644,-0.00045796629583,"[0.0, 0.0, 0.0, 0.0, 0.0, 0.0, 0.0, 0.0, 0.0]",,-0.2748606,0.20614545,9.70846905,"[0.0, 0.0, 0.0, 0.0, 0.0, 0.0, 0.0, 0.0, 0.0]"
1569265686164317262,,49710,,1569265686,107544898,"""knife_link""",,0.020499243424,0.0253120807841,0.209710416213,0.977220865985,"[0.0, 0.0, 0.0, 0.0, 0.0, 0.0, 0.0, 0.0, 0.0]",,0.00373210706745,-0.000285952166644,0.00128736295617,"[0.0, 0.0, 0.0, 0.0, 0.0, 0.0, 0.0, 0.0, 0.0]",,-0.2748606,0.2159619,9.6986526,"[0.0, 0.0, 0.0, 0.0, 0.0, 0.0, 0.0, 0.0, 0.0]"
1569265686202003415,,49711,,1569265686,163517951,"""knife_link""",,0.020228502033,0.0252029782612,0.210320044105,0.977098304491,"[0.0, 0.0, 0.0, 0.0, 0.0, 0.0, 0.0, 0.0, 0.0]",,-0.00494459380062,-0.000283092644978,-0.000453386632872,"[0.0, 0.0, 0.0, 0.0, 0.0, 0.0, 0.0, 0.0, 0.0]",,-0.28467705,0.22577835,9.72810195,"[0.0, 0.0, 0.0, 0.0, 0.0, 0.0, 0.0, 0.0, 0.0]"
1569265686258491769,,49712,,1569265686,201344966,"""knife_link""",,0.0201635408601,0.0251409999552,0.209678838109,0.977239042707,"[0.0, 0.0, 0.0, 0.0, 0.0, 0.0, 0.0, 0.0, 0.0]",,0.00203672320738,0.00146223660702,0.00129194261913,"[0.0, 0.0, 0.0, 0.0, 0.0, 0.0, 0.0, 0.0, 0.0]",,-0.28467705,0.2355948,9.66920325,"[0.0, 0.0, 0.0, 0.0, 0.0, 0.0, 0.0, 0.0, 0.0]"
1569265686314741475,,49713,,1569265686,257841110,"""knife_link""",,0.020083438579,0.0251178279355,0.210230907464,0.977122671808,"[0.0, 0.0, 0.0, 0.0, 0.0, 0.0, 0.0, 0.0, 0.0]",,0.00203672320738,0.00146223660702,-0.000453386632872,"[0.0, 0.0, 0.0, 0.0, 0.0, 0.0, 0.0, 0.0, 0.0]",,-0.2748606,0.2355948,9.66920325,"[0.0, 0.0, 0.0, 0.0, 0.0, 0.0, 0.0, 0.0, 0.0]"
1569265686352329705,,49714,,1569265686,314021110,"""knife_link""",,0.019937004766,0.0250536563195,0.211586610159,0.97683465159,"[0.0, 0.0, 0.0, 0.0, 0.0, 0.0, 0.0, 0.0, 0.0]",,0.000288480015825,-0.000280261718528,0.00127902319294,"[0.0, 0.0, 0.0, 0.0, 0.0, 0.0, 0.0, 0.0, 0.0]",,-0.28467705,0.2159619,9.70846905,"[0.0, 0.0, 0.0, 0.0, 0.0, 0.0, 0.0, 0.0, 0.0]"
1569265686408927884,,49715,,1569265686,351486921,"""knife_link""",,0.0198769188066,0.0250162072123,0.211779484887,0.976795038509,"[0.0, 0.0, 0.0, 0.0, 0.0, 0.0, 0.0, 0.0, 0.0]",,0.00374134713463,0.00145041685814,-0.000461642998473,"[0.0, 0.0, 0.0, 0.0, 0.0, 0.0, 0.0, 0.0, 0.0]",,-0.28467705,0.22577835,9.70846905,"[0.0, 0.0, 0.0, 0.0, 0.0, 0.0, 0.0, 0.0, 0.0]"
1569265686464806127,,49716,,1569265686,407938003,"""knife_link""",,0.019645329035,0.0249591008884,0.212092600754,0.976733245587,"[0.0, 0.0, 0.0, 0.0, 0.0, 0.0, 0.0, 0.0, 0.0]",,-0.00323996987337,0.00145041685814,-0.000461642998473,"[0.0, 0.0, 0.0, 0.0, 0.0, 0.0, 0.0, 0.0, 0.0]",,-0.28467705,0.20614545,9.6986526,"[0.0, 0.0, 0.0, 0.0, 0.0, 0.0, 0.0, 0.0, 0.0]"
1569265686502218818,,49717,,1569265686,463977098,"""knife_link""",,0.019542770603,0.0248640758257,0.211987393304,0.976760565815,"[0.0, 0.0, 0.0, 0.0, 0.0, 0.0, 0.0, 0.0, 0.0]",,0.000248181744321,-0.000291963269924,-0.000457026568488,"[0.0, 0.0, 0.0, 0.0, 0.0, 0.0, 0.0, 0.0, 0.0]",,-0.2748606,0.22577835,9.72810195,"[0.0, 0.0, 0.0, 0.0, 0.0, 0.0, 0.0, 0.0, 0.0]"
1569265686558279983,,49718,,1569265686,501523971,"""knife_link""",,0.0193975957199,0.0248391346668,0.213443529312,0.976446931719,"[0.0, 0.0, 0.0, 0.0, 0.0, 0.0, 0.0, 0.0, 0.0]",,0.000245699926878,0.00143883232226,0.00127541965668,"[0.0, 0.0, 0.0, 0.0, 0.0, 0.0, 0.0, 0.0, 0.0]",,-0.28467705,0.2355948,9.72810195,"[0.0, 0.0, 0.0, 0.0, 0.0, 0.0, 0.0, 0.0, 0.0]"
1569265686614470740,,49719,,1569265686,557590961,"""knife_link""",,0.0192405519435,0.0248727567433,0.214502948232,0.976217000637,"[0.0, 0.0, 0.0, 0.0, 0.0, 0.0, 0.0, 0.0, 0.0]",,0.000245699926878,0.00318416157426,-0.000469909595323,"[0.0, 0.0, 0.0, 0.0, 0.0, 0.0, 0.0, 0.0, 0.0]",,-0.2944935,0.2159619,9.64957035,"[0.0, 0.0, 0.0, 0.0, 0.0, 0.0, 0.0, 0.0, 0.0]"
1569265686651952932,,49720,,1569265686,613929033,"""knife_link""",,0.0190468829731,0.0248480375226,0.215676980352,0.975962720306,"[0.0, 0.0, 0.0, 0.0, 0.0, 0.0, 0.0, 0.0, 0.0]",,-0.00149962932512,0.00143883232226,0.00127541965668,"[0.0, 0.0, 0.0, 0.0, 0.0, 0.0, 0.0, 0.0, 0.0]",,-0.2944935,0.2159619,9.68883615,"[0.0, 0.0, 0.0, 0.0, 0.0, 0.0, 0.0, 0.0, 0.0]"
1569265686707746846,,49721,,1569265686,651375055,"""knife_link""",,0.0188804863396,0.0248307522861,0.217210221158,0.975626301819,"[0.0, 0.0, 0.0, 0.0, 0.0, 0.0, 0.0, 0.0, 0.0]",,0.000243242927609,0.00142444399903,-0.00046521049937,"[0.0, 0.0, 0.0, 0.0, 0.0, 0.0, 0.0, 0.0, 0.0]",,-0.30430995,0.196329,9.72810195,"[0.0, 0.0, 0.0, 0.0, 0.0, 0.0, 0.0, 0.0, 0.0]"
1569265686765038732,,49722,,1569265686,707242965,"""knife_link""",,0.0185852726259,0.0248388482986,0.217747196229,0.975512059275,"[0.0, 0.0, 0.0, 0.0, 0.0, 0.0, 0.0, 0.0, 0.0]",,-0.00499274482839,0.00316977325103,-0.00046521049937,"[0.0, 0.0, 0.0, 0.0, 0.0, 0.0, 0.0, 0.0, 0.0]",,-0.3337593,0.196329,9.6790197,"[0.0, 0.0, 0.0, 0.0, 0.0, 0.0, 0.0, 0.0, 0.0]"
1569265686801523749,,49723,,1569265686,764208078,"""knife_link""",,0.0183646172256,0.0247525095686,0.218900684085,0.975260244556,"[0.0, 0.0, 0.0, 0.0, 0.0, 0.0, 0.0, 0.0, 0.0]",,-0.00321494142063,-0.000317676400438,-0.000460558394376,"[0.0, 0.0, 0.0, 0.0, 0.0, 0.0, 0.0, 0.0, 0.0]",,-0.28467705,0.22577835,9.70846905,"[0.0, 0.0, 0.0, 0.0, 0.0, 0.0, 0.0, 0.0, 0.0]"
1569265686860306233,,49724,,1569265686,800910949,"""knife_link""",,0.0183174103802,0.0247362765329,0.220011181541,0.975011625109,"[0.0, 0.0, 0.0, 0.0, 0.0, 0.0, 0.0, 0.0, 0.0]",,0.00376637558737,-0.000317676400438,-0.000460558394376,"[0.0, 0.0, 0.0, 0.0, 0.0, 0.0, 0.0, 0.0, 0.0]",,-0.3337593,0.26504415,9.55140585,"[0.0, 0.0, 0.0, 0.0, 0.0, 0.0, 0.0, 0.0, 0.0]"
1569265686914540351,,49725,,1569265686,859442949,"""knife_link""",,0.019939118386,0.0253605831636,0.220617090688,0.974826841893,"[0.0, 0.0, 0.0, 0.0, 0.0, 0.0, 0.0, 0.0, 0.0]",,0.0631075701554,0.00840896985956,0.00303010010962,"[0.0, 0.0, 0.0, 0.0, 0.0, 0.0, 0.0, 0.0, 0.0]",,-0.3730251,0.2552277,9.45324135,"[0.0, 0.0, 0.0, 0.0, 0.0, 0.0, 0.0, 0.0, 0.0]"
1569265686951693397,,49726,,1569265686,914005041,"""knife_link""",,0.0200339830215,0.0254189813387,0.221353544308,0.974656412965,"[0.0, 0.0, 0.0, 0.0, 0.0, 0.0, 0.0, 0.0, 0.0]",,0.00900236334337,0.00317298210356,-0.000460558394376,"[0.0, 0.0, 0.0, 0.0, 0.0, 0.0, 0.0, 0.0, 0.0]",,-0.2552277,0.24541125,9.5219565,"[0.0, 0.0, 0.0, 0.0, 0.0, 0.0, 0.0, 0.0, 0.0]"
1569265687007990162,,49727,,1569265686,950877904,"""knife_link""",,0.0206108223811,0.025573697206,0.222384960358,0.974405515901,"[0.0, 0.0, 0.0, 0.0, 0.0, 0.0, 0.0, 0.0, 0.0]",,0.0404182898794,0.00317298210356,0.00128477085762,"[0.0, 0.0, 0.0, 0.0, 0.0, 0.0, 0.0, 0.0, 0.0]",,-0.2748606,0.2552277,9.6593868,"[0.0, 0.0, 0.0, 0.0, 0.0, 0.0, 0.0, 0.0, 0.0]"
1569265687064654474,,49728,,1569265687,7378101,"""knife_link""",,0.0202507607675,0.0253949752402,0.223224458477,0.974225765959,"[0.0, 0.0, 0.0, 0.0, 0.0, 0.0, 0.0, 0.0, 0.0]",,-0.00845092917663,-0.000317676400438,-0.000460558394376,"[0.0, 0.0, 0.0, 0.0, 0.0, 0.0, 0.0, 0.0, 0.0]",,-0.18651255,0.2355948,9.72810195,"[0.0, 0.0, 0.0, 0.0, 0.0, 0.0, 0.0, 0.0, 0.0]"
1569265687101582610,,49729,,1569265687,63935041,"""knife_link""",,0.0199606079274,0.0254280795189,0.224418147484,0.973956611961,"[0.0, 0.0, 0.0, 0.0, 0.0, 0.0, 0.0, 0.0, 0.0]",,-0.00318279200642,0.00659700420149,0.00127192314905,"[0.0, 0.0, 0.0, 0.0, 0.0, 0.0, 0.0, 0.0, 0.0]",,-0.16687965,0.1766961,9.70846905,"[0.0, 0.0, 0.0, 0.0, 0.0, 0.0, 0.0, 0.0, 0.0]"
1569265687158893521,,49730,,1569265687,101011037,"""knife_link""",,0.0201298871376,0.0253733496758,0.224983617153,0.973824087186,"[0.0, 0.0, 0.0, 0.0, 0.0, 0.0, 0.0, 0.0, 0.0]",,0.0177611590176,-0.00387497131051,0.00127192314905,"[0.0, 0.0, 0.0, 0.0, 0.0, 0.0, 0.0, 0.0, 0.0]",,-0.3337593,0.1766961,9.8753487,"[0.0, 0.0, 0.0, 0.0, 0.0, 0.0, 0.0, 0.0, 0.0]"
1569265687214569515,,49731,,1569265687,157874107,"""knife_link""",,0.019519711917,0.0251684329344,0.225420426048,0.973740808609,"[0.0, 0.0, 0.0, 0.0, 0.0, 0.0, 0.0, 0.0, 0.0]",,-0.0171454260224,-0.000384312806513,-0.000473406102952,"[0.0, 0.0, 0.0, 0.0, 0.0, 0.0, 0.0, 0.0, 0.0]",,-0.2748606,0.20614545,9.88516515,"[0.0, 0.0, 0.0, 0.0, 0.0, 0.0, 0.0, 0.0, 0.0]"
1569265687251697125,,49732,,1569265687,214099884,"""knife_link""",,0.0193777379961,0.0249927782722,0.226097235262,0.973591240979,"[0.0, 0.0, 0.0, 0.0, 0.0, 0.0, 0.0, 0.0, 0.0]",,-0.00143746275442,-0.00212964205851,-0.000473406102952,"[0.0, 0.0, 0.0, 0.0, 0.0, 0.0, 0.0, 0.0, 0.0]",,-0.20614545,0.24541125,9.94406385,"[0.0, 0.0, 0.0, 0.0, 0.0, 0.0, 0.0, 0.0, 0.0]"
1569265687307739704,,49733,,1569265687,251024007,"""knife_link""",,0.0193742526886,0.0249106406681,0.226500533675,0.973499669522,"[0.0, 0.0, 0.0, 0.0, 0.0, 0.0, 0.0, 0.0, 0.0]",,0.00379852500158,-0.000384312806513,-0.000473406102952,"[0.0, 0.0, 0.0, 0.0, 0.0, 0.0, 0.0, 0.0, 0.0]",,-0.22577835,0.3141264,9.6593868,"[0.0, 0.0, 0.0, 0.0, 0.0, 0.0, 0.0, 0.0, 0.0]"
1569265687364777605,,49734,,1569265687,307363033,"""knife_link""",,0.0197921674108,0.0250280396953,0.226834552743,0.973410475093,"[0.0, 0.0, 0.0, 0.0, 0.0, 0.0, 0.0, 0.0, 0.0]",,0.0195064882696,0.00310634569749,-0.000473406102952,"[0.0, 0.0, 0.0, 0.0, 0.0, 0.0, 0.0, 0.0, 0.0]",,-0.2355948,0.2748606,9.62993745,"[0.0, 0.0, 0.0, 0.0, 0.0, 0.0, 0.0, 0.0, 0.0]"
1569265687401796951,,49735,,1569265687,364211082,"""knife_link""",,0.0201008056857,0.0251379400883,0.227298079581,0.973293185324,"[0.0, 0.0, 0.0, 0.0, 0.0, 0.0, 0.0, 0.0, 0.0]",,0.0160158297656,0.00310634569749,0.00127192314905,"[0.0, 0.0, 0.0, 0.0, 0.0, 0.0, 0.0, 0.0, 0.0]",,-0.26504415,0.2552277,9.6004881,"[0.0, 0.0, 0.0, 0.0, 0.0, 0.0, 0.0, 0.0, 0.0]"
1569265687458275406,,49736,,1569265687,401074886,"""knife_link""",,0.0200328415497,0.025093932404,0.227537882105,0.973239688886,"[0.0, 0.0, 0.0, 0.0, 0.0, 0.0, 0.0, 0.0, 0.0]",,0.00379852500158,0.00136101644549,0.00127192314905,"[0.0, 0.0, 0.0, 0.0, 0.0, 0.0, 0.0, 0.0, 0.0]",,-0.2748606,0.2159619,9.68883615,"[0.0, 0.0, 0.0, 0.0, 0.0, 0.0, 0.0, 0.0, 0.0]"
1569265687514303749,,49737,,1569265687,457602024,"""knife_link""",,0.0200325996014,0.0251414025084,0.229466696654,0.972785505628,"[0.0, 0.0, 0.0, 0.0, 0.0, 0.0, 0.0, 0.0, 0.0]",,0.00721629167052,0.00134740628103,-0.000468672041923,"[0.0, 0.0, 0.0, 0.0, 0.0, 0.0, 0.0, 0.0, 0.0]",,-0.30430995,0.196329,9.7182855,"[0.0, 0.0, 0.0, 0.0, 0.0, 0.0, 0.0, 0.0, 0.0]"
1569265687551743481,,49738,,1569265687,513659954,"""knife_link""",,0.0198161696259,0.0250243814984,0.229218836347,0.972851388865,"[0.0, 0.0, 0.0, 0.0, 0.0, 0.0, 0.0, 0.0, 0.0]",,-0.00325568384148,-0.000397922970968,-0.000468672041923,"[0.0, 0.0, 0.0, 0.0, 0.0, 0.0, 0.0, 0.0, 0.0]",,-0.2944935,0.196329,9.72810195,"[0.0, 0.0, 0.0, 0.0, 0.0, 0.0, 0.0, 0.0, 0.0]"
1569265687608145724,,49739,,1569265687,551178932,"""knife_link""",,0.0195447611445,0.0249272689562,0.230081876856,0.972655624318,"[0.0, 0.0, 0.0, 0.0, 0.0, 0.0, 0.0, 0.0, 0.0]",,-0.00667887892202,-0.000393943741258,-0.000463985321504,"[0.0, 0.0, 0.0, 0.0, 0.0, 0.0, 0.0, 0.0, 0.0]",,-0.2944935,0.20614545,9.7575513,"[0.0, 0.0, 0.0, 0.0, 0.0, 0.0, 0.0, 0.0, 0.0]"
1569265687664517549,,49740,,1569265687,607536077,"""knife_link""",,0.0193859376293,0.024908148992,0.231320783345,0.972365396715,"[0.0, 0.0, 0.0, 0.0, 0.0, 0.0, 0.0, 0.0, 0.0]",,0.000299413705118,0.00133787165563,-0.000459345468288,"[0.0, 0.0, 0.0, 0.0, 0.0, 0.0, 0.0, 0.0, 0.0]",,-0.28467705,0.20614545,9.72810195,"[0.0, 0.0, 0.0, 0.0, 0.0, 0.0, 0.0, 0.0, 0.0]"
1569265687701882822,,49741,,1569265687,663937091,"""knife_link""",,0.019116048525,0.0248371437781,0.231408961761,0.972351574995,"[0.0, 0.0, 0.0, 0.0, 0.0, 0.0, 0.0, 0.0, 0.0]",,-0.00488720831037,0.00132449293908,-0.000454752013606,"[0.0, 0.0, 0.0, 0.0, 0.0, 0.0, 0.0, 0.0, 0.0]",,-0.2944935,0.20614545,9.7379184,"[0.0, 0.0, 0.0, 0.0, 0.0, 0.0, 0.0, 0.0, 0.0]"
1569265687758316503,,49742,,1569265687,701291084,"""knife_link""",,0.0190002332,0.0249157829412,0.23293745933,0.971986797719,"[0.0, 0.0, 0.0, 0.0, 0.0, 0.0, 0.0, 0.0, 0.0]",,0.00380104357013,0.00822275184761,-0.00045020449347,"[0.0, 0.0, 0.0, 0.0, 0.0, 0.0, 0.0, 0.0, 0.0]",,-0.2159619,0.2159619,9.7968171,"[0.0, 0.0, 0.0, 0.0, 0.0, 0.0, 0.0, 0.0, 0.0]"
1569265687814674463,,49743,,1569265687,757576942,"""knife_link""",,0.0189396633635,0.024782093872,0.231734623524,0.972278870096,"[0.0, 0.0, 0.0, 0.0, 0.0, 0.0, 0.0, 0.0, 0.0]",,0.000307281215469,-0.000498855468269,-0.000445702448535,"[0.0, 0.0, 0.0, 0.0, 0.0, 0.0, 0.0, 0.0, 0.0]",,-0.24541125,0.2355948,9.78700065,"[0.0, 0.0, 0.0, 0.0, 0.0, 0.0, 0.0, 0.0, 0.0]"
1569265687852037182,,49744,,1569265687,814055919,"""knife_link""",,0.0186411563349,0.024564713602,0.232938521865,0.972002431667,"[0.0, 0.0, 0.0, 0.0, 0.0, 0.0, 0.0, 0.0, 0.0]",,-0.00660729543461,-0.00394961883255,-0.00044124542405,"[0.0, 0.0, 0.0, 0.0, 0.0, 0.0, 0.0, 0.0, 0.0]",,-0.26504415,0.2159619,9.7968171,"[0.0, 0.0, 0.0, 0.0, 0.0, 0.0, 0.0, 0.0, 0.0]"
1569265687907949027,,49745,,1569265687,851280927,"""knife_link""",,0.0187856873043,0.0244837742465,0.232849011201,0.972023137962,"[0.0, 0.0, 0.0, 0.0, 0.0, 0.0, 0.0, 0.0, 0.0]",,0.0125913263374,-0.00394961883255,-0.00044124542405,"[0.0, 0.0, 0.0, 0.0, 0.0, 0.0, 0.0, 0.0, 0.0]",,-0.30430995,0.24541125,9.6593868,"[0.0, 0.0, 0.0, 0.0, 0.0, 0.0, 0.0, 0.0, 0.0]"
1569265687964501269,,49746,,1569265687,907490015,"""knife_link""",,0.0194189211433,0.0246223357643,0.235077678638,0.971470602277,"[0.0, 0.0, 0.0, 0.0, 0.0, 0.0, 0.0, 0.0, 0.0]",,0.0282992896054,-0.000458960328546,0.00130408382795,"[0.0, 0.0, 0.0, 0.0, 0.0, 0.0, 0.0, 0.0, 0.0]",,-0.26504415,0.2748606,9.5219565,"[0.0, 0.0, 0.0, 0.0, 0.0, 0.0, 0.0, 0.0, 0.0]"
1569265688002385593,,49747,,1569265687,963823080,"""knife_link""",,0.0190757850769,0.0244266952163,0.235722912465,0.971325980052,"[0.0, 0.0, 0.0, 0.0, 0.0, 0.0, 0.0, 0.0, 0.0]",,-0.00835262468661,-0.00220428958055,0.00130408382795,"[0.0, 0.0, 0.0, 0.0, 0.0, 0.0, 0.0, 0.0, 0.0]",,-0.2552277,0.2159619,9.70846905,"[0.0, 0.0, 0.0, 0.0, 0.0, 0.0, 0.0, 0.0, 0.0]"
1569265688058368131,,49748,,1569265688,1419067,"""knife_link""",,0.0189900089955,0.0243269870559,0.235597670495,0.971360548363,"[0.0, 0.0, 0.0, 0.0, 0.0, 0.0, 0.0, 0.0, 0.0]",,0.000374021573395,-0.000458960328546,-0.00044124542405,"[0.0, 0.0, 0.0, 0.0, 0.0, 0.0, 0.0, 0.0, 0.0]",,-0.24541125,0.24541125,9.6593868,"[0.0, 0.0, 0.0, 0.0, 0.0, 0.0, 0.0, 0.0, 0.0]"
1569265688114482936,,49749,,1569265688,57784080,"""knife_link""",,0.0190287063602,0.0243748232705,0.237405588006,0.970918309184,"[0.0, 0.0, 0.0, 0.0, 0.0, 0.0, 0.0, 0.0, 0.0]",,0.00735533858139,0.00128636892345,-0.00044124542405,"[0.0, 0.0, 0.0, 0.0, 0.0, 0.0, 0.0, 0.0, 0.0]",,-0.28467705,0.2355948,9.6593868,"[0.0, 0.0, 0.0, 0.0, 0.0, 0.0, 0.0, 0.0, 0.0]"
1569265688151695463,,49750,,1569265688,113673925,"""knife_link""",,0.0188340046012,0.0242603302298,0.237072548772,0.971006345637,"[0.0, 0.0, 0.0, 0.0, 0.0, 0.0, 0.0, 0.0, 0.0]",,-0.00311663693061,-0.000458960328546,-0.00044124542405,"[0.0, 0.0, 0.0, 0.0, 0.0, 0.0, 0.0, 0.0, 0.0]",,-0.28467705,0.20614545,9.6790197,"[0.0, 0.0, 0.0, 0.0, 0.0, 0.0, 0.0, 0.0, 0.0]"
1569265688208091323,,49751,,1569265688,150938987,"""knife_link""",,0.0187294438771,0.0242379259985,0.238423894792,0.970677998755,"[0.0, 0.0, 0.0, 0.0, 0.0, 0.0, 0.0, 0.0, 0.0]",,0.00211935082539,0.00128636892345,-0.00044124542405,"[0.0, 0.0, 0.0, 0.0, 0.0, 0.0, 0.0, 0.0, 0.0]",,-0.26504415,0.2355948,9.6986526,"[0.0, 0.0, 0.0, 0.0, 0.0, 0.0, 0.0, 0.0, 0.0]"
1569265688264344206,,49752,,1569265688,207523107,"""knife_link""",,0.0186939757414,0.024292129338,0.238858923702,0.970570369572,"[0.0, 0.0, 0.0, 0.0, 0.0, 0.0, 0.0, 0.0, 0.0]",,0.00386468007739,0.00303169817545,0.00130408382795,"[0.0, 0.0, 0.0, 0.0, 0.0, 0.0, 0.0, 0.0, 0.0]",,-0.30430995,0.22577835,9.62993745,"[0.0, 0.0, 0.0, 0.0, 0.0, 0.0, 0.0, 0.0, 0.0]"
1569265688301990135,,49753,,1569265688,263780117,"""knife_link""",,0.0188299112724,0.0243528636555,0.238273829852,0.970710025951,"[0.0, 0.0, 0.0, 0.0, 0.0, 0.0, 0.0, 0.0, 0.0]",,0.00910066783339,0.00303169817545,-0.00044124542405,"[0.0, 0.0, 0.0, 0.0, 0.0, 0.0, 0.0, 0.0, 0.0]",,-0.28467705,0.2355948,9.66920325,"[0.0, 0.0, 0.0, 0.0, 0.0, 0.0, 0.0, 0.0, 0.0]"
1569265688358445596,,49754,,1569265688,301250934,"""knife_link""",,0.0188322320905,0.0243736695621,0.239000325627,0.970530842177,"[0.0, 0.0, 0.0, 0.0, 0.0, 0.0, 0.0, 0.0, 0.0]",,0.00735533858139,0.00303169817545,-0.00044124542405,"[0.0, 0.0, 0.0, 0.0, 0.0, 0.0, 0.0, 0.0, 0.0]",,-0.26504415,0.24541125,9.6986526,"[0.0, 0.0, 0.0, 0.0, 0.0, 0.0, 0.0, 0.0, 0.0]"
1569265688414300184,,49755,,1569265688,357713937,"""knife_link""",,0.0188615057872,0.0243473104657,0.239984177448,0.970288125583,"[0.0, 0.0, 0.0, 0.0, 0.0, 0.0, 0.0, 0.0, 0.0]",,0.00561000932939,-0.000458960328546,-0.00044124542405,"[0.0, 0.0, 0.0, 0.0, 0.0, 0.0, 0.0, 0.0, 0.0]",,-0.28467705,0.24541125,9.6986526,"[0.0, 0.0, 0.0, 0.0, 0.0, 0.0, 0.0, 0.0, 0.0]"
1569265688451663534,,49756,,1569265688,413569927,"""knife_link""",,0.0189694867867,0.0242975645692,0.239465184154,0.970415484473,"[0.0, 0.0, 0.0, 0.0, 0.0, 0.0, 0.0, 0.0, 0.0]",,0.00735533858139,-0.000458960328546,-0.00044124542405,"[0.0, 0.0, 0.0, 0.0, 0.0, 0.0, 0.0, 0.0, 0.0]",,-0.2748606,0.2355948,9.68883615,"[0.0, 0.0, 0.0, 0.0, 0.0, 0.0, 0.0, 0.0, 0.0]"
1569265688508620173,,49757,,1569265688,450946092,"""knife_link""",,0.0189479830952,0.0242510816361,0.240205797182,0.970234009905,"[0.0, 0.0, 0.0, 0.0, 0.0, 0.0, 0.0, 0.0, 0.0]",,0.0055539092361,-0.000454370725261,0.00129104298967,"[0.0, 0.0, 0.0, 0.0, 0.0, 0.0, 0.0, 0.0, 0.0]",,-0.2748606,0.2355948,9.70846905,"[0.0, 0.0, 0.0, 0.0, 0.0, 0.0, 0.0, 0.0, 0.0]"
1569265688564441969,,49758,,1569265688,508004903,"""knife_link""",,0.0195415268059,0.024402954693,0.241284947611,0.969950616572,"[0.0, 0.0, 0.0, 0.0, 0.0, 0.0, 0.0, 0.0, 0.0]",,0.0264978602601,0.00129095852674,0.00129104298967,"[0.0, 0.0, 0.0, 0.0, 0.0, 0.0, 0.0, 0.0, 0.0]",,-0.2552277,0.24541125,9.66920325,"[0.0, 0.0, 0.0, 0.0, 0.0, 0.0, 0.0, 0.0, 0.0]"
1569265688601936404,,49759,,1569265688,563688039,"""knife_link""",,0.0192305207236,0.0242702594965,0.241934348833,0.969798387517,"[0.0, 0.0, 0.0, 0.0, 0.0, 0.0, 0.0, 0.0, 0.0]",,-0.0066633955279,-0.000454370725261,-0.000454286262329,"[0.0, 0.0, 0.0, 0.0, 0.0, 0.0, 0.0, 0.0, 0.0]",,-0.2552277,0.2159619,9.6986526,"[0.0, 0.0, 0.0, 0.0, 0.0, 0.0, 0.0, 0.0, 0.0]"
1569265688658637977,,49760,,1569265688,601273059,"""knife_link""",,0.0191379500119,0.0242909338011,0.243031004525,0.96952546137,"[0.0, 0.0, 0.0, 0.0, 0.0, 0.0, 0.0, 0.0, 0.0]",,0.0038085799841,0.00303628777874,-0.000454286262329,"[0.0, 0.0, 0.0, 0.0, 0.0, 0.0, 0.0, 0.0, 0.0]",,-0.28467705,0.2159619,9.68883615,"[0.0, 0.0, 0.0, 0.0, 0.0, 0.0, 0.0, 0.0, 0.0]"
1569265688714281550,,49761,,1569265688,657974004,"""knife_link""",,0.0190779053998,0.0243567717127,0.243907324446,0.969304904702,"[0.0, 0.0, 0.0, 0.0, 0.0, 0.0, 0.0, 0.0, 0.0]",,0.0038085799841,0.00303628777874,0.00129104298967,"[0.0, 0.0, 0.0, 0.0, 0.0, 0.0, 0.0, 0.0, 0.0]",,-0.3141264,0.2159619,9.68883615,"[0.0, 0.0, 0.0, 0.0, 0.0, 0.0, 0.0, 0.0, 0.0]"
1569265688751638948,,49762,,1569265688,713692903,"""knife_link""",,0.0189223414926,0.0242579686172,0.244101555041,0.96926153683,"[0.0, 0.0, 0.0, 0.0, 0.0, 0.0, 0.0, 0.0, 0.0]",,-0.00141313369418,-0.000449827018008,0.00127813255977,"[0.0, 0.0, 0.0, 0.0, 0.0, 0.0, 0.0, 0.0, 0.0]",,-0.2748606,0.2159619,9.7379184,"[0.0, 0.0, 0.0, 0.0, 0.0, 0.0, 0.0, 0.0, 0.0]"
1569265688809135537,,49763,,1569265688,751041889,"""knife_link""",,0.0189157784191,0.0242231221165,0.243564553903,0.96939761799,"[0.0, 0.0, 0.0, 0.0, 0.0, 0.0, 0.0, 0.0, 0.0]",,0.00551250148068,0.00128254721165,-0.000462524725303,"[0.0, 0.0, 0.0, 0.0, 0.0, 0.0, 0.0, 0.0, 0.0]",,-0.28467705,0.22577835,9.7379184,"[0.0, 0.0, 0.0, 0.0, 0.0, 0.0, 0.0, 0.0, 0.0]"
1569265688864414409,,49764,,1569265688,808317899,"""knife_link""",,0.0188279055708,0.0242612646042,0.243915294936,0.969310182505,"[0.0, 0.0, 0.0, 0.0, 0.0, 0.0, 0.0, 0.0, 0.0]",,0.00202184297668,0.00302787646365,-0.000462524725303,"[0.0, 0.0, 0.0, 0.0, 0.0, 0.0, 0.0, 0.0, 0.0]",,-0.2944935,0.22577835,9.6790197,"[0.0, 0.0, 0.0, 0.0, 0.0, 0.0, 0.0, 0.0, 0.0]"
1569265688901914044,,49765,,1569265688,863532066,"""knife_link""",,0.0185267052488,0.024209594126,0.243264420371,0.969480829376,"[0.0, 0.0, 0.0, 0.0, 0.0, 0.0, 0.0, 0.0, 0.0]",,-0.00663775525049,0.00299759769902,-0.00045789947805,"[0.0, 0.0, 0.0, 0.0, 0.0, 0.0, 0.0, 0.0, 0.0]",,-0.28467705,0.20614545,9.7182855,"[0.0, 0.0, 0.0, 0.0, 0.0, 0.0, 0.0, 0.0, 0.0]"
1569265688958634410,,49766,,1569265688,901093959,"""knife_link""",,0.0185525958383,0.0241789316402,0.24302245067,0.969541782969,"[0.0, 0.0, 0.0, 0.0, 0.0, 0.0, 0.0, 0.0, 0.0]",,0.00732487876551,0.00125226844702,-0.00045789947805,"[0.0, 0.0, 0.0, 0.0, 0.0, 0.0, 0.0, 0.0, 0.0]",,-0.26504415,0.22577835,9.74773485,"[0.0, 0.0, 0.0, 0.0, 0.0, 0.0, 0.0, 0.0, 0.0]"
1569265689014446569,,49767,,1569265688,957818984,"""knife_link""",,0.0184033158402,0.0240885689781,0.244138092617,0.969266552886,"[0.0, 0.0, 0.0, 0.0, 0.0, 0.0, 0.0, 0.0, 0.0]",,-0.00138774981954,-0.000488130196935,0.00127455547621,"[0.0, 0.0, 0.0, 0.0, 0.0, 0.0, 0.0, 0.0, 0.0]",,-0.24541125,0.2552277,9.7182855,"[0.0, 0.0, 0.0, 0.0, 0.0, 0.0, 0.0, 0.0, 0.0]"
1569265689051953728,,49768,,1569265689,13865947,"""knife_link""",,0.0180224999187,0.0240242759106,0.245252151818,0.968994017367,"[0.0, 0.0, 0.0, 0.0, 0.0, 0.0, 0.0, 0.0, 0.0]",,-0.00836906682754,0.00125719905507,-0.00047077377579,"[0.0, 0.0, 0.0, 0.0, 0.0, 0.0, 0.0, 0.0, 0.0]",,-0.30430995,0.20614545,9.6790197,"[0.0, 0.0, 0.0, 0.0, 0.0, 0.0, 0.0, 0.0, 0.0]"
1569265689107582474,,49769,,1569265689,51235914,"""knife_link""",,0.0181359172962,0.0240576494044,0.245447630965,0.968941576393,"[0.0, 0.0, 0.0, 0.0, 0.0, 0.0, 0.0, 0.0, 0.0]",,0.0125748841965,0.00125719905507,-0.00047077377579,"[0.0, 0.0, 0.0, 0.0, 0.0, 0.0, 0.0, 0.0, 0.0]",,-0.3141264,0.2355948,9.53177295,"[0.0, 0.0, 0.0, 0.0, 0.0, 0.0, 0.0, 0.0, 0.0]"
1569265689164747342,,49770,,1569265689,106893062,"""knife_link""",,0.0180602800992,0.0238184018585,0.244682497149,0.96914239697,"[0.0, 0.0, 0.0, 0.0, 0.0, 0.0, 0.0, 0.0, 0.0]",,-0.00138774981954,-0.00397878870093,0.00127455547621,"[0.0, 0.0, 0.0, 0.0, 0.0, 0.0, 0.0, 0.0, 0.0]",,-0.20614545,0.24541125,9.81645,"[0.0, 0.0, 0.0, 0.0, 0.0, 0.0, 0.0, 0.0, 0.0]"
1569265689201844824,,49771,,1569265689,163978099,"""knife_link""",,0.0180952993443,0.0238624865743,0.245021750841,0.969054943484,"[0.0, 0.0, 0.0, 0.0, 0.0, 0.0, 0.0, 0.0, 0.0]",,0.00559356718846,0.00300252830707,-0.00047077377579,"[0.0, 0.0, 0.0, 0.0, 0.0, 0.0, 0.0, 0.0, 0.0]",,-0.24541125,0.24541125,9.6397539,"[0.0, 0.0, 0.0, 0.0, 0.0, 0.0, 0.0, 0.0, 0.0]"
1569265689257886272,,49772,,1569265689,201241970,"""knife_link""",,0.0179678662551,0.0238637296661,0.245921821021,0.968829260569,"[0.0, 0.0, 0.0, 0.0, 0.0, 0.0, 0.0, 0.0, 0.0]",,0.00035757943246,0.00300252830707,-0.00047077377579,"[0.0, 0.0, 0.0, 0.0, 0.0, 0.0, 0.0, 0.0, 0.0]",,-0.2748606,0.2355948,9.66920325,"[0.0, 0.0, 0.0, 0.0, 0.0, 0.0, 0.0, 0.0, 0.0]"
1569265689314397689,,49773,,1569265689,257328987,"""knife_link""",,0.0178809145875,0.0237829026592,0.245770493548,0.96887125612,"[0.0, 0.0, 0.0, 0.0, 0.0, 0.0, 0.0, 0.0, 0.0]",,0.00035757943246,-0.000488130196935,-0.00047077377579,"[0.0, 0.0, 0.0, 0.0, 0.0, 0.0, 0.0, 0.0, 0.0]",,-0.28467705,0.22577835,9.6986526,"[0.0, 0.0, 0.0, 0.0, 0.0, 0.0, 0.0, 0.0, 0.0]"
1569265689351989845,,49774,,1569265689,313764095,"""knife_link""",,0.0178626375733,0.0237378475503,0.246764552856,0.968619995781,"[0.0, 0.0, 0.0, 0.0, 0.0, 0.0, 0.0, 0.0, 0.0]",,0.0038097555571,-0.000483248894965,-0.000466066038032,"[0.0, 0.0, 0.0, 0.0, 0.0, 0.0, 0.0, 0.0, 0.0]",,-0.26504415,0.22577835,9.70846905,"[0.0, 0.0, 0.0, 0.0, 0.0, 0.0, 0.0, 0.0, 0.0]"
1569265689407969538,,49775,,1569265689,351121902,"""knife_link""",,0.0177256404255,0.0236467984097,0.246924790837,0.968583903576,"[0.0, 0.0, 0.0, 0.0, 0.0, 0.0, 0.0, 0.0, 0.0]",,-0.00141196987692,-0.000478416406016,-0.000461405377652,"[0.0, 0.0, 0.0, 0.0, 0.0, 0.0, 0.0, 0.0, 0.0]",,-0.26504415,0.20614545,9.72810195,"[0.0, 0.0, 0.0, 0.0, 0.0, 0.0, 0.0, 0.0, 0.0]"
1569265689465074735,,49776,,1569265689,407356023,"""knife_link""",,0.0178049164187,0.0236300475951,0.245524153275,0.968938850475,"[0.0, 0.0, 0.0, 0.0, 0.0, 0.0, 0.0, 0.0, 0.0]",,0.00556934713108,0.00126691284598,-0.000461405377652,"[0.0, 0.0, 0.0, 0.0, 0.0, 0.0, 0.0, 0.0, 0.0]",,-0.28467705,0.2355948,9.6790197,"[0.0, 0.0, 0.0, 0.0, 0.0, 0.0, 0.0, 0.0, 0.0]"
1569265689501961523,,49777,,1569265689,464097976,"""knife_link""",,0.0177240481392,0.0235356561414,0.245312990539,0.968996113346,"[0.0, 0.0, 0.0, 0.0, 0.0, 0.0, 0.0, 0.0, 0.0]",,0.000330025781333,-0.000473632241956,-0.000456791323875,"[0.0, 0.0, 0.0, 0.0, 0.0, 0.0, 0.0, 0.0, 0.0]",,-0.2552277,0.22577835,9.70846905,"[0.0, 0.0, 0.0, 0.0, 0.0, 0.0, 0.0, 0.0, 0.0]"
1569265689557969999,,49778,,1569265689,501288890,"""knife_link""",,0.017599206618,0.0234533649161,0.245648192795,0.968915462245,"[0.0, 0.0, 0.0, 0.0, 0.0, 0.0, 0.0, 0.0, 0.0]",,-0.00140115043596,-0.000468895919536,-0.000452223410636,"[0.0, 0.0, 0.0, 0.0, 0.0, 0.0, 0.0, 0.0, 0.0]",,-0.26504415,0.2355948,9.74773485,"[0.0, 0.0, 0.0, 0.0, 0.0, 0.0, 0.0, 0.0, 0.0]"
1569265689615013370,,49779,,1569265689,557389974,"""knife_link""",,0.0176516696295,0.0234977325565,0.244916099626,0.969098745881,"[0.0, 0.0, 0.0, 0.0, 0.0, 0.0, 0.0, 0.0, 0.0]",,0.00558016657204,0.00302176258446,-0.000452223410636,"[0.0, 0.0, 0.0, 0.0, 0.0, 0.0, 0.0, 0.0, 0.0]",,-0.28467705,0.2355948,9.6790197,"[0.0, 0.0, 0.0, 0.0, 0.0, 0.0, 0.0, 0.0, 0.0]"
1569265689651856848,,49780,,1569265689,614134073,"""knife_link""",,0.017553017194,0.0235088483433,0.244381193011,0.96923529555,"[0.0, 0.0, 0.0, 0.0, 0.0, 0.0, 0.0, 0.0, 0.0]",,0.00034417881604,0.00302176258446,-0.000452223410636,"[0.0, 0.0, 0.0, 0.0, 0.0, 0.0, 0.0, 0.0, 0.0]",,-0.28467705,0.22577835,9.6986526,"[0.0, 0.0, 0.0, 0.0, 0.0, 0.0, 0.0, 0.0, 0.0]"
1569265689708158943,,49781,,1569265689,651027917,"""knife_link""",,0.0176569469104,0.0235590021897,0.244687686994,0.969154859388,"[0.0, 0.0, 0.0, 0.0, 0.0, 0.0, 0.0, 0.0, 0.0]",,0.01256148358,0.00302176258446,0.00129310584136,"[0.0, 0.0, 0.0, 0.0, 0.0, 0.0, 0.0, 0.0, 0.0]",,-0.28467705,0.22577835,9.68883615,"[0.0, 0.0, 0.0, 0.0, 0.0, 0.0, 0.0, 0.0, 0.0]"
1569265689765044710,,49782,,1569265689,707495927,"""knife_link""",,0.0173761162722,0.0235475516356,0.245296499995,0.96900630054,"[0.0, 0.0, 0.0, 0.0, 0.0, 0.0, 0.0, 0.0, 0.0]",,-0.00489180893996,0.00302176258446,0.00129310584136,"[0.0, 0.0, 0.0, 0.0, 0.0, 0.0, 0.0, 0.0, 0.0]",,-0.28467705,0.196329,9.74773485,"[0.0, 0.0, 0.0, 0.0, 0.0, 0.0, 0.0, 0.0, 0.0]"
1569265689802735140,,49783,,1569265689,764288902,"""knife_link""",,0.0171870530166,0.0234837560618,0.24586405474,0.968867372243,"[0.0, 0.0, 0.0, 0.0, 0.0, 0.0, 0.0, 0.0, 0.0]",,-0.00311501489108,0.00126366899914,-0.00044770117653,"[0.0, 0.0, 0.0, 0.0, 0.0, 0.0, 0.0, 0.0, 0.0]",,-0.2355948,0.24541125,9.72810195,"[0.0, 0.0, 0.0, 0.0, 0.0, 0.0, 0.0, 0.0, 0.0]"
1569265689857897324,,49784,,1569265689,801964998,"""knife_link""",,0.017099184746,0.0234093226269,0.24601873629,0.968831462582,"[0.0, 0.0, 0.0, 0.0, 0.0, 0.0, 0.0, 0.0, 0.0]",,0.00037188717679,-0.000476843650332,0.00128465179472,"[0.0, 0.0, 0.0, 0.0, 0.0, 0.0, 0.0, 0.0, 0.0]",,-0.2748606,0.22577835,9.72810195,"[0.0, 0.0, 0.0, 0.0, 0.0, 0.0, 0.0, 0.0, 0.0]"
1569265689914685318,,49785,,1569265689,857362031,"""knife_link""",,0.0169156792163,0.0233232434204,0.246453725144,0.968726198405,"[0.0, 0.0, 0.0, 0.0, 0.0, 0.0, 0.0, 0.0, 0.0]",,-0.00308758361394,-0.000472075213829,0.00127180527677,"[0.0, 0.0, 0.0, 0.0, 0.0, 0.0, 0.0, 0.0, 0.0]",,-0.2944935,0.22577835,9.7379184,"[0.0, 0.0, 0.0, 0.0, 0.0, 0.0, 0.0, 0.0, 0.0]"
1569265689951981541,,49786,,1569265689,913894891,"""knife_link""",,0.0169053245811,0.0232518134827,0.246074304474,0.968824545441,"[0.0, 0.0, 0.0, 0.0, 0.0, 0.0, 0.0, 0.0, 0.0]",,0.00212692010064,-0.000467354461691,0.001259087224,"[0.0, 0.0, 0.0, 0.0, 0.0, 0.0, 0.0, 0.0, 0.0]",,-0.2748606,0.24541125,9.74773485,"[0.0, 0.0, 0.0, 0.0, 0.0, 0.0, 0.0, 0.0, 0.0]"
1569265690007981742,,49787,,1569265689,951355934,"""knife_link""",,0.0167977166188,0.0231655120573,0.245803710229,0.968897172978,"[0.0, 0.0, 0.0, 0.0, 0.0, 0.0, 0.0, 0.0, 0.0]",,-0.00135010101932,-0.000462680917074,-0.00048137960772,"[0.0, 0.0, 0.0, 0.0, 0.0, 0.0, 0.0, 0.0, 0.0]",,-0.2748606,0.22577835,9.74773485,"[0.0, 0.0, 0.0, 0.0, 0.0, 0.0, 0.0, 0.0, 0.0]"
1569265690064485314,,49788,,1569265690,7513046,"""knife_link""",,0.0167392681581,0.0230676817284,0.244862909484,0.969138707575,"[0.0, 0.0, 0.0, 0.0, 0.0, 0.0, 0.0, 0.0, 0.0]",,0.000391275950349,-0.000458054107903,-0.000476565811642,"[0.0, 0.0, 0.0, 0.0, 0.0, 0.0, 0.0, 0.0, 0.0]",,-0.26504415,0.2159619,9.72810195,"[0.0, 0.0, 0.0, 0.0, 0.0, 0.0, 0.0, 0.0, 0.0]"
1569265690101746062,,49789,,1569265690,63852071,"""knife_link""",,0.0167171725722,0.0230120781764,0.244636336613,0.969197628561,"[0.0, 0.0, 0.0, 0.0, 0.0, 0.0, 0.0, 0.0, 0.0]",,0.00211523915033,-0.000453473566824,-0.000471800153526,"[0.0, 0.0, 0.0, 0.0, 0.0, 0.0, 0.0, 0.0, 0.0]",,-0.2944935,0.2355948,9.72810195,"[0.0, 0.0, 0.0, 0.0, 0.0, 0.0, 0.0, 0.0, 0.0]"
1569265690157998694,,49790,,1569265690,100903034,"""knife_link""",,0.0166009299876,0.0229271144527,0.244409994076,0.969258743238,"[0.0, 0.0, 0.0, 0.0, 0.0, 0.0, 0.0, 0.0, 0.0]",,-0.00136166516014,-0.000448938831156,-0.000467082151991,"[0.0, 0.0, 0.0, 0.0, 0.0, 0.0, 0.0, 0.0, 0.0]",,-0.2748606,0.20614545,9.72810195,"[0.0, 0.0, 0.0, 0.0, 0.0, 0.0, 0.0, 0.0, 0.0]"
1569265690214616529,,49791,,1569265690,157361030,"""knife_link""",,0.0166487138749,0.0229065423042,0.242504843906,0.969736825808,"[0.0, 0.0, 0.0, 0.0, 0.0, 0.0, 0.0, 0.0, 0.0]",,0.0038355793699,0.00128342651664,-0.000462411330471,"[0.0, 0.0, 0.0, 0.0, 0.0, 0.0, 0.0, 0.0, 0.0]",,-0.30430995,0.22577835,9.72810195,"[0.0, 0.0, 0.0, 0.0, 0.0, 0.0, 0.0, 0.0, 0.0]"
1569265690251958880,,49792,,1569265690,213984966,"""knife_link""",,0.0165497758278,0.0228437389386,0.242994033261,0.969617537131,"[0.0, 0.0, 0.0, 0.0, 0.0, 0.0, 0.0, 0.0, 0.0]",,0.000341471657244,-0.00045728370801,-0.000457787217166,"[0.0, 0.0, 0.0, 0.0, 0.0, 0.0, 0.0, 0.0, 0.0]",,-0.28467705,0.20614545,9.72810195,"[0.0, 0.0, 0.0, 0.0, 0.0, 0.0, 0.0, 0.0, 0.0]"
1569265690308263950,,49793,,1569265690,251390933,"""knife_link""",,0.0165197791662,0.0228021201939,0.241773091074,0.969924189122,"[0.0, 0.0, 0.0, 0.0, 0.0, 0.0, 0.0, 0.0, 0.0]",,0.00206593290015,0.00127516508855,-0.000453209344994,"[0.0, 0.0, 0.0, 0.0, 0.0, 0.0, 0.0, 0.0, 0.0]",,-0.2944935,0.22577835,9.7182855,"[0.0, 0.0, 0.0, 0.0, 0.0, 0.0, 0.0, 0.0, 0.0]"
1569265690364691911,,49794,,1569265690,307569980,"""knife_link""",,0.0164374263119,0.0227247072894,0.241643502276,0.969959698391,"[0.0, 0.0, 0.0, 0.0, 0.0, 0.0, 0.0, 0.0, 0.0]",,0.00031739761167,-0.000465462521816,-0.000448677251545,"[0.0, 0.0, 0.0, 0.0, 0.0, 0.0, 0.0, 0.0, 0.0]",,-0.2748606,0.20614545,9.7182855,"[0.0, 0.0, 0.0, 0.0, 0.0, 0.0, 0.0, 0.0, 0.0]"
1569265690402055871,,49795,,1569265690,364031076,"""knife_link""",,0.0163587825804,0.0226595119898,0.241849337656,0.969911250901,"[0.0, 0.0, 0.0, 0.0, 0.0, 0.0, 0.0, 0.0, 0.0]",,0.000314223635554,-0.000460807896598,0.00128368548045,"[0.0, 0.0, 0.0, 0.0, 0.0, 0.0, 0.0, 0.0, 0.0]",,-0.28467705,0.22577835,9.7182855,"[0.0, 0.0, 0.0, 0.0, 0.0, 0.0, 0.0, 0.0, 0.0]"
1569265690457829268,,49796,,1569265690,401359081,"""knife_link""",,0.0163231235645,0.0226442070216,0.242451073413,0.969761966942,"[0.0, 0.0, 0.0, 0.0, 0.0, 0.0, 0.0, 0.0, 0.0]",,0.00380488213955,0.0012845213554,-0.000461643771549,"[0.0, 0.0, 0.0, 0.0, 0.0, 0.0, 0.0, 0.0, 0.0]",,-0.26504415,0.22577835,9.68883615,"[0.0, 0.0, 0.0, 0.0, 0.0, 0.0, 0.0, 0.0, 0.0]"
1569265690514827144,,49797,,1569265690,457351922,"""knife_link""",,0.0161569616392,0.0225533422037,0.242365455896,0.969788268198,"[0.0, 0.0, 0.0, 0.0, 0.0, 0.0, 0.0, 0.0, 0.0]",,-0.00314467051976,-0.000456199817632,-0.000457027333834,"[0.0, 0.0, 0.0, 0.0, 0.0, 0.0, 0.0, 0.0, 0.0]",,-0.28467705,0.22577835,9.72810195,"[0.0, 0.0, 0.0, 0.0, 0.0, 0.0, 0.0, 0.0, 0.0]"
1569265690552317261,,49798,,1569265690,514179944,"""knife_link""",,0.0162956545643,0.0226072478844,0.243366654842,0.969533926841,"[0.0, 0.0, 0.0, 0.0, 0.0, 0.0, 0.0, 0.0, 0.0]",,0.00907263424424,0.00128912943437,0.00128830191817,"[0.0, 0.0, 0.0, 0.0, 0.0, 0.0, 0.0, 0.0, 0.0]",,-0.2748606,0.2355948,9.70846905,"[0.0, 0.0, 0.0, 0.0, 0.0, 0.0, 0.0, 0.0, 0.0]"
1569265690607903877,,49799,,1569265690,551472902,"""knife_link""",,0.015923071253,0.0224817660785,0.244654176892,0.969218943132,"[0.0, 0.0, 0.0, 0.0, 0.0, 0.0, 0.0, 0.0, 0.0]",,-0.0136166460318,-0.000456199817632,0.00128830191817,"[0.0, 0.0, 0.0, 0.0, 0.0, 0.0, 0.0, 0.0, 0.0]",,-0.2552277,0.18651255,9.78700065,"[0.0, 0.0, 0.0, 0.0, 0.0, 0.0, 0.0, 0.0, 0.0]"
1569265690664844536,,49800,,1569265690,607383966,"""knife_link""",,0.0161236965835,0.0227194535877,0.244480362392,0.969253942598,"[0.0, 0.0, 0.0, 0.0, 0.0, 0.0, 0.0, 0.0, 0.0]",,0.0125632927482,0.00652511719037,-0.000457027333834,"[0.0, 0.0, 0.0, 0.0, 0.0, 0.0, 0.0, 0.0, 0.0]",,-0.3533922,0.2159619,9.64957035,"[0.0, 0.0, 0.0, 0.0, 0.0, 0.0, 0.0, 0.0, 0.0]"
1569265690702057746,,49801,,1569265690,664127111,"""knife_link""",,0.0160103969128,0.0227417259996,0.245296839907,0.969048988143,"[0.0, 0.0, 0.0, 0.0, 0.0, 0.0, 0.0, 0.0, 0.0]",,0.000345987984238,0.00128912943437,0.00128830191817,"[0.0, 0.0, 0.0, 0.0, 0.0, 0.0, 0.0, 0.0, 0.0]",,-0.34357575,0.2159619,9.6593868,"[0.0, 0.0, 0.0, 0.0, 0.0, 0.0, 0.0, 0.0, 0.0]"
1569265690758400978,,49802,,1569265690,701441049,"""knife_link""",,0.0156879433784,0.0225596877331,0.244764234922,0.969193179003,"[0.0, 0.0, 0.0, 0.0, 0.0, 0.0, 0.0, 0.0, 0.0]",,-0.0136166460318,-0.00220152906963,-0.000457027333834,"[0.0, 0.0, 0.0, 0.0, 0.0, 0.0, 0.0, 0.0, 0.0]",,-0.26504415,0.18651255,9.76736775,"[0.0, 0.0, 0.0, 0.0, 0.0, 0.0, 0.0, 0.0, 0.0]"
1569265690814893919,,49803,,1569265690,757850885,"""knife_link""",,0.0156905455742,0.0226571522461,0.246511149564,0.968748013351,"[0.0, 0.0, 0.0, 0.0, 0.0, 0.0, 0.0, 0.0, 0.0]",,0.00558197574024,0.00303445868637,-0.000457027333834,"[0.0, 0.0, 0.0, 0.0, 0.0, 0.0, 0.0, 0.0, 0.0]",,-0.2944935,0.2159619,9.7182855,"[0.0, 0.0, 0.0, 0.0, 0.0, 0.0, 0.0, 0.0, 0.0]"
1569265690852363958,,49804,,1569265690,814109086,"""knife_link""",,0.0156482428428,0.0226251864699,0.247008525302,0.96862274486,"[0.0, 0.0, 0.0, 0.0, 0.0, 0.0, 0.0, 0.0, 0.0]",,0.00207040406388,-0.000451637819455,-0.000452457060495,"[0.0, 0.0, 0.0, 0.0, 0.0, 0.0, 0.0, 0.0, 0.0]",,-0.3141264,0.2159619,9.70846905,"[0.0, 0.0, 0.0, 0.0, 0.0, 0.0, 0.0, 0.0, 0.0]"
1569265690907908677,,49805,,1569265690,851555109,"""knife_link""",,0.0155254970407,0.0225968446756,0.248888589337,0.968144003571,"[0.0, 0.0, 0.0, 0.0, 0.0, 0.0, 0.0, 0.0, 0.0]",,0.000321824063757,-0.000447121441261,-0.00044793248989,"[0.0, 0.0, 0.0, 0.0, 0.0, 0.0, 0.0, 0.0, 0.0]",,-0.2944935,0.2159619,9.72810195,"[0.0, 0.0, 0.0, 0.0, 0.0, 0.0, 0.0, 0.0, 0.0]"
1569265690964610109,,49806,,1569265690,907349109,"""knife_link""",,0.0153591189444,0.022575726819,0.250120958504,0.96782949952,"[0.0, 0.0, 0.0, 0.0, 0.0, 0.0, 0.0, 0.0, 0.0]",,-0.00140927013636,0.00128522573263,0.00128442279449,"[0.0, 0.0, 0.0, 0.0, 0.0, 0.0, 0.0, 0.0, 0.0]",,-0.2748606,0.196329,9.7379184,"[0.0, 0.0, 0.0, 0.0, 0.0, 0.0, 0.0, 0.0, 0.0]"
1569265691002174234,,49807,,1569265690,964077949,"""knife_link""",,0.0153951543348,0.022576499374,0.249136850848,0.96808270331,"[0.0, 0.0, 0.0, 0.0, 0.0, 0.0, 0.0, 0.0, 0.0]",,0.00378845044344,0.00127237347531,-0.000456297392936,"[0.0, 0.0, 0.0, 0.0, 0.0, 0.0, 0.0, 0.0, 0.0]",,-0.30430995,0.22577835,9.7182855,"[0.0, 0.0, 0.0, 0.0, 0.0, 0.0, 0.0, 0.0, 0.0]"
1569265691058313845,,49808,,1569265691,1276016,"""knife_link""",,0.0152810335513,0.0225602717468,0.250230100465,0.967802883326,"[0.0, 0.0, 0.0, 0.0, 0.0, 0.0, 0.0, 0.0, 0.0]",,0.000294814020049,0.00125964974055,-0.000451734419007,"[0.0, 0.0, 0.0, 0.0, 0.0, 0.0, 0.0, 0.0, 0.0]",,-0.28467705,0.20614545,9.7182855,"[0.0, 0.0, 0.0, 0.0, 0.0, 0.0, 0.0, 0.0, 0.0]"
1569265691114641518,,49809,,1569265691,57713985,"""knife_link""",,0.0151395916004,0.0225012551468,0.251535602965,0.967467997778,"[0.0, 0.0, 0.0, 0.0, 0.0, 0.0, 0.0, 0.0, 0.0]",,-0.00143601007963,-0.000480822716333,0.00128065888466,"[0.0, 0.0, 0.0, 0.0, 0.0, 0.0, 0.0, 0.0, 0.0]",,-0.28467705,0.22577835,9.74773485,"[0.0, 0.0, 0.0, 0.0, 0.0, 0.0, 0.0, 0.0, 0.0]"
1569265691152383285,,49810,,1569265691,113979101,"""knife_link""",,0.0150368545581,0.0224485275314,0.252793946938,0.967142790392,"[0.0, 0.0, 0.0, 0.0, 0.0, 0.0, 0.0, 0.0, 0.0]",,0.000306225980644,-0.00047601448917,-0.000460023663663,"[0.0, 0.0, 0.0, 0.0, 0.0, 0.0, 0.0, 0.0, 0.0]",,-0.2748606,0.20614545,9.74773485,"[0.0, 0.0, 0.0, 0.0, 0.0, 0.0, 0.0, 0.0, 0.0]"
1569265691207943653,,49811,,1569265691,151442050,"""knife_link""",,0.0149895190399,0.0224077351024,0.253455458824,0.966971322284,"[0.0, 0.0, 0.0, 0.0, 0.0, 0.0, 0.0, 0.0, 0.0]",,0.00203103968032,-0.000471254344278,-0.000455423427027,"[0.0, 0.0, 0.0, 0.0, 0.0, 0.0, 0.0, 0.0, 0.0]",,-0.28467705,0.2355948,9.72810195,"[0.0, 0.0, 0.0, 0.0, 0.0, 0.0, 0.0, 0.0, 0.0]"
1569265691264842243,,49812,,1569265691,207389116,"""knife_link""",,0.0149388457283,0.0223225957929,0.252849924385,0.967132590881,"[0.0, 0.0, 0.0, 0.0, 0.0, 0.0, 0.0, 0.0, 0.0]",,0.000282853324035,-0.000466541800835,0.00127700676672,"[0.0, 0.0, 0.0, 0.0, 0.0, 0.0, 0.0, 0.0, 0.0]",,-0.26504415,0.2159619,9.72810195,"[0.0, 0.0, 0.0, 0.0, 0.0, 0.0, 0.0, 0.0, 0.0]"
1569265691301994899,,49813,,1569265691,263930082,"""knife_link""",,0.0150124288622,0.0222940284433,0.250419935408,0.967764154753,"[0.0, 0.0, 0.0, 0.0, 0.0, 0.0, 0.0, 0.0, 0.0]",,0.00373577670975,0.00126599957665,-0.000463639260424,"[0.0, 0.0, 0.0, 0.0, 0.0, 0.0, 0.0, 0.0, 0.0]",,-0.28467705,0.22577835,9.70846905,"[0.0, 0.0, 0.0, 0.0, 0.0, 0.0, 0.0, 0.0, 0.0]"
1569265691358807509,,49814,,1569265691,301450014,"""knife_link""",,0.0149218580437,0.0222367566575,0.251284986069,0.967542619517,"[0.0, 0.0, 0.0, 0.0, 0.0, 0.0, 0.0, 0.0, 0.0]",,0.000242667023697,-0.000474536378593,-0.00045900286782,"[0.0, 0.0, 0.0, 0.0, 0.0, 0.0, 0.0, 0.0, 0.0]",,-0.26504415,0.2159619,9.7379184,"[0.0, 0.0, 0.0, 0.0, 0.0, 0.0, 0.0, 0.0, 0.0]"
1569265691414746225,,49815,,1569265691,357716083,"""knife_link""",,0.0149581271547,0.0221983053073,0.251165179254,0.967574050088,"[0.0, 0.0, 0.0, 0.0, 0.0, 0.0, 0.0, 0.0, 0.0]",,0.00369599227242,-0.000469791014808,-0.000454412839141,"[0.0, 0.0, 0.0, 0.0, 0.0, 0.0, 0.0, 0.0, 0.0]",,-0.28467705,0.2355948,9.7182855,"[0.0, 0.0, 0.0, 0.0, 0.0, 0.0, 0.0, 0.0, 0.0]"
1569265691451816656,,49816,,1569265691,414022922,"""knife_link""",,0.0148595639705,0.0221542173659,0.25264881164,0.967190240846,"[0.0, 0.0, 0.0, 0.0, 0.0, 0.0, 0.0, 0.0, 0.0]",,0.000203280430736,-0.000465093104659,-0.00044986871075,"[0.0, 0.0, 0.0, 0.0, 0.0, 0.0, 0.0, 0.0, 0.0]",,-0.2748606,0.22577835,9.72810195,"[0.0, 0.0, 0.0, 0.0, 0.0, 0.0, 0.0, 0.0, 0.0]"
1569265691507953131,,49817,,1569265691,451292991,"""knife_link""",,0.014778903386,0.0221301728246,0.252849263442,0.967139643197,"[0.0, 0.0, 0.0, 0.0, 0.0, 0.0, 0.0, 0.0, 0.0]",,0.000201247626428,0.00126743378587,-0.000445370023642,"[0.0, 0.0, 0.0, 0.0, 0.0, 0.0, 0.0, 0.0, 0.0]",,-0.28467705,0.22577835,9.7379184,"[0.0, 0.0, 0.0, 0.0, 0.0, 0.0, 0.0, 0.0, 0.0]"
1569265691564106288,,49818,,1569265691,507483959,"""knife_link""",,0.0147902155805,0.0221045136206,0.253338009833,0.96701214717,"[0.0, 0.0, 0.0, 0.0, 0.0, 0.0, 0.0, 0.0, 0.0]",,0.00365498706912,-0.000473116511472,-0.000440916323406,"[0.0, 0.0, 0.0, 0.0, 0.0, 0.0, 0.0, 0.0, 0.0]",,-0.2944935,0.2159619,9.70846905,"[0.0, 0.0, 0.0, 0.0, 0.0, 0.0, 0.0, 0.0, 0.0]"
1569265691602254695,,49819,,1569265691,563515901,"""knife_link""",,0.0146935033315,0.0220594761081,0.254486654998,0.966712999241,"[0.0, 0.0, 0.0, 0.0, 0.0, 0.0, 0.0, 0.0, 0.0]",,0.000162685279473,-0.000468385346357,-0.000436507160172,"[0.0, 0.0, 0.0, 0.0, 0.0, 0.0, 0.0, 0.0, 0.0]",,-0.28467705,0.2159619,9.72810195,"[0.0, 0.0, 0.0, 0.0, 0.0, 0.0, 0.0, 0.0, 0.0]"
1569265691659110245,,49820,,1569265691,601555109,"""knife_link""",,0.0146573178589,0.0219772384512,0.252908600089,0.96712946601,"[0.0, 0.0, 0.0, 0.0, 0.0, 0.0, 0.0, 0.0, 0.0]",,0.000161058426678,-0.000463701492893,-0.00043214208857,"[0.0, 0.0, 0.0, 0.0, 0.0, 0.0, 0.0, 0.0, 0.0]",,-0.28467705,0.2159619,9.72810195,"[0.0, 0.0, 0.0, 0.0, 0.0, 0.0, 0.0, 0.0, 0.0]"
1569265691714817608,,49821,,1569265691,657922029,"""knife_link""",,0.0145221336827,0.0219507845362,0.253010578777,0.967105432576,"[0.0, 0.0, 0.0, 0.0, 0.0, 0.0, 0.0, 0.0, 0.0]",,-0.00156842811707,0.00126881148152,-0.000427820667685,"[0.0, 0.0, 0.0, 0.0, 0.0, 0.0, 0.0, 0.0, 0.0]",,-0.28467705,0.20614545,9.72810195,"[0.0, 0.0, 0.0, 0.0, 0.0, 0.0, 0.0, 0.0, 0.0]"
1569265691751870267,,49822,,1569265691,714005947,"""knife_link""",,0.0145365491564,0.0219260376297,0.253803707687,0.966897934415,"[0.0, 0.0, 0.0, 0.0, 0.0, 0.0, 0.0, 0.0, 0.0]",,0.00363088404254,-0.000471752592779,0.00130433349847,"[0.0, 0.0, 0.0, 0.0, 0.0, 0.0, 0.0, 0.0, 0.0]",,-0.28467705,0.22577835,9.7182855,"[0.0, 0.0, 0.0, 0.0, 0.0, 0.0, 0.0, 0.0, 0.0]"
1569265691808111588,,49823,,1569265691,751317024,"""knife_link""",,0.0144589816272,0.021873820261,0.254106338247,0.966820791409,"[0.0, 0.0, 0.0, 0.0, 0.0, 0.0, 0.0, 0.0, 0.0]",,0.000138823283157,-0.000467035066852,-0.000436585795992,"[0.0, 0.0, 0.0, 0.0, 0.0, 0.0, 0.0, 0.0, 0.0]",,-0.28467705,0.2159619,9.70846905,"[0.0, 0.0, 0.0, 0.0, 0.0, 0.0, 0.0, 0.0, 0.0]"
1569265691864758738,,49824,,1569265691,807532072,"""knife_link""",,0.0143643293165,0.0217885402457,0.253229887101,0.96705405735,"[0.0, 0.0, 0.0, 0.0, 0.0, 0.0, 0.0, 0.0, 0.0]",,-0.00159044090916,-0.000462364716183,-0.000432219938032,"[0.0, 0.0, 0.0, 0.0, 0.0, 0.0, 0.0, 0.0, 0.0]",,-0.28467705,0.2159619,9.7182855,"[0.0, 0.0, 0.0, 0.0, 0.0, 0.0, 0.0, 0.0, 0.0]"
1569265691902596576,,49825,,1569265691,863943099,"""knife_link""",,0.0143004549552,0.0217712520785,0.252521333878,0.967240655425,"[0.0, 0.0, 0.0, 0.0, 0.0, 0.0, 0.0, 0.0, 0.0]",,0.000154888342845,0.00128296453582,-0.000432219938032,"[0.0, 0.0, 0.0, 0.0, 0.0, 0.0, 0.0, 0.0, 0.0]",,-0.2944935,0.2159619,9.6986526,"[0.0, 0.0, 0.0, 0.0, 0.0, 0.0, 0.0, 0.0, 0.0]"
1569265691958458638,,49826,,1569265691,901719093,"""knife_link""",,0.0142276997823,0.0217532663799,0.252592870823,0.967223453794,"[0.0, 0.0, 0.0, 0.0, 0.0, 0.0, 0.0, 0.0, 0.0]",,0.000153339459417,0.00127013489046,0.00129997822083,"[0.0, 0.0, 0.0, 0.0, 0.0, 0.0, 0.0, 0.0, 0.0]",,-0.2944935,0.22577835,9.72810195,"[0.0, 0.0, 0.0, 0.0, 0.0, 0.0, 0.0, 0.0, 0.0]"
1569265692014595364,,49827,,1569265691,957627058,"""knife_link""",,0.0141099116062,0.021686228127,0.252882890933,0.967150898969,"[0.0, 0.0, 0.0, 0.0, 0.0, 0.0, 0.0, 0.0, 0.0]",,-0.00157606989466,-0.000470442417926,-0.00044089752086,"[0.0, 0.0, 0.0, 0.0, 0.0, 0.0, 0.0, 0.0, 0.0]",,-0.28467705,0.2159619,9.72810195,"[0.0, 0.0, 0.0, 0.0, 0.0, 0.0, 0.0, 0.0, 0.0]"
1569265692052630599,,49828,,1569265692,13710975,"""knife_link""",,0.0140227598621,0.0216827604547,0.25340437224,0.967015741462,"[0.0, 0.0, 0.0, 0.0, 0.0, 0.0, 0.0, 0.0, 0.0]",,0.000169259357342,0.00127488683407,-0.00044089752086,"[0.0, 0.0, 0.0, 0.0, 0.0, 0.0, 0.0, 0.0, 0.0]",,-0.28467705,0.2159619,9.6986526,"[0.0, 0.0, 0.0, 0.0, 0.0, 0.0, 0.0, 0.0, 0.0]"
1569265692108216305,,49829,,1569265692,51875114,"""knife_link""",,0.0139396692928,0.0216659171881,0.253841409068,0.966902690396,"[0.0, 0.0, 0.0, 0.0, 0.0, 0.0, 0.0, 0.0, 0.0]",,0.000167566763769,0.00126213796573,-0.000436488545652,"[0.0, 0.0, 0.0, 0.0, 0.0, 0.0, 0.0, 0.0, 0.0]",,-0.28467705,0.2159619,9.72810195,"[0.0, 0.0, 0.0, 0.0, 0.0, 0.0, 0.0, 0.0, 0.0]"
1569265692164871731,,49830,,1569265692,107528924,"""knife_link""",,0.0139125715125,0.0216699991487,0.254023793724,0.966855089304,"[0.0, 0.0, 0.0, 0.0, 0.0, 0.0, 0.0, 0.0, 0.0]",,0.00189376705561,0.00124951658608,-0.000432123660195,"[0.0, 0.0, 0.0, 0.0, 0.0, 0.0, 0.0, 0.0, 0.0]",,-0.28467705,0.22577835,9.70846905,"[0.0, 0.0, 0.0, 0.0, 0.0, 0.0, 0.0, 0.0, 0.0]"
1569265692202033433,,49831,,1569265692,164021968,"""knife_link""",,0.0138860466031,0.0215841911528,0.252490943749,0.96725881941,"[0.0, 0.0, 0.0, 0.0, 0.0, 0.0, 0.0, 0.0, 0.0]",,0.000146953425575,-0.000490854539265,-0.000427802423593,"[0.0, 0.0, 0.0, 0.0, 0.0, 0.0, 0.0, 0.0, 0.0]",,-0.2748606,0.2159619,9.72810195,"[0.0, 0.0, 0.0, 0.0, 0.0, 0.0, 0.0, 0.0, 0.0]"
1569265692258246571,,49832,,1569265692,201313972,"""knife_link""",,0.0138821682606,0.0215619255422,0.252784048788,0.967182812838,"[0.0, 0.0, 0.0, 0.0, 0.0, 0.0, 0.0, 0.0, 0.0]",,0.00363761192958,-0.000490854539265,0.00131752682841,"[0.0, 0.0, 0.0, 0.0, 0.0, 0.0, 0.0, 0.0, 0.0]",,-0.30430995,0.22577835,9.6593868,"[0.0, 0.0, 0.0, 0.0, 0.0, 0.0, 0.0, 0.0, 0.0]"
1569265692314775270,,49833,,1569265692,257477998,"""knife_link""",,0.0138504376569,0.0215736294461,0.253357317314,0.967032995121,"[0.0, 0.0, 0.0, 0.0, 0.0, 0.0, 0.0, 0.0, 0.0]",,0.00189228267758,0.00125447471274,0.00131752682841,"[0.0, 0.0, 0.0, 0.0, 0.0, 0.0, 0.0, 0.0, 0.0]",,-0.28467705,0.22577835,9.6004881,"[0.0, 0.0, 0.0, 0.0, 0.0, 0.0, 0.0, 0.0, 0.0]"
1569265692351936602,,49834,,1569265692,313931941,"""knife_link""",,0.0138250475214,0.0215358255511,0.253965270879,0.966874716531,"[0.0, 0.0, 0.0, 0.0, 0.0, 0.0, 0.0, 0.0, 0.0]",,0.00189228267758,-0.000490854539265,0.00131752682841,"[0.0, 0.0, 0.0, 0.0, 0.0, 0.0, 0.0, 0.0, 0.0]",,-0.28467705,0.2159619,9.6986526,"[0.0, 0.0, 0.0, 0.0, 0.0, 0.0, 0.0, 0.0, 0.0]"
1569265692408135534,,49835,,1569265692,351264953,"""knife_link""",,0.0138319226072,0.0215758097372,0.254975155599,0.966607900019,"[0.0, 0.0, 0.0, 0.0, 0.0, 0.0, 0.0, 0.0, 0.0]",,0.00532911176976,0.00296980592509,-0.000423524399357,"[0.0, 0.0, 0.0, 0.0, 0.0, 0.0, 0.0, 0.0, 0.0]",,-0.26504415,0.24541125,9.7968171,"[0.0, 0.0, 0.0, 0.0, 0.0, 0.0, 0.0, 0.0, 0.0]"
1569265692464158367,,49836,,1569265692,407489061,"""knife_link""",,0.0138821210484,0.021603435952,0.255797051189,0.966389386776,"[0.0, 0.0, 0.0, 0.0, 0.0, 0.0, 0.0, 0.0, 0.0]",,0.00532911176976,0.00122447667309,-0.000423524399357,"[0.0, 0.0, 0.0, 0.0, 0.0, 0.0, 0.0, 0.0, 0.0]",,-0.26504415,0.2159619,9.6986526,"[0.0, 0.0, 0.0, 0.0, 0.0, 0.0, 0.0, 0.0, 0.0]"
1569265692501856843,,49837,,1569265692,463653087,"""knife_link""",,0.0138110567297,0.0215452061675,0.256201265807,0.966284621735,"[0.0, 0.0, 0.0, 0.0, 0.0, 0.0, 0.0, 0.0, 0.0]",,9.21927736218e-05,-0.000515644053123,-0.000419289155364,"[0.0, 0.0, 0.0, 0.0, 0.0, 0.0, 0.0, 0.0, 0.0]",,-0.2748606,0.2159619,9.72810195,"[0.0, 0.0, 0.0, 0.0, 0.0, 0.0, 0.0, 0.0, 0.0]"
1569265692558232726,,49838,,1569265692,501276016,"""knife_link""",,0.0137424538507,0.0214979809014,0.256600238266,0.966180779927,"[0.0, 0.0, 0.0, 0.0, 0.0, 0.0, 0.0, 0.0, 0.0]",,9.12708458856e-05,-0.000510487612592,-0.00041509626381,"[0.0, 0.0, 0.0, 0.0, 0.0, 0.0, 0.0, 0.0, 0.0]",,-0.28467705,0.22577835,9.72810195,"[0.0, 0.0, 0.0, 0.0, 0.0, 0.0, 0.0, 0.0, 0.0]"
1569265692614367960,,49839,,1569265692,557645082,"""knife_link""",,0.0136763712143,0.0214472836958,0.256999430519,0.966076737949,"[0.0, 0.0, 0.0, 0.0, 0.0, 0.0, 0.0, 0.0, 0.0]",,9.03581374267e-05,-0.000505382736466,-0.000410945301172,"[0.0, 0.0, 0.0, 0.0, 0.0, 0.0, 0.0, 0.0, 0.0]",,-0.28467705,0.22577835,9.7182855,"[0.0, 0.0, 0.0, 0.0, 0.0, 0.0, 0.0, 0.0, 0.0]"
1569265692651769210,,49840,,1569265692,613575935,"""knife_link""",,0.013629384292,0.0214280111447,0.258673845324,0.965630841454,"[0.0, 0.0, 0.0, 0.0, 0.0, 0.0, 0.0, 0.0, 0.0]",,0.00183568738943,-0.000505382736466,-0.000410945301172,"[0.0, 0.0, 0.0, 0.0, 0.0, 0.0, 0.0, 0.0, 0.0]",,-0.28467705,0.22577835,9.6986526,"[0.0, 0.0, 0.0, 0.0, 0.0, 0.0, 0.0, 0.0, 0.0]"
1569265692708819143,,49841,,1569265692,651304960,"""knife_link""",,0.0135783613308,0.0213683413333,0.258406948152,0.965704339453,"[0.0, 0.0, 0.0, 0.0, 0.0, 0.0, 0.0, 0.0, 0.0]",,8.94545560525e-05,-0.000500328909101,-0.00040683584816,"[0.0, 0.0, 0.0, 0.0, 0.0, 0.0, 0.0, 0.0, 0.0]",,-0.2748606,0.22577835,9.70846905,"[0.0, 0.0, 0.0, 0.0, 0.0, 0.0, 0.0, 0.0, 0.0]"
1569265692764321623,,49842,,1569265692,708234071,"""knife_link""",,0.0136073333757,0.0213022158245,0.256692547108,0.966162508245,"[0.0, 0.0, 0.0, 0.0, 0.0, 0.0, 0.0, 0.0, 0.0]",,0.00181643596997,-0.00049532562001,-0.000402767489679,"[0.0, 0.0, 0.0, 0.0, 0.0, 0.0, 0.0, 0.0, 0.0]",,-0.28467705,0.22577835,9.70846905,"[0.0, 0.0, 0.0, 0.0, 0.0, 0.0, 0.0, 0.0, 0.0]"
1569265692801760614,,49843,,1569265692,763813018,"""knife_link""",,0.013554746377,0.0212372544272,0.256348043814,0.966256140114,"[0.0, 0.0, 0.0, 0.0, 0.0, 0.0, 0.0, 0.0, 0.0]",,7.03956507922e-05,-0.00049037236381,-0.000398739814782,"[0.0, 0.0, 0.0, 0.0, 0.0, 0.0, 0.0, 0.0, 0.0]",,-0.2748606,0.2159619,9.7182855,"[0.0, 0.0, 0.0, 0.0, 0.0, 0.0, 0.0, 0.0, 0.0]"
1569265692858144291,,49844,,1569265692,801213979,"""knife_link""",,0.0137639698711,0.0212616793659,0.257072861218,0.966060059287,"[0.0, 0.0, 0.0, 0.0, 0.0, 0.0, 0.0, 0.0, 0.0]",,0.0157783589188,-0.00049037236381,-0.000398739814782,"[0.0, 0.0, 0.0, 0.0, 0.0, 0.0, 0.0, 0.0, 0.0]",,-0.26504415,0.22577835,9.80663355,"[0.0, 0.0, 0.0, 0.0, 0.0, 0.0, 0.0, 0.0, 0.0]"
1569265692914398096,,49845,,1569265692,857601881,"""knife_link""",,0.0136937395424,0.0212666007782,0.257823684186,0.965860839387,"[0.0, 0.0, 0.0, 0.0, 0.0, 0.0, 0.0, 0.0, 0.0]",,7.03956507922e-05,0.00125495688819,-0.000398739814782,"[0.0, 0.0, 0.0, 0.0, 0.0, 0.0, 0.0, 0.0, 0.0]",,-0.2748606,0.2552277,9.61030455,"[0.0, 0.0, 0.0, 0.0, 0.0, 0.0, 0.0, 0.0, 0.0]"
1569265692951594253,,49846,,1569265692,913683891,"""knife_link""",,0.0169548069476,0.0223946121435,0.264977307909,0.963845445163,"[0.0, 0.0, 0.0, 0.0, 0.0, 0.0, 0.0, 0.0, 0.0]",,0.0855915289988,0.0204535786602,0.254419330977,"[0.0, 0.0, 0.0, 0.0, 0.0, 0.0, 0.0, 0.0, 0.0]",,0.06871515,2.2970493,9.8949816,"[0.0, 0.0, 0.0, 0.0, 0.0, 0.0, 0.0, 0.0, 0.0]"
1569265693008547236,,49847,,1569265692,951106071,"""knife_link""",,0.00912628420877,0.0233660887667,0.263984838984,0.96420057126,"[0.0, 0.0, 0.0, 0.0, 0.0, 0.0, 0.0, 0.0, 0.0]",,-0.396119344553,0.167061235828,0.133991612589,"[0.0, 0.0, 0.0, 0.0, 0.0, 0.0, 0.0, 0.0, 0.0]",,-2.71915665,-3.4357575,12.88899885,"[0.0, 0.0, 0.0, 0.0, 0.0, 0.0, 0.0, 0.0, 0.0]"
1569265693064549770,,49848,,1569265693,7785081,"""knife_link""",,0.0206494453382,0.037937171311,0.276701240252,0.959984788985,"[0.0, 0.0, 0.0, 0.0, 0.0, 0.0, 0.0, 0.0, 0.0]",,0.539377134519,0.38697272158,0.535417340549,"[0.0, 0.0, 0.0, 0.0, 0.0, 0.0, 0.0, 0.0, 0.0]",,-2.1203532,-2.14980255,10.84717725,"[0.0, 0.0, 0.0, 0.0, 0.0, 0.0, 0.0, 0.0, 0.0]"
1569265693102335249,,49849,,1569265693,63843965,"""knife_link""",,0.233078297868,0.131883321931,0.208635742852,0.940612791357,"[0.0, 0.0, 0.0, 0.0, 0.0, 0.0, 0.0, 0.0, 0.0]",,8.57487301073,1.09557639789,-2.09479384221,"[0.0, 0.0, 0.0, 0.0, 0.0, 0.0, 0.0, 0.0, 0.0]",,-2.66025795,12.39817635,15.08788365,"[0.0, 0.0, 0.0, 0.0, 0.0, 0.0, 0.0, 0.0, 0.0]"
1569265693158717805,,49850,,1569265693,101577043,"""knife_link""",,0.101183955778,0.0687587910747,0.257967921356,0.95837705904,"[0.0, 0.0, 0.0, 0.0, 0.0, 0.0, 0.0, 0.0, 0.0]",,-7.90801644516,-1.29901533585,1.94215271766,"[0.0, 0.0, 0.0, 0.0, 0.0, 0.0, 0.0, 0.0, 0.0]",,1.24668915,11.49506295,9.68883615,"[0.0, 0.0, 0.0, 0.0, 0.0, 0.0, 0.0, 0.0, 0.0]"
1569265693214323848,,49851,,1569265693,157875061,"""knife_link""",,-0.153122549624,0.00570671829718,0.269141207817,0.950833281084,"[0.0, 0.0, 0.0, 0.0, 0.0, 0.0, 0.0, 0.0, 0.0]",,-9.73537617201,0.296215600476,-0.0335599956028,"[0.0, 0.0, 0.0, 0.0, 0.0, 0.0, 0.0, 0.0, 0.0]",,1.52154975,6.3806925,8.0887548,"[0.0, 0.0, 0.0, 0.0, 0.0, 0.0, 0.0, 0.0, 0.0]"
1569265693251649196,,49852,,1569265693,213717937,"""knife_link""",,-0.222274333872,-0.055654316986,0.273126758274,0.934290367829,"[0.0, 0.0, 0.0, 0.0, 0.0, 0.0, 0.0, 0.0, 0.0]",,-3.06472777086,-1.53638011412,0.167152868377,"[0.0, 0.0, 0.0, 0.0, 0.0, 0.0, 0.0, 0.0, 0.0]",,6.54757215,1.9043913,11.5637781,"[0.0, 0.0, 0.0, 0.0, 0.0, 0.0, 0.0, 0.0, 0.0]"
1569265693308097365,,49853,,1569265693,251180887,"""knife_link""",,-0.194919228125,-0.131752780388,0.29897312621,0.924804178824,"[0.0, 0.0, 0.0, 0.0, 0.0, 0.0, 0.0, 0.0, 0.0]",,0.127479431047,-4.69542606024,0.961277678037,"[0.0, 0.0, 0.0, 0.0, 0.0, 0.0, 0.0, 0.0, 0.0]",,4.28978865,0.588987,7.5979323,"[0.0, 0.0, 0.0, 0.0, 0.0, 0.0, 0.0, 0.0, 0.0]"
1569265693383376537,,49854,,1569265693,307528018,"""knife_link""",,-0.059430912913,-0.198026506684,0.393625185744,0.895719086761,"[0.0, 0.0, 0.0, 0.0, 0.0, 0.0, 0.0, 0.0, 0.0]",,3.97593043171,-4.3550868561,2.04861780203,"[0.0, 0.0, 0.0, 0.0, 0.0, 0.0, 0.0, 0.0, 0.0]",,1.6491636,1.10925885,0.83439825,"[0.0, 0.0, 0.0, 0.0, 0.0, 0.0, 0.0, 0.0, 0.0]"
1569265693401842819,,49855,,1569265693,382736921,"""knife_link""",,-0.0688164869673,-0.297787658983,0.456322451299,0.835677343069,"[0.0, 0.0, 0.0, 0.0, 0.0, 0.0, 0.0, 0.0, 0.0]",,-1.1326482889,-2.63768287214,1.81997967002,"[0.0, 0.0, 0.0, 0.0, 0.0, 0.0, 0.0, 0.0, 0.0]",,6.7929834,5.84078775,10.04222835,"[0.0, 0.0, 0.0, 0.0, 0.0, 0.0, 0.0, 0.0, 0.0]"
1569265693495940301,,49856,,1569265693,401279926,"""knife_link""",,-0.137760443056,-0.32450139578,0.433244901877,0.829469565122,"[0.0, 0.0, 0.0, 0.0, 0.0, 0.0, 0.0, 0.0, 0.0]",,-8.88889148479,1.42020763876,-0.544941466439,"[0.0, 0.0, 0.0, 0.0, 0.0, 0.0, 0.0, 0.0, 0.0]",,2.8860363,1.24668915,7.48995135,"[0.0, 0.0, 0.0, 0.0, 0.0, 0.0, 0.0, 0.0, 0.0]"
1569265693514681237,,49857,,1569265693,495191097,"""knife_link""",,-0.090295611181,-0.279184161884,0.391125667759,0.87230935933,"[0.0, 0.0, 0.0, 0.0, 0.0, 0.0, 0.0, 0.0, 0.0]",,1.0053800448,0.880900899896,-1.51010854279,"[0.0, 0.0, 0.0, 0.0, 0.0, 0.0, 0.0, 0.0, 0.0]",,3.11181465,1.3154043,5.21253495,"[0.0, 0.0, 0.0, 0.0, 0.0, 0.0, 0.0, 0.0, 0.0]"
1569265693551830396,,49858,,1569265693,514004945,"""knife_link""",,-0.0544331695778,-0.263297129833,0.409908166578,0.871600221687,"[0.0, 0.0, 0.0, 0.0, 0.0, 0.0, 0.0, 0.0, 0.0]",,4.10508479635,0.140881297048,-0.0230880200908,"[0.0, 0.0, 0.0, 0.0, 0.0, 0.0, 0.0, 0.0, 0.0]",,3.15108045,-5.1241869,12.8399166,"[0.0, 0.0, 0.0, 0.0, 0.0, 0.0, 0.0, 0.0, 0.0]"
1569265693608890489,,49859,,1569265693,551209926,"""knife_link""",,-0.0460291102902,-0.240966778641,0.429860048593,0.868928461509,"[0.0, 0.0, 0.0, 0.0, 0.0, 0.0, 0.0, 0.0, 0.0]",,0.956510825747,0.91929814344,0.493529438501,"[0.0, 0.0, 0.0, 0.0, 0.0, 0.0, 0.0, 0.0, 0.0]",,5.82115485,1.52154975,13.53688455,"[0.0, 0.0, 0.0, 0.0, 0.0, 0.0, 0.0, 0.0, 0.0]"
1569265693664876823,,49860,,1569265693,608089923,"""knife_link""",,0.0138778875694,-0.165088017273,0.43703397737,0.884055797681,"[0.0, 0.0, 0.0, 0.0, 0.0, 0.0, 0.0, 0.0, 0.0]",,2.9653847948,1.60346721022,-0.695039782111,"[0.0, 0.0, 0.0, 0.0, 0.0, 0.0, 0.0, 0.0, 0.0]",,5.9095029,3.9069471,12.71230275,"[0.0, 0.0, 0.0, 0.0, 0.0, 0.0, 0.0, 0.0, 0.0]"
