rosbagTimestamp,header,seq,stamp,secs,nsecs,frame_id,orientation,x,y,z,w,orientation_covariance,angular_velocity,x,y,z,angular_velocity_covariance,linear_acceleration,x,y,z,linear_acceleration_covariance
1569261695960075253,,61699,,1569261695,915632963,"""knife_link""",,0.443907816675,0.601355313268,0.473750201702,0.465702033371,"[0.0, 0.0, 0.0, 0.0, 0.0, 0.0, 0.0, 0.0, 0.0]",,0.209405653278,-0.0521732153517,-0.116255050867,"[0.0, 0.0, 0.0, 0.0, 0.0, 0.0, 0.0, 0.0, 0.0]",,-0.50063895,7.4016033,1.12889175,"[0.0, 0.0, 0.0, 0.0, 0.0, 0.0, 0.0, 0.0, 0.0]"
1569261696023108432,,61700,,1569261695,958066940,"""knife_link""",,0.44220768655,0.600383971055,0.477302170836,0.464945251585,"[0.0, 0.0, 0.0, 0.0, 0.0, 0.0, 0.0, 0.0, 0.0]",,-0.150132172634,0.157266294888,0.0617685328367,"[0.0, 0.0, 0.0, 0.0, 0.0, 0.0, 0.0, 0.0, 0.0]",,-0.83439825,5.40886395,-2.1792519,"[0.0, 0.0, 0.0, 0.0, 0.0, 0.0, 0.0, 0.0, 0.0]"
1569261696065866969,,61701,,1569261696,21821022,"""knife_link""",,0.475476170577,0.588940639421,0.487368899893,0.435365237321,"[0.0, 0.0, 0.0, 0.0, 0.0, 0.0, 0.0, 0.0, 0.0]",,0.532291564898,0.0630185152803,1.37251080109,"[0.0, 0.0, 0.0, 0.0, 0.0, 0.0, 0.0, 0.0, 0.0]",,-1.9829229,14.14550445,-0.63806925,"[0.0, 0.0, 0.0, 0.0, 0.0, 0.0, 0.0, 0.0, 0.0]"
1569261696109577311,,61702,,1569261696,63882112,"""knife_link""",,0.476691126295,0.586262707919,0.491152101879,0.43339499332,"[0.0, 0.0, 0.0, 0.0, 0.0, 0.0, 0.0, 0.0, 0.0]",,-0.115225587594,0.0996704295723,0.194413555989,"[0.0, 0.0, 0.0, 0.0, 0.0, 0.0, 0.0, 0.0, 0.0]",,0.5693541,8.2850838,-1.95347355,"[0.0, 0.0, 0.0, 0.0, 0.0, 0.0, 0.0, 0.0, 0.0]"
1569261696171587724,,61703,,1569261696,106761932,"""knife_link""",,0.483369933346,0.571660913533,0.50341838106,0.431424664439,"[0.0, 0.0, 0.0, 0.0, 0.0, 0.0, 0.0, 0.0, 0.0]",,-0.492216706026,-0.0783531541317,0.794806818677,"[0.0, 0.0, 0.0, 0.0, 0.0, 0.0, 0.0, 0.0, 0.0]",,-2.9253021,13.36018845,1.2761385,"[0.0, 0.0, 0.0, 0.0, 0.0, 0.0, 0.0, 0.0, 0.0]"
1569261696216963499,,61704,,1569261696,170167922,"""knife_link""",,0.476055321443,0.573488687851,0.505107865365,0.435141471453,"[0.0, 0.0, 0.0, 0.0, 0.0, 0.0, 0.0, 0.0, 0.0]",,-0.160604148146,0.129341026856,-0.198285525711,"[0.0, 0.0, 0.0, 0.0, 0.0, 0.0, 0.0, 0.0, 0.0]",,-0.44174025,7.8138942,-1.6884294,"[0.0, 0.0, 0.0, 0.0, 0.0, 0.0, 0.0, 0.0, 0.0]"
1569261696255894206,,61705,,1569261696,214845895,"""knife_link""",,0.489034543766,0.569983301517,0.512688472316,0.416070644662,"[0.0, 0.0, 0.0, 0.0, 0.0, 0.0, 0.0, 0.0, 0.0]",,0.38568390773,0.335289878592,0.981557048641,"[0.0, 0.0, 0.0, 0.0, 0.0, 0.0, 0.0, 0.0, 0.0]",,-1.7080623,12.65340405,-0.75586665,"[0.0, 0.0, 0.0, 0.0, 0.0, 0.0, 0.0, 0.0, 0.0]"
1569261696319531093,,61706,,1569261696,254720926,"""knife_link""",,0.485131274871,0.570717545789,0.512819550909,0.41945826643,"[0.0, 0.0, 0.0, 0.0, 0.0, 0.0, 0.0, 0.0, 0.0]",,-0.0995176243262,0.0752358200443,-0.184322891695,"[0.0, 0.0, 0.0, 0.0, 0.0, 0.0, 0.0, 0.0, 0.0]",,-1.2565056,10.0716777,0.71660085,"[0.0, 0.0, 0.0, 0.0, 0.0, 0.0, 0.0, 0.0, 0.0]"
1569261696362612381,,61707,,1569261696,318536043,"""knife_link""",,0.485448649939,0.573627091011,0.506743170349,0.422496068664,"[0.0, 0.0, 0.0, 0.0, 0.0, 0.0, 0.0, 0.0, 0.0]",,0.13261116619,-0.0818438126357,-0.158142952915,"[0.0, 0.0, 0.0, 0.0, 0.0, 0.0, 0.0, 0.0, 0.0]",,-0.83439825,8.5795773,0.18651255,"[0.0, 0.0, 0.0, 0.0, 0.0, 0.0, 0.0, 0.0, 0.0]"
1569261696406066908,,61708,,1569261696,361354112,"""knife_link""",,0.483391326712,0.575906061701,0.49919727805,0.430658926465,"[0.0, 0.0, 0.0, 0.0, 0.0, 0.0, 0.0, 0.0, 0.0]",,0.0697793131178,-0.252886079332,-0.447867608747,"[0.0, 0.0, 0.0, 0.0, 0.0, 0.0, 0.0, 0.0, 0.0]",,-0.38284155,9.35507685,0.34357575,"[0.0, 0.0, 0.0, 0.0, 0.0, 0.0, 0.0, 0.0, 0.0]"
1569261696468836888,,61709,,1569261696,404844999,"""knife_link""",,0.481346496106,0.577629857989,0.493119772176,0.437586777835,"[0.0, 0.0, 0.0, 0.0, 0.0, 0.0, 0.0, 0.0, 0.0]",,0.0226554233138,-0.197035543268,-0.376309109415,"[0.0, 0.0, 0.0, 0.0, 0.0, 0.0, 0.0, 0.0, 0.0]",,-0.30430995,8.638476,-0.3337593,"[0.0, 0.0, 0.0, 0.0, 0.0, 0.0, 0.0, 0.0, 0.0]"
1569261696511525665,,61710,,1569261696,467622995,"""knife_link""",,0.481871866419,0.57755562747,0.489350716108,0.441321739977,"[0.0, 0.0, 0.0, 0.0, 0.0, 0.0, 0.0, 0.0, 0.0]",,0.0348727280778,-0.108023751416,-0.0988017583473,"[0.0, 0.0, 0.0, 0.0, 0.0, 0.0, 0.0, 0.0, 0.0]",,-0.7067844,10.0520448,-0.22577835,"[0.0, 0.0, 0.0, 0.0, 0.0, 0.0, 0.0, 0.0, 0.0]"
1569261696554480942,,61711,,1569261696,509881973,"""knife_link""",,0.481678885953,0.580718593792,0.485290929405,0.441864322488,"[0.0, 0.0, 0.0, 0.0, 0.0, 0.0, 0.0, 0.0, 0.0]",,0.183225714498,0.00367732071225,-0.170360257679,"[0.0, 0.0, 0.0, 0.0, 0.0, 0.0, 0.0, 0.0, 0.0]",,-0.785316,9.00168465,-0.6086199,"[0.0, 0.0, 0.0, 0.0, 0.0, 0.0, 0.0, 0.0, 0.0]"
1569261696618732611,,61712,,1569261696,553136110,"""knife_link""",,0.481082921336,0.582479320534,0.48339115397,0.442278256545,"[0.0, 0.0, 0.0, 0.0, 0.0, 0.0, 0.0, 0.0, 0.0]",,0.0889779348898,0.0385839057523,-0.0918204413393,"[0.0, 0.0, 0.0, 0.0, 0.0, 0.0, 0.0, 0.0, 0.0]",,-1.24668915,9.96369675,-0.48100605,"[0.0, 0.0, 0.0, 0.0, 0.0, 0.0, 0.0, 0.0, 0.0]"
1569261696665756345,,61713,,1569261696,617578983,"""knife_link""",,0.486699803738,0.582525806439,0.482351504351,0.437177323433,"[0.0, 0.0, 0.0, 0.0, 0.0, 0.0, 0.0, 0.0, 0.0]",,0.190207031506,0.0228759424843,0.180450921973,"[0.0, 0.0, 0.0, 0.0, 0.0, 0.0, 0.0, 0.0, 0.0]",,-1.83567615,10.2680067,-0.3337593,"[0.0, 0.0, 0.0, 0.0, 0.0, 0.0, 0.0, 0.0, 0.0]"
1569261696702193584,,61714,,1569261696,665059089,"""knife_link""",,0.488420479333,0.584982922111,0.478981779287,0.435679780708,"[0.0, 0.0, 0.0, 0.0, 0.0, 0.0, 0.0, 0.0, 0.0]",,0.212896311782,0.0158946254763,-0.0307339175193,"[0.0, 0.0, 0.0, 0.0, 0.0, 0.0, 0.0, 0.0, 0.0]",,-1.1190753,9.9538803,-0.7067844,"[0.0, 0.0, 0.0, 0.0, 0.0, 0.0, 0.0, 0.0, 0.0]"
1569261696766015565,,61715,,1569261696,701248884,"""knife_link""",,0.489238401357,0.585940583534,0.477360319344,0.435254574613,"[0.0, 0.0, 0.0, 0.0, 0.0, 0.0, 0.0, 0.0, 0.0]",,0.139592483198,0.0211306132323,-0.0132806249993,"[0.0, 0.0, 0.0, 0.0, 0.0, 0.0, 0.0, 0.0, 0.0]",,-1.12889175,9.27654525,-0.4515567,"[0.0, 0.0, 0.0, 0.0, 0.0, 0.0, 0.0, 0.0, 0.0]"
1569261696808693317,,61716,,1569261696,764763116,"""knife_link""",,0.487978703132,0.585760965062,0.479296653062,0.43478223913,"[0.0, 0.0, 0.0, 0.0, 0.0, 0.0, 0.0, 0.0, 0.0]",,-0.0384311005062,0.0839624663043,0.0181353015367,"[0.0, 0.0, 0.0, 0.0, 0.0, 0.0, 0.0, 0.0, 0.0]",,-1.03072725,9.9931461,-0.93256275,"[0.0, 0.0, 0.0, 0.0, 0.0, 0.0, 0.0, 0.0, 0.0]"
1569261696872160541,,61717,,1569261696,807337045,"""knife_link""",,0.488676427415,0.585879122421,0.47842242468,0.434802238683,"[0.0, 0.0, 0.0, 0.0, 0.0, 0.0, 0.0, 0.0, 0.0]",,0.0645433253618,0.00891330846825,0.0076633260247,"[0.0, 0.0, 0.0, 0.0, 0.0, 0.0, 0.0, 0.0, 0.0]",,-1.08962595,9.80663355,-0.5497212,"[0.0, 0.0, 0.0, 0.0, 0.0, 0.0, 0.0, 0.0, 0.0]"
1569261696914642338,,61718,,1569261696,871031045,"""knife_link""",,0.487633808702,0.586452917858,0.477731796515,0.435957078558,"[0.0, 0.0, 0.0, 0.0, 0.0, 0.0, 0.0, 0.0, 0.0]",,-0.00526984471818,0.0193852839803,-0.0499325392913,"[0.0, 0.0, 0.0, 0.0, 0.0, 0.0, 0.0, 0.0, 0.0]",,-1.01109435,9.6004881,-1.18779045,"[0.0, 0.0, 0.0, 0.0, 0.0, 0.0, 0.0, 0.0, 0.0]"
1569261696957326534,,61719,,1569261696,913841962,"""knife_link""",,0.486747339174,0.584762687337,0.478422907646,0.438453131754,"[0.0, 0.0, 0.0, 0.0, 0.0, 0.0, 0.0, 0.0, 0.0]",,-0.108244270586,-0.0259932765717,-0.0150259542513,"[0.0, 0.0, 0.0, 0.0, 0.0, 0.0, 0.0, 0.0, 0.0]",,-1.2172398,9.55140585,-0.4908225,"[0.0, 0.0, 0.0, 0.0, 0.0, 0.0, 0.0, 0.0, 0.0]"
1569261697020532550,,61720,,1569261696,956285953,"""knife_link""",,0.489990926487,0.586041248337,0.47419049755,0.437730418456,"[0.0, 0.0, 0.0, 0.0, 0.0, 0.0, 0.0, 0.0, 0.0]",,0.258274872334,-0.0818438126357,-0.0010633202353,"[0.0, 0.0, 0.0, 0.0, 0.0, 0.0, 0.0, 0.0, 0.0]",,-1.2172398,10.2680067,-0.3730251,"[0.0, 0.0, 0.0, 0.0, 0.0, 0.0, 0.0, 0.0, 0.0]"
1569261697084564363,,61721,,1569261697,19722938,"""knife_link""",,0.480654367835,0.585039215011,0.478914689332,0.444231038901,"[0.0, 0.0, 0.0, 0.0, 0.0, 0.0, 0.0, 0.0, 0.0]",,-0.326410427086,0.10665174658,-0.177341574687,"[0.0, 0.0, 0.0, 0.0, 0.0, 0.0, 0.0, 0.0, 0.0]",,-1.63934715,10.12075995,-1.0798095,"[0.0, 0.0, 0.0, 0.0, 0.0, 0.0, 0.0, 0.0, 0.0]"
1569261697112913816,,61722,,1569261697,83400011,"""knife_link""",,0.480232344725,0.59138257764,0.468872516219,0.44699228794,"[0.0, 0.0, 0.0, 0.0, 0.0, 0.0, 0.0, 0.0, 0.0]",,0.251293555326,-0.0783531541317,-0.269844025043,"[0.0, 0.0, 0.0, 0.0, 0.0, 0.0, 0.0, 0.0, 0.0]",,-1.9436571,9.5219565,-0.2748606,"[0.0, 0.0, 0.0, 0.0, 0.0, 0.0, 0.0, 0.0, 0.0]"
1569261697170643152,,61723,,1569261697,111814975,"""knife_link""",,0.476347814099,0.591861098807,0.469153555526,0.450208997088,"[0.0, 0.0, 0.0, 0.0, 0.0, 0.0, 0.0, 0.0, 0.0]",,-0.211218696454,0.0787264785483,-0.268098695791,"[0.0, 0.0, 0.0, 0.0, 0.0, 0.0, 0.0, 0.0, 0.0]",,-1.2957714,9.68883615,-0.95219565,"[0.0, 0.0, 0.0, 0.0, 0.0, 0.0, 0.0, 0.0, 0.0]"
1569261697212010629,,61724,,1569261697,169069051,"""knife_link""",,0.473170240221,0.59450702425,0.462458283176,0.456950389221,"[0.0, 0.0, 0.0, 0.0, 0.0, 0.0, 0.0, 0.0, 0.0]",,0.0435993743378,-0.127222373188,-0.318713244099,"[0.0, 0.0, 0.0, 0.0, 0.0, 0.0, 0.0, 0.0, 0.0]",,-1.60008135,9.4041591,-0.02944935,"[0.0, 0.0, 0.0, 0.0, 0.0, 0.0, 0.0, 0.0, 0.0]"
1569261697254753158,,61725,,1569261697,211270093,"""knife_link""",,0.471984606405,0.593897903517,0.463730572019,0.457678673405,"[0.0, 0.0, 0.0, 0.0, 0.0, 0.0, 0.0, 0.0, 0.0]",,-0.0855549903102,0.0542918690203,-0.0377152345273,"[0.0, 0.0, 0.0, 0.0, 0.0, 0.0, 0.0, 0.0, 0.0]",,-0.04908225,8.88388725,-1.0012779,"[0.0, 0.0, 0.0, 0.0, 0.0, 0.0, 0.0, 0.0, 0.0]"
1569261697339977191,,61726,,1569261697,253684997,"""knife_link""",,0.471136391828,0.591429406348,0.464902577909,0.460551137938,"[0.0, 0.0, 0.0, 0.0, 0.0, 0.0, 0.0, 0.0, 0.0]",,-0.143150855626,-0.0521732153517,-0.0220072712593,"[0.0, 0.0, 0.0, 0.0, 0.0, 0.0, 0.0, 0.0, 0.0]",,-0.588987,9.2078301,-0.1766961,"[0.0, 0.0, 0.0, 0.0, 0.0, 0.0, 0.0, 0.0, 0.0]"
1569261697361873774,,61727,,1569261697,338634967,"""knife_link""",,0.466703840682,0.590526175273,0.467927694887,0.463152279243,"[0.0, 0.0, 0.0, 0.0, 0.0, 0.0, 0.0, 0.0, 0.0]",,-0.130933550862,0.0542918690203,-0.0499325392913,"[0.0, 0.0, 0.0, 0.0, 0.0, 0.0, 0.0, 0.0, 0.0]",,-0.18651255,6.3217938,-0.392658,"[0.0, 0.0, 0.0, 0.0, 0.0, 0.0, 0.0, 0.0, 0.0]"
1569261697403909175,,61728,,1569261697,360810041,"""knife_link""",,0.474815878597,0.588604277056,0.468886241248,0.456333846248,"[0.0, 0.0, 0.0, 0.0, 0.0, 0.0, 0.0, 0.0, 0.0]",,0.486913004346,0.0473105520123,0.831458732969,"[0.0, 0.0, 0.0, 0.0, 0.0, 0.0, 0.0, 0.0, 0.0]",,-2.1399861,14.77375725,0.97182855,"[0.0, 0.0, 0.0, 0.0, 0.0, 0.0, 0.0, 0.0, 0.0]"
1569261697467140622,,61729,,1569261697,402695894,"""knife_link""",,0.477850351767,0.582982869566,0.475106153887,0.453942901308,"[0.0, 0.0, 0.0, 0.0, 0.0, 0.0, 0.0, 0.0, 0.0]",,-0.183293428422,0.0525465397683,0.396871749221,"[0.0, 0.0, 0.0, 0.0, 0.0, 0.0, 0.0, 0.0, 0.0]",,2.5915428,6.17454705,-1.6098978,"[0.0, 0.0, 0.0, 0.0, 0.0, 0.0, 0.0, 0.0, 0.0]"
1569261697511244367,,61730,,1569261697,465852022,"""knife_link""",,0.491216993588,0.559847944134,0.49444871421,0.448103351554,"[0.0, 0.0, 0.0, 0.0, 0.0, 0.0, 0.0, 0.0, 0.0]",,-0.42589419445,-0.11151440992,0.960613097617,"[0.0, 0.0, 0.0, 0.0, 0.0, 0.0, 0.0, 0.0, 0.0]",,-3.6713523,14.5087131,1.46265105,"[0.0, 0.0, 0.0, 0.0, 0.0, 0.0, 0.0, 0.0, 0.0]"
1569261697558437396,,61731,,1569261697,509632110,"""knife_link""",,0.486244793615,0.565544875113,0.490216722556,0.451012815606,"[0.0, 0.0, 0.0, 0.0, 0.0, 0.0, 0.0, 0.0, 0.0]",,0.0558166791018,0.0961797710683,-0.351874499887,"[0.0, 0.0, 0.0, 0.0, 0.0, 0.0, 0.0, 0.0, 0.0]",,-2.6897073,8.86425435,-1.5509991,"[0.0, 0.0, 0.0, 0.0, 0.0, 0.0, 0.0, 0.0, 0.0]"
1569261697616442506,,61732,,1569261697,557647943,"""knife_link""",,0.493790215399,0.557010305281,0.49961486876,0.443052734899,"[0.0, 0.0, 0.0, 0.0, 0.0, 0.0, 0.0, 0.0, 0.0]",,-0.0855549903102,0.0926891125643,0.693577722061,"[0.0, 0.0, 0.0, 0.0, 0.0, 0.0, 0.0, 0.0, 0.0]",,-1.8847584,11.387082,0.8245818,"[0.0, 0.0, 0.0, 0.0, 0.0, 0.0, 0.0, 0.0, 0.0]"
1569261697659811057,,61733,,1569261697,614994049,"""knife_link""",,0.488745982482,0.558843934273,0.49856072951,0.447501978458,"[0.0, 0.0, 0.0, 0.0, 0.0, 0.0, 0.0, 0.0, 0.0]",,-0.0977722950742,0.0350932472483,-0.227956122995,"[0.0, 0.0, 0.0, 0.0, 0.0, 0.0, 0.0, 0.0, 0.0]",,-0.00981645,8.92315305,-0.6871515,"[0.0, 0.0, 0.0, 0.0, 0.0, 0.0, 0.0, 0.0, 0.0]"
1569261697702512533,,61734,,1569261697,657207012,"""knife_link""",,0.491448895332,0.559821884499,0.495952942198,0.446215329228,"[0.0, 0.0, 0.0, 0.0, 0.0, 0.0, 0.0, 0.0, 0.0]",,0.198933677766,-0.0364652520837,0.0216259600407,"[0.0, 0.0, 0.0, 0.0, 0.0, 0.0, 0.0, 0.0, 0.0]",,-0.1570632,9.41397555,-0.24541125,"[0.0, 0.0, 0.0, 0.0, 0.0, 0.0, 0.0, 0.0, 0.0]"
1569261697767854245,,61735,,1569261697,700583934,"""knife_link""",,0.485854936022,0.560091042283,0.494500640648,0.453554982219,"[0.0, 0.0, 0.0, 0.0, 0.0, 0.0, 0.0, 0.0, 0.0]",,-0.214709354958,-0.0574092031077,-0.348383841383,"[0.0, 0.0, 0.0, 0.0, 0.0, 0.0, 0.0, 0.0, 0.0]",,-0.38284155,9.37470975,0.0196329,"[0.0, 0.0, 0.0, 0.0, 0.0, 0.0, 0.0, 0.0, 0.0]"
1569261697835154156,,61736,,1569261697,766334056,"""knife_link""",,0.487209193537,0.563263104582,0.490863523556,0.452122636009,"[0.0, 0.0, 0.0, 0.0, 0.0, 0.0, 0.0, 0.0, 0.0]",,0.162281763474,0.0141492962243,-0.0551685270473,"[0.0, 0.0, 0.0, 0.0, 0.0, 0.0, 0.0, 0.0, 0.0]",,-0.24541125,9.0900327,-0.20614545,"[0.0, 0.0, 0.0, 0.0, 0.0, 0.0, 0.0, 0.0, 0.0]"
1569261697871247425,,61737,,1569261697,831588029,"""knife_link""",,0.484241175237,0.56595703116,0.486456921961,0.456686748398,"[0.0, 0.0, 0.0, 0.0, 0.0, 0.0, 0.0, 0.0, 0.0]",,0.0156741063058,-0.0417012398397,-0.213993488979,"[0.0, 0.0, 0.0, 0.0, 0.0, 0.0, 0.0, 0.0, 0.0]",,-1.0798095,10.06186125,-0.5104554,"[0.0, 0.0, 0.0, 0.0, 0.0, 0.0, 0.0, 0.0, 0.0]"
1569261697913219108,,61738,,1569261697,870104074,"""knife_link""",,0.480001473226,0.566372577338,0.486295338919,0.460800968626,"[0.0, 0.0, 0.0, 0.0, 0.0, 0.0, 0.0, 0.0, 0.0]",,-0.165840135902,0.0281119302403,-0.236682769255,"[0.0, 0.0, 0.0, 0.0, 0.0, 0.0, 0.0, 0.0, 0.0]",,-0.8834805,9.49250715,-0.0785316,"[0.0, 0.0, 0.0, 0.0, 0.0, 0.0, 0.0, 0.0, 0.0]"
1569261697955891443,,61739,,1569261697,912275075,"""knife_link""",,0.480889711778,0.566055187657,0.485133596102,0.461488898638,"[0.0, 0.0, 0.0, 0.0, 0.0, 0.0, 0.0, 0.0, 0.0]",,0.0435993743378,-0.0399559105877,0.0024273382687,"[0.0, 0.0, 0.0, 0.0, 0.0, 0.0, 0.0, 0.0, 0.0]",,-1.22705625,10.012779,-0.2944935,"[0.0, 0.0, 0.0, 0.0, 0.0, 0.0, 0.0, 0.0, 0.0]"
1569261698020032021,,61740,,1569261697,955163002,"""knife_link""",,0.479856632183,0.5660204245,0.48411102098,0.463675544928,"[0.0, 0.0, 0.0, 0.0, 0.0, 0.0, 0.0, 0.0, 0.0]",,-0.0314497834982,-0.0277386058237,-0.0918204413393,"[0.0, 0.0, 0.0, 0.0, 0.0, 0.0, 0.0, 0.0, 0.0]",,-0.9423792,9.45324135,-0.34357575,"[0.0, 0.0, 0.0, 0.0, 0.0, 0.0, 0.0, 0.0, 0.0]"
1569261698062060636,,61741,,1569261698,18651962,"""knife_link""",,0.480958996119,0.567168256591,0.483569469326,0.461691651542,"[0.0, 0.0, 0.0, 0.0, 0.0, 0.0, 0.0, 0.0, 0.0]",,0.0819966178818,0.0473105520123,0.0251166185447,"[0.0, 0.0, 0.0, 0.0, 0.0, 0.0, 0.0, 0.0, 0.0]",,-0.73623375,9.8360829,-0.4319238,"[0.0, 0.0, 0.0, 0.0, 0.0, 0.0, 0.0, 0.0, 0.0]"
1569261698105192754,,61742,,1569261698,60985088,"""knife_link""",,0.482947136327,0.570832153573,0.479376281212,0.45946827635,"[0.0, 0.0, 0.0, 0.0, 0.0, 0.0, 0.0, 0.0, 0.0]",,0.321106725406,0.0298572594923,-0.0726218195673,"[0.0, 0.0, 0.0, 0.0, 0.0, 0.0, 0.0, 0.0, 0.0]",,-0.6675186,9.8753487,0.196329,"[0.0, 0.0, 0.0, 0.0, 0.0, 0.0, 0.0, 0.0, 0.0]"
1569261698169076907,,61743,,1569261698,103832960,"""knife_link""",,0.484871039515,0.572583670375,0.477244170386,0.457477887217,"[0.0, 0.0, 0.0, 0.0, 0.0, 0.0, 0.0, 0.0, 0.0]",,0.19369769001,0.0298572594923,0.0181353015367,"[0.0, 0.0, 0.0, 0.0, 0.0, 0.0, 0.0, 0.0, 0.0]",,-1.03072725,9.43360845,-0.65770215,"[0.0, 0.0, 0.0, 0.0, 0.0, 0.0, 0.0, 0.0, 0.0]"
1569261698211563115,,61744,,1569261698,167922019,"""knife_link""",,0.486002400936,0.573342125209,0.475681223303,0.456954973212,"[0.0, 0.0, 0.0, 0.0, 0.0, 0.0, 0.0, 0.0, 0.0]",,0.0715246423698,0.000186662208252,-0.0028086494873,"[0.0, 0.0, 0.0, 0.0, 0.0, 0.0, 0.0, 0.0, 0.0]",,-0.95219565,9.76736775,-0.6871515,"[0.0, 0.0, 0.0, 0.0, 0.0, 0.0, 0.0, 0.0, 0.0]"
1569261698253350731,,61745,,1569261698,210491895,"""knife_link""",,0.489274073325,0.577275125553,0.471514776036,0.452811358702,"[0.0, 0.0, 0.0, 0.0, 0.0, 0.0, 0.0, 0.0, 0.0]",,0.37695726147,0.0577825275243,0.000682009016702,"[0.0, 0.0, 0.0, 0.0, 0.0, 0.0, 0.0, 0.0, 0.0]",,-0.73623375,9.6986526,-0.85403115,"[0.0, 0.0, 0.0, 0.0, 0.0, 0.0, 0.0, 0.0, 0.0]"
1569261698316624273,,61746,,1569261698,252499103,"""knife_link""",,0.492750821174,0.578666490608,0.468346630865,0.450547615949,"[0.0, 0.0, 0.0, 0.0, 0.0, 0.0, 0.0, 0.0, 0.0]",,0.26351086009,-0.0277386058237,0.0512965573247,"[0.0, 0.0, 0.0, 0.0, 0.0, 0.0, 0.0, 0.0, 0.0]",,-0.981645,9.49250715,-0.71660085,"[0.0, 0.0, 0.0, 0.0, 0.0, 0.0, 0.0, 0.0, 0.0]"
1569261698360522099,,61747,,1569261698,315709114,"""knife_link""",,0.491716650327,0.581653030672,0.464336941942,0.451979747388,"[0.0, 0.0, 0.0, 0.0, 0.0, 0.0, 0.0, 0.0, 0.0]",,0.0767606301258,-0.0120306425557,-0.145925648151,"[0.0, 0.0, 0.0, 0.0, 0.0, 0.0, 0.0, 0.0, 0.0]",,-0.7067844,9.23727945,-1.65898005,"[0.0, 0.0, 0.0, 0.0, 0.0, 0.0, 0.0, 0.0, 0.0]"
1569261698404704133,,61748,,1569261698,359220981,"""knife_link""",,0.491112239762,0.582049485706,0.464312071345,0.452152036984,"[0.0, 0.0, 0.0, 0.0, 0.0, 0.0, 0.0, 0.0, 0.0]",,-0.00876050322218,0.0455652227603,-0.0237526005113,"[0.0, 0.0, 0.0, 0.0, 0.0, 0.0, 0.0, 0.0, 0.0]",,-1.0994424,9.4434249,-1.5117333,"[0.0, 0.0, 0.0, 0.0, 0.0, 0.0, 0.0, 0.0, 0.0]"
1569261698469956410,,61749,,1569261698,402446031,"""knife_link""",,0.493750691063,0.581466916578,0.462511107648,0.451873826752,"[0.0, 0.0, 0.0, 0.0, 0.0, 0.0, 0.0, 0.0, 0.0]",,0.125629849182,-0.0731171663757,0.0547872158287,"[0.0, 0.0, 0.0, 0.0, 0.0, 0.0, 0.0, 0.0, 0.0]",,-0.9423792,9.62993745,-0.34357575,"[0.0, 0.0, 0.0, 0.0, 0.0, 0.0, 0.0, 0.0, 0.0]"
1569261698509930817,,61750,,1569261698,468914985,"""knife_link""",,0.491737330461,0.581397879182,0.463155147036,0.453495549799,"[0.0, 0.0, 0.0, 0.0, 0.0, 0.0, 0.0, 0.0, 0.0]",,-0.0576297222782,0.0263666009883,-0.0464418807873,"[0.0, 0.0, 0.0, 0.0, 0.0, 0.0, 0.0, 0.0, 0.0]",,-1.03072725,10.0716777,-1.1387082,"[0.0, 0.0, 0.0, 0.0, 0.0, 0.0, 0.0, 0.0, 0.0]"
1569261698550799748,,61751,,1569261698,508445024,"""knife_link""",,0.492248537553,0.582081969701,0.462117065752,0.45312225212,"[0.0, 0.0, 0.0, 0.0, 0.0, 0.0, 0.0, 0.0, 0.0]",,0.0889779348898,0.0193852839803,-0.0150259542513,"[0.0, 0.0, 0.0, 0.0, 0.0, 0.0, 0.0, 0.0, 0.0]",,-0.95219565,9.5219565,-0.67733505,"[0.0, 0.0, 0.0, 0.0, 0.0, 0.0, 0.0, 0.0, 0.0]"
1569261698614914904,,61752,,1569261698,549779891,"""knife_link""",,0.486653775311,0.580470859001,0.466229435357,0.457003061733,"[0.0, 0.0, 0.0, 0.0, 0.0, 0.0, 0.0, 0.0, 0.0]",,-0.377024975394,0.10665174658,-0.116255050867,"[0.0, 0.0, 0.0, 0.0, 0.0, 0.0, 0.0, 0.0, 0.0]",,-0.91292985,9.6397539,-1.766961,"[0.0, 0.0, 0.0, 0.0, 0.0, 0.0, 0.0, 0.0, 0.0]"
1569261698657539629,,61753,,1569261698,613656997,"""knife_link""",,0.489781848529,0.579063500183,0.461813766226,0.459920915953,"[0.0, 0.0, 0.0, 0.0, 0.0, 0.0, 0.0, 0.0, 0.0]",,0.0750153008738,-0.167364945984,-0.0237526005113,"[0.0, 0.0, 0.0, 0.0, 0.0, 0.0, 0.0, 0.0, 0.0]",,-1.1387082,9.4041591,-0.44174025,"[0.0, 0.0, 0.0, 0.0, 0.0, 0.0, 0.0, 0.0, 0.0]"
1569261698720663259,,61754,,1569261698,656069040,"""knife_link""",,0.477524410079,0.570567997456,0.474016456033,0.470883210008,"[0.0, 0.0, 0.0, 0.0, 0.0, 0.0, 0.0, 0.0, 0.0]",,-1.04897673741,0.0909437833123,-0.107528404607,"[0.0, 0.0, 0.0, 0.0, 0.0, 0.0, 0.0, 0.0, 0.0]",,-1.42338525,10.7784621,-1.7276952,"[0.0, 0.0, 0.0, 0.0, 0.0, 0.0, 0.0, 0.0, 0.0]"
1569261698764308735,,61755,,1569261698,719897031,"""knife_link""",,0.481261492684,0.58195394146,0.455192364293,0.471716967225,"[0.0, 0.0, 0.0, 0.0, 0.0, 0.0, 0.0, 0.0, 0.0]",,0.579415454702,-0.16387428748,-0.376309109415,"[0.0, 0.0, 0.0, 0.0, 0.0, 0.0, 0.0, 0.0, 0.0]",,-2.13016965,8.96241885,0.6282528,"[0.0, 0.0, 0.0, 0.0, 0.0, 0.0, 0.0, 0.0, 0.0]"
1569261698806483296,,61756,,1569261698,762429952,"""knife_link""",,0.476592211447,0.580224853635,0.458855266467,0.47502718622,"[0.0, 0.0, 0.0, 0.0, 0.0, 0.0, 0.0, 0.0, 0.0]",,-0.326410427086,0.0787264785483,-0.0726218195673,"[0.0, 0.0, 0.0, 0.0, 0.0, 0.0, 0.0, 0.0, 0.0]",,-1.4724675,9.51214005,-1.56081555,"[0.0, 0.0, 0.0, 0.0, 0.0, 0.0, 0.0, 0.0, 0.0]"
1569261698869072689,,61757,,1569261698,805171966,"""knife_link""",,0.471580927649,0.579079251883,0.45776615575,0.482419729453,"[0.0, 0.0, 0.0, 0.0, 0.0, 0.0, 0.0, 0.0, 0.0]",,-0.244379952242,-0.116750397676,-0.292533305319,"[0.0, 0.0, 0.0, 0.0, 0.0, 0.0, 0.0, 0.0, 0.0]",,-1.42338525,9.8557158,0.10798095,"[0.0, 0.0, 0.0, 0.0, 0.0, 0.0, 0.0, 0.0, 0.0]"
1569261698912609988,,61758,,1569261698,868407964,"""knife_link""",,0.470094940026,0.578773104067,0.460202480757,0.48191920285,"[0.0, 0.0, 0.0, 0.0, 0.0, 0.0, 0.0, 0.0, 0.0]",,-0.0663563685382,0.0787264785483,0.0198806307887,"[0.0, 0.0, 0.0, 0.0, 0.0, 0.0, 0.0, 0.0, 0.0]",,0.6282528,7.4408691,-0.6675186,"[0.0, 0.0, 0.0, 0.0, 0.0, 0.0, 0.0, 0.0, 0.0]"
1569261698954717059,,61759,,1569261698,911475896,"""knife_link""",,0.476238727444,0.579000812291,0.458690496861,0.47703014783,"[0.0, 0.0, 0.0, 0.0, 0.0, 0.0, 0.0, 0.0, 0.0]",,0.328088042414,-0.00504932554775,0.185686909729,"[0.0, 0.0, 0.0, 0.0, 0.0, 0.0, 0.0, 0.0, 0.0]",,0.71660085,8.6973747,0.588987,"[0.0, 0.0, 0.0, 0.0, 0.0, 0.0, 0.0, 0.0, 0.0]"
1569261699018541843,,61760,,1569261698,953681945,"""knife_link""",,0.473964782412,0.573160934677,0.469948203369,0.475386804764,"[0.0, 0.0, 0.0, 0.0, 0.0, 0.0, 0.0, 0.0, 0.0]",,-0.462546108742,0.241042098984,0.351493188669,"[0.0, 0.0, 0.0, 0.0, 0.0, 0.0, 0.0, 0.0, 0.0]",,0.52027185,7.33288815,-3.11181465,"[0.0, 0.0, 0.0, 0.0, 0.0, 0.0, 0.0, 0.0, 0.0]"
1569261699067606550,,61761,,1569261699,16932010,"""knife_link""",,0.47184720492,0.579832639074,0.468011687456,0.47129543418,"[0.0, 0.0, 0.0, 0.0, 0.0, 0.0, 0.0, 0.0, 0.0]",,0.153555117214,0.192172879928,-0.121491038623,"[0.0, 0.0, 0.0, 0.0, 0.0, 0.0, 0.0, 0.0, 0.0]",,2.944935,6.7537176,-3.1608969,"[0.0, 0.0, 0.0, 0.0, 0.0, 0.0, 0.0, 0.0, 0.0]"
1569261699103716632,,61762,,1569261699,66660881,"""knife_link""",,0.475769976879,0.553297046335,0.493611681786,0.473130864795,"[0.0, 0.0, 0.0, 0.0, 0.0, 0.0, 0.0, 0.0, 0.0]",,-1.05944871293,-0.11151440992,1.04438890171,"[0.0, 0.0, 0.0, 0.0, 0.0, 0.0, 0.0, 0.0, 0.0]",,-1.12889175,12.83010015,0.981645,"[0.0, 0.0, 0.0, 0.0, 0.0, 0.0, 0.0, 0.0, 0.0]"
1569261699167481147,,61763,,1569261699,102504014,"""knife_link""",,0.4746756664,0.556378273144,0.49066793103,0.47367838283,"[0.0, 0.0, 0.0, 0.0, 0.0, 0.0, 0.0, 0.0, 0.0]",,0.144828470954,0.0455652227603,-0.205266842719,"[0.0, 0.0, 0.0, 0.0, 0.0, 0.0, 0.0, 0.0, 0.0]",,-0.75586665,9.51214005,-0.18651255,"[0.0, 0.0, 0.0, 0.0, 0.0, 0.0, 0.0, 0.0, 0.0]"
1569261699209683778,,61764,,1569261699,166312932,"""knife_link""",,0.489018546563,0.541314369198,0.508581401975,0.457366999666,"[0.0, 0.0, 0.0, 0.0, 0.0, 0.0, 0.0, 0.0, 0.0]",,-0.0890456488142,0.125850368352,0.990283694901,"[0.0, 0.0, 0.0, 0.0, 0.0, 0.0, 0.0, 0.0, 0.0]",,-2.42466315,12.2901954,1.14852465,"[0.0, 0.0, 0.0, 0.0, 0.0, 0.0, 0.0, 0.0, 0.0]"
1569261699252576087,,61765,,1569261699,208833932,"""knife_link""",,0.486585438928,0.543896053502,0.505511004423,0.46029373015,"[0.0, 0.0, 0.0, 0.0, 0.0, 0.0, 0.0, 0.0, 0.0]",,0.0366180573298,-0.00504932554775,-0.241918757011,"[0.0, 0.0, 0.0, 0.0, 0.0, 0.0, 0.0, 0.0, 0.0]",,-0.77549955,9.5612223,0.0392658,"[0.0, 0.0, 0.0, 0.0, 0.0, 0.0, 0.0, 0.0, 0.0]"
1569261699315964487,,61766,,1569261699,251283884,"""knife_link""",,0.481541751448,0.546943763856,0.500158067827,0.467773415212,"[0.0, 0.0, 0.0, 0.0, 0.0, 0.0, 0.0, 0.0, 0.0]",,-0.0715923562942,-0.10278776366,-0.494991498551,"[0.0, 0.0, 0.0, 0.0, 0.0, 0.0, 0.0, 0.0, 0.0]",,-0.00981645,7.70591325,-0.2552277,"[0.0, 0.0, 0.0, 0.0, 0.0, 0.0, 0.0, 0.0, 0.0]"
1569261699361069367,,61767,,1569261699,314985036,"""knife_link""",,0.486110916141,0.54592241735,0.496205487271,0.46844957663,"[0.0, 0.0, 0.0, 0.0, 0.0, 0.0, 0.0, 0.0, 0.0]",,0.116903202922,-0.142930336456,0.0251166185447,"[0.0, 0.0, 0.0, 0.0, 0.0, 0.0, 0.0, 0.0, 0.0]",,-0.3533922,10.3072725,-0.14724675,"[0.0, 0.0, 0.0, 0.0, 0.0, 0.0, 0.0, 0.0, 0.0]"
1569261699401184619,,61768,,1569261699,358618021,"""knife_link""",,0.482295191099,0.552004625123,0.492081867443,0.469614393113,"[0.0, 0.0, 0.0, 0.0, 0.0, 0.0, 0.0, 0.0, 0.0]",,0.14133781245,0.118869051344,-0.367582463155,"[0.0, 0.0, 0.0, 0.0, 0.0, 0.0, 0.0, 0.0, 0.0]",,0.3730251,8.8937037,-0.3337593,"[0.0, 0.0, 0.0, 0.0, 0.0, 0.0, 0.0, 0.0, 0.0]"
1569261699464695381,,61769,,1569261699,399976968,"""knife_link""",,0.48190111009,0.551571789145,0.492279395979,0.470319973857,"[0.0, 0.0, 0.0, 0.0, 0.0, 0.0, 0.0, 0.0, 0.0]",,-0.0314497834982,0.0106586377203,-0.0045539787393,"[0.0, 0.0, 0.0, 0.0, 0.0, 0.0, 0.0, 0.0, 0.0]",,-0.8834805,10.31708895,-0.30430995,"[0.0, 0.0, 0.0, 0.0, 0.0, 0.0, 0.0, 0.0, 0.0]"
1569261699507291242,,61770,,1569261699,463876962,"""knife_link""",,0.475857560022,0.554756826503,0.488950639438,0.476163541455,"[0.0, 0.0, 0.0, 0.0, 0.0, 0.0, 0.0, 0.0, 0.0]",,-0.0611203807822,0.00542264996425,-0.287297317563,"[0.0, 0.0, 0.0, 0.0, 0.0, 0.0, 0.0, 0.0, 0.0]",,-0.9031134,9.3452604,-0.02944935,"[0.0, 0.0, 0.0, 0.0, 0.0, 0.0, 0.0, 0.0, 0.0]"
1569261699592359374,,61771,,1569261699,506217956,"""knife_link""",,0.478247662655,0.555003580268,0.486778470234,0.475706758383,"[0.0, 0.0, 0.0, 0.0, 0.0, 0.0, 0.0, 0.0, 0.0]",,0.13261116619,-0.0626451908637,0.0268619477967,"[0.0, 0.0, 0.0, 0.0, 0.0, 0.0, 0.0, 0.0, 0.0]",,-1.0798095,10.405437,-0.44174025,"[0.0, 0.0, 0.0, 0.0, 0.0, 0.0, 0.0, 0.0, 0.0]"
1569261699613012461,,61772,,1569261699,591092109,"""knife_link""",,0.479042909341,0.55972849648,0.478950242086,0.477313908077,"[0.0, 0.0, 0.0, 0.0, 0.0, 0.0, 0.0, 0.0, 0.0]",,0.153555117214,-0.0539185446037,-0.149416306655,"[0.0, 0.0, 0.0, 0.0, 0.0, 0.0, 0.0, 0.0, 0.0]",,-0.77549955,9.68883615,-0.26504415,"[0.0, 0.0, 0.0, 0.0, 0.0, 0.0, 0.0, 0.0, 0.0]"
1569261699656084211,,61773,,1569261699,612339973,"""knife_link""",,0.479866557525,0.560604529685,0.477000458621,0.477410945352,"[0.0, 0.0, 0.0, 0.0, 0.0, 0.0, 0.0, 0.0, 0.0]",,0.198933677766,-0.0451918983437,-0.0813484658273,"[0.0, 0.0, 0.0, 0.0, 0.0, 0.0, 0.0, 0.0, 0.0]",,-1.0012779,9.98332965,-0.3141264,"[0.0, 0.0, 0.0, 0.0, 0.0, 0.0, 0.0, 0.0, 0.0]"
1569261699719461816,,61774,,1569261699,654999971,"""knife_link""",,0.478402227139,0.56074911391,0.477188957401,0.478521095932,"[0.0, 0.0, 0.0, 0.0, 0.0, 0.0, 0.0, 0.0, 0.0]",,-0.0489030760182,0.0333479179963,-0.0621498440553,"[0.0, 0.0, 0.0, 0.0, 0.0, 0.0, 0.0, 0.0, 0.0]",,-0.8049489,8.9918682,-0.3141264,"[0.0, 0.0, 0.0, 0.0, 0.0, 0.0, 0.0, 0.0, 0.0]"
1569261699765335336,,61775,,1569261699,718579053,"""knife_link""",,0.477961999076,0.561622514892,0.47391429947,0.481183660324,"[0.0, 0.0, 0.0, 0.0, 0.0, 0.0, 0.0, 0.0, 0.0]",,0.0383633865818,-0.0608998616117,-0.107528404607,"[0.0, 0.0, 0.0, 0.0, 0.0, 0.0, 0.0, 0.0, 0.0]",,-1.1583411,10.2876396,0.0981645,"[0.0, 0.0, 0.0, 0.0, 0.0, 0.0, 0.0, 0.0, 0.0]"
1569261699804678065,,61776,,1569261699,761110067,"""knife_link""",,0.475388791641,0.564214982719,0.472214206285,0.482369872028,"[0.0, 0.0, 0.0, 0.0, 0.0, 0.0, 0.0, 0.0, 0.0]",,0.0174194355578,0.0665091737843,-0.194794867207,"[0.0, 0.0, 0.0, 0.0, 0.0, 0.0, 0.0, 0.0, 0.0]",,-0.85403115,9.68883615,-0.8049489,"[0.0, 0.0, 0.0, 0.0, 0.0, 0.0, 0.0, 0.0, 0.0]"
1569261699868585924,,61777,,1569261699,803791046,"""knife_link""",,0.474232683026,0.568227305095,0.467279113747,0.483602442044,"[0.0, 0.0, 0.0, 0.0, 0.0, 0.0, 0.0, 0.0, 0.0]",,0.191952360758,0.000186662208252,-0.231446781499,"[0.0, 0.0, 0.0, 0.0, 0.0, 0.0, 0.0, 0.0, 0.0]",,-2.5326441,10.5232344,0.34357575,"[0.0, 0.0, 0.0, 0.0, 0.0, 0.0, 0.0, 0.0, 0.0]"
1569261699912866933,,61778,,1569261699,867528915,"""knife_link""",,0.459721198257,0.57882570935,0.460013943477,0.491939416875,"[0.0, 0.0, 0.0, 0.0, 0.0, 0.0, 0.0, 0.0, 0.0]",,-0.0681016977902,0.131086356108,-0.650325801979,"[0.0, 0.0, 0.0, 0.0, 0.0, 0.0, 0.0, 0.0, 0.0]",,-1.3154043,8.7759063,-1.2172398,"[0.0, 0.0, 0.0, 0.0, 0.0, 0.0, 0.0, 0.0, 0.0]"
1569261699953982846,,61779,,1569261699,909573078,"""knife_link""",,0.455649731748,0.584153584429,0.455037598401,0.494053332948,"[0.0, 0.0, 0.0, 0.0, 0.0, 0.0, 0.0, 0.0, 0.0]",,0.108176556662,0.0717451615403,-0.393762401935,"[0.0, 0.0, 0.0, 0.0, 0.0, 0.0, 0.0, 0.0, 0.0]",,3.2394285,5.3794146,0.14724675,"[0.0, 0.0, 0.0, 0.0, 0.0, 0.0, 0.0, 0.0, 0.0]"
1569261700038325027,,61780,,1569261699,952613115,"""knife_link""",,0.475157208371,0.573523385009,0.466212898376,0.477432809481,"[0.0, 0.0, 0.0, 0.0, 0.0, 0.0, 0.0, 0.0, 0.0]",,0.25478421383,0.0508012105163,1.33062289904,"[0.0, 0.0, 0.0, 0.0, 0.0, 0.0, 0.0, 0.0, 0.0]",,0.24541125,9.8360829,-1.67861295,"[0.0, 0.0, 0.0, 0.0, 0.0, 0.0, 0.0, 0.0, 0.0]"
1569261700080858898,,61781,,1569261700,37409067,"""knife_link""",,0.487282233215,0.581523077655,0.461392036341,0.459895992753,"[0.0, 0.0, 0.0, 0.0, 0.0, 0.0, 0.0, 0.0, 0.0]",,0.479931687338,0.148539648628,0.187432238981,"[0.0, 0.0, 0.0, 0.0, 0.0, 0.0, 0.0, 0.0, 0.0]",,1.18779045,9.7968171,-1.9436571,"[0.0, 0.0, 0.0, 0.0, 0.0, 0.0, 0.0, 0.0, 0.0]"
1569261700102513287,,61782,,1569261700,80137014,"""knife_link""",,0.490024993642,0.57004655097,0.472224595241,0.460354610037,"[0.0, 0.0, 0.0, 0.0, 0.0, 0.0, 0.0, 0.0, 0.0]",,-0.488726047522,-0.0417012398397,0.595839283949,"[0.0, 0.0, 0.0, 0.0, 0.0, 0.0, 0.0, 0.0, 0.0]",,-2.69952375,10.5036015,-1.0012779,"[0.0, 0.0, 0.0, 0.0, 0.0, 0.0, 0.0, 0.0, 0.0]"
1569261700166895841,,61783,,1569261700,101259946,"""knife_link""",,0.490158409631,0.572956104814,0.468820620809,0.460079624552,"[0.0, 0.0, 0.0, 0.0, 0.0, 0.0, 0.0, 0.0, 0.0]",,0.345541334934,0.0316025887443,-0.220974805987,"[0.0, 0.0, 0.0, 0.0, 0.0, 0.0, 0.0, 0.0, 0.0]",,-1.5313662,8.78572275,-0.91292985,"[0.0, 0.0, 0.0, 0.0, 0.0, 0.0, 0.0, 0.0, 0.0]"
1569261700209400368,,61784,,1569261700,164802074,"""knife_link""",,0.486051928668,0.567091368772,0.473760096769,0.466596477496,"[0.0, 0.0, 0.0, 0.0, 0.0, 0.0, 0.0, 0.0, 0.0]",,-0.32117443933,-0.0504278860997,-0.0132806249993,"[0.0, 0.0, 0.0, 0.0, 0.0, 0.0, 0.0, 0.0, 0.0]",,-0.5104554,10.8569937,-0.10798095,"[0.0, 0.0, 0.0, 0.0, 0.0, 0.0, 0.0, 0.0, 0.0]"
1569261700251657194,,61785,,1569261700,208233118,"""knife_link""",,0.47349597489,0.56057522022,0.479924542593,0.480863200563,"[0.0, 0.0, 0.0, 0.0, 0.0, 0.0, 0.0, 0.0, 0.0]",,-0.907605068002,-0.0870798003917,-0.425178328471,"[0.0, 0.0, 0.0, 0.0, 0.0, 0.0, 0.0, 0.0, 0.0]",,1.89457485,10.012779,-1.374303,"[0.0, 0.0, 0.0, 0.0, 0.0, 0.0, 0.0, 0.0, 0.0]"
1569261700314819980,,61786,,1569261700,250302076,"""knife_link""",,0.49990532644,0.558928824511,0.485093440465,0.449863965823,"[0.0, 0.0, 0.0, 0.0, 0.0, 0.0, 0.0, 0.0, 0.0]",,1.1466474616,0.326563232332,1.54180773853,"[0.0, 0.0, 0.0, 0.0, 0.0, 0.0, 0.0, 0.0, 0.0]",,0.73623375,9.3256275,-0.3533922,"[0.0, 0.0, 0.0, 0.0, 0.0, 0.0, 0.0, 0.0, 0.0]"
1569261700357205030,,61787,,1569261700,313893079,"""knife_link""",,0.538278183853,0.564060144995,0.483150933491,0.398318873622,"[0.0, 0.0, 0.0, 0.0, 0.0, 0.0, 0.0, 0.0, 0.0]",,1.45557073921,0.3859044269,1.36902014258,"[0.0, 0.0, 0.0, 0.0, 0.0, 0.0, 0.0, 0.0, 0.0]",,-0.48100605,10.3269054,-3.32777655,"[0.0, 0.0, 0.0, 0.0, 0.0, 0.0, 0.0, 0.0, 0.0]"
1569261700421371552,,61788,,1569261700,356529951,"""knife_link""",,0.581944100622,0.597685343147,0.430972538583,0.344058084232,"[0.0, 0.0, 0.0, 0.0, 0.0, 0.0, 0.0, 0.0, 0.0]",,4.39295987032,-0.209252848032,0.590603296193,"[0.0, 0.0, 0.0, 0.0, 0.0, 0.0, 0.0, 0.0, 0.0]",,-0.59880345,8.56976085,-1.8651255,"[0.0, 0.0, 0.0, 0.0, 0.0, 0.0, 0.0, 0.0, 0.0]"
1569261700464435705,,61789,,1569261700,420124053,"""knife_link""",,0.646422280963,0.653031050838,0.312544414376,0.240841587684,"[0.0, 0.0, 0.0, 0.0, 0.0, 0.0, 0.0, 0.0, 0.0]",,5.68973950456,-0.483269540596,0.332294566897,"[0.0, 0.0, 0.0, 0.0, 0.0, 0.0, 0.0, 0.0, 0.0]",,-0.5104554,7.85316,-4.7904276,"[0.0, 0.0, 0.0, 0.0, 0.0, 0.0, 0.0, 0.0, 0.0]"
1569261700506064000,,61790,,1569261700,463284969,"""knife_link""",,0.681885494155,0.685648511029,0.199261787263,0.158786121313,"[0.0, 0.0, 0.0, 0.0, 0.0, 0.0, 0.0, 0.0, 0.0]",,6.85736477415,-1.07668148628,-0.0097899664953,"[0.0, 0.0, 0.0, 0.0, 0.0, 0.0, 0.0, 0.0, 0.0]",,2.7289731,5.88987,-4.9671237,"[0.0, 0.0, 0.0, 0.0, 0.0, 0.0, 0.0, 0.0, 0.0]"
1569261700576740674,,61791,,1569261700,504909038,"""knife_link""",,0.702574409846,0.704242933356,0.0609148958809,0.0819784417223,"[0.0, 0.0, 0.0, 0.0, 0.0, 0.0, 0.0, 0.0, 0.0]",,7.53106186542,-2.09420844019,-0.208757501223,"[0.0, 0.0, 0.0, 0.0, 0.0, 0.0, 0.0, 0.0, 0.0]",,-0.7264173,3.6517194,-10.405437,"[0.0, 0.0, 0.0, 0.0, 0.0, 0.0, 0.0, 0.0, 0.0]"
1569261700613975315,,61792,,1569261700,575536966,"""knife_link""",,0.700487332312,0.707959975791,-0.0851936949125,0.0291925383644,"[0.0, 0.0, 0.0, 0.0, 0.0, 0.0, 0.0, 0.0, 0.0]",,4.10847120225,-1.83764504015,-0.114509721615,"[0.0, 0.0, 0.0, 0.0, 0.0, 0.0, 0.0, 0.0, 0.0]",,-3.8873142,3.6713523,-7.656831,"[0.0, 0.0, 0.0, 0.0, 0.0, 0.0, 0.0, 0.0, 0.0]"
1569261700654571637,,61793,,1569261700,611552953,"""knife_link""",,0.699619573166,0.710530612141,-0.0749700228643,0.00762874341398,"[0.0, 0.0, 0.0, 0.0, 0.0, 0.0, 0.0, 0.0, 0.0]",,0.495639650606,1.29173030869,0.295642652605,"[0.0, 0.0, 0.0, 0.0, 0.0, 0.0, 0.0, 0.0, 0.0]",,3.19034625,2.62099215,-13.2129417,"[0.0, 0.0, 0.0, 0.0, 0.0, 0.0, 0.0, 0.0, 0.0]"
1569261700718755149,,61794,,1569261700,653543949,"""knife_link""",,0.690720296596,0.712478675095,-0.114280833916,-0.0471115740071,"[0.0, 0.0, 0.0, 0.0, 0.0, 0.0, 0.0, 0.0, 0.0]",,3.20089999121,0.590107949384,-0.112764392363,"[0.0, 0.0, 0.0, 0.0, 0.0, 0.0, 0.0, 0.0, 0.0]",,-2.7289731,-1.5509991,-11.3281833,"[0.0, 0.0, 0.0, 0.0, 0.0, 0.0, 0.0, 0.0, 0.0]"
1569261700761579385,,61795,,1569261700,717401981,"""knife_link""",,0.680121089036,0.72439988098,-0.107127241302,-0.0346968421657,"[0.0, 0.0, 0.0, 0.0, 0.0, 0.0, 0.0, 0.0, 0.0]",,-0.427639523702,-0.135949019448,-0.156397623663,"[0.0, 0.0, 0.0, 0.0, 0.0, 0.0, 0.0, 0.0, 0.0]",,0.6086199,-2.05163805,-9.6397539,"[0.0, 0.0, 0.0, 0.0, 0.0, 0.0, 0.0, 0.0, 0.0]"
1569261700803702949,,61796,,1569261700,760142087,"""knife_link""",,0.675629789746,0.729890094405,-0.0935031586919,-0.0451884566263,"[0.0, 0.0, 0.0, 0.0, 0.0, 0.0, 0.0, 0.0, 0.0]",,-0.10300828283,0.878087275964,0.0460605695687,"[0.0, 0.0, 0.0, 0.0, 0.0, 0.0, 0.0, 0.0, 0.0]",,-1.63934715,-1.4528346,-8.9918682,"[0.0, 0.0, 0.0, 0.0, 0.0, 0.0, 0.0, 0.0, 0.0]"
1569261700867155903,,61797,,1569261700,802472114,"""knife_link""",,0.670677350459,0.730115421511,-0.108493092193,-0.0731615459061,"[0.0, 0.0, 0.0, 0.0, 0.0, 0.0, 0.0, 0.0, 0.0]",,1.44335343444,0.563928010604,0.192668226737,"[0.0, 0.0, 0.0, 0.0, 0.0, 0.0, 0.0, 0.0, 0.0]",,0.6871515,-2.9842008,-11.02387335,"[0.0, 0.0, 0.0, 0.0, 0.0, 0.0, 0.0, 0.0, 0.0]"
1569261700911184575,,61798,,1569261700,866363048,"""knife_link""",,0.661164674412,0.749202013879,-0.0325201000916,-0.0223619945172,"[0.0, 0.0, 0.0, 0.0, 0.0, 0.0, 0.0, 0.0, 0.0]",,-2.85539251323,0.41208436568,-0.315222585595,"[0.0, 0.0, 0.0, 0.0, 0.0, 0.0, 0.0, 0.0, 0.0]",,-0.0981645,-1.03072725,-9.66920325,"[0.0, 0.0, 0.0, 0.0, 0.0, 0.0, 0.0, 0.0, 0.0]"
1569261700952530602,,61799,,1569261700,908888101,"""knife_link""",,0.646814801006,0.762454088372,-0.0170326330804,-0.00206536554955,"[0.0, 0.0, 0.0, 0.0, 0.0, 0.0, 0.0, 0.0, 0.0]",,-1.17289511431,-0.247650091576,-0.470556889023,"[0.0, 0.0, 0.0, 0.0, 0.0, 0.0, 0.0, 0.0, 0.0]",,-0.1177974,-0.10798095,-8.7562734,"[0.0, 0.0, 0.0, 0.0, 0.0, 0.0, 0.0, 0.0, 0.0]"
1569261701015646484,,61800,,1569261700,951214075,"""knife_link""",,0.636651136601,0.770950815005,-0.015911650799,0.00754920376073,"[0.0, 0.0, 0.0, 0.0, 0.0, 0.0, 0.0, 0.0, 0.0]",,-0.349099707362,-0.322699249412,-0.236682769255,"[0.0, 0.0, 0.0, 0.0, 0.0, 0.0, 0.0, 0.0, 0.0]",,0.0981645,-0.93256275,-10.012779,"[0.0, 0.0, 0.0, 0.0, 0.0, 0.0, 0.0, 0.0, 0.0]"
1569261701061131536,,61801,,1569261701,14890909,"""knife_link""",,0.631021885927,0.775278947557,0.00904281058796,0.0259260589502,"[0.0, 0.0, 0.0, 0.0, 0.0, 0.0, 0.0, 0.0, 0.0]",,-0.96694626257,0.0647638445323,-0.135453672639,"[0.0, 0.0, 0.0, 0.0, 0.0, 0.0, 0.0, 0.0, 0.0]",,-1.10925885,0.8442147,-9.5612223,"[0.0, 0.0, 0.0, 0.0, 0.0, 0.0, 0.0, 0.0, 0.0]"
1569261701103006641,,61802,,1569261701,57543039,"""knife_link""",,0.623907067518,0.780464643483,0.00964152338964,0.0390122083516,"[0.0, 0.0, 0.0, 0.0, 0.0, 0.0, 0.0, 0.0, 0.0]",,-0.439856828466,-0.441381638548,-0.308241268587,"[0.0, 0.0, 0.0, 0.0, 0.0, 0.0, 0.0, 0.0, 0.0]",,-1.03072725,-0.5693541,-9.84589935,"[0.0, 0.0, 0.0, 0.0, 0.0, 0.0, 0.0, 0.0, 0.0]"
1569261701165443172,,61803,,1569261701,100220918,"""knife_link""",,0.618926282162,0.784426843856,0.0073763111653,0.0393747878848,"[0.0, 0.0, 0.0, 0.0, 0.0, 0.0, 0.0, 0.0, 0.0]",,0.0593073376058,-0.0626451908637,-0.184322891695,"[0.0, 0.0, 0.0, 0.0, 0.0, 0.0, 0.0, 0.0, 0.0]",,-1.12889175,0.10798095,-9.82626645,"[0.0, 0.0, 0.0, 0.0, 0.0, 0.0, 0.0, 0.0, 0.0]"
1569261701207711588,,61804,,1569261701,163672924,"""knife_link""",,0.609948251204,0.790393477142,-0.00138706639313,0.0569153598886,"[0.0, 0.0, 0.0, 0.0, 0.0, 0.0, 0.0, 0.0, 0.0]",,-0.143150855626,-0.587989295716,-0.240173427759,"[0.0, 0.0, 0.0, 0.0, 0.0, 0.0, 0.0, 0.0, 0.0]",,-1.81604325,-0.34357575,-9.86553225,"[0.0, 0.0, 0.0, 0.0, 0.0, 0.0, 0.0, 0.0, 0.0]"
1569261701249481814,,61805,,1569261701,206336975,"""knife_link""",,0.601418310224,0.795942615623,-0.0104522519835,0.0682797128726,"[0.0, 0.0, 0.0, 0.0, 0.0, 0.0, 0.0, 0.0, 0.0]",,-0.00352451546618,-0.657802465796,-0.301259951579,"[0.0, 0.0, 0.0, 0.0, 0.0, 0.0, 0.0, 0.0, 0.0]",,-2.8860363,-0.196329,-10.7588292,"[0.0, 0.0, 0.0, 0.0, 0.0, 0.0, 0.0, 0.0, 0.0]"
1569261701314637974,,61806,,1569261701,248662948,"""knife_link""",,0.594018931567,0.800585110136,-0.0215988287019,0.07575276211,"[0.0, 0.0, 0.0, 0.0, 0.0, 0.0, 0.0, 0.0, 0.0]",,0.205914994774,-0.587989295716,-0.226210793743,"[0.0, 0.0, 0.0, 0.0, 0.0, 0.0, 0.0, 0.0, 0.0]",,-4.38795315,-0.3533922,-10.6999305,"[0.0, 0.0, 0.0, 0.0, 0.0, 0.0, 0.0, 0.0, 0.0]"
1569261701377361511,,61807,,1569261701,312619924,"""knife_link""",,0.592766845403,0.801112624505,-0.0434939187872,0.0703868516053,"[0.0, 0.0, 0.0, 0.0, 0.0, 0.0, 0.0, 0.0, 0.0]",,0.666681917302,-0.265103384096,0.0914391301207,"[0.0, 0.0, 0.0, 0.0, 0.0, 0.0, 0.0, 0.0, 0.0]",,-4.93767435,-1.6098978,-10.2287409,"[0.0, 0.0, 0.0, 0.0, 0.0, 0.0, 0.0, 0.0, 0.0]"
1569261701421429645,,61808,,1569261701,376377105,"""knife_link""",,0.598316657742,0.794787962356,-0.06544875678,0.0777543066185,"[0.0, 0.0, 0.0, 0.0, 0.0, 0.0, 0.0, 0.0, 0.0]",,0.47295037033,-0.579262649456,0.424797017253,"[0.0, 0.0, 0.0, 0.0, 0.0, 0.0, 0.0, 0.0, 0.0]",,-4.32905445,-0.20614545,-10.2287409,"[0.0, 0.0, 0.0, 0.0, 0.0, 0.0, 0.0, 0.0, 0.0]"
1569261701463027416,,61809,,1569261701,420033931,"""knife_link""",,0.601482685069,0.789463257829,-0.094609163038,0.077559334505,"[0.0, 0.0, 0.0, 0.0, 0.0, 0.0, 0.0, 0.0, 0.0]",,1.18155404664,-0.741578269892,0.491119528829,"[0.0, 0.0, 0.0, 0.0, 0.0, 0.0, 0.0, 0.0, 0.0]",,-4.515567,-0.02944935,-9.3648933,"[0.0, 0.0, 0.0, 0.0, 0.0, 0.0, 0.0, 0.0, 0.0]"
1569261701505624448,,61810,,1569261701,461641073,"""knife_link""",,0.598244438721,0.793863411902,-0.070563856019,0.0830976353855,"[0.0, 0.0, 0.0, 0.0, 0.0, 0.0, 0.0, 0.0, 0.0]",,-1.02105146938,0.413829694932,0.176960263469,"[0.0, 0.0, 0.0, 0.0, 0.0, 0.0, 0.0, 0.0, 0.0]",,1.2565056,0.32394285,-9.61030455,"[0.0, 0.0, 0.0, 0.0, 0.0, 0.0, 0.0, 0.0, 0.0]"
1569261701572023950,,61811,,1569261701,504508972,"""knife_link""",,0.570958593447,0.810579635806,0.025258189157,0.127784828779,"[0.0, 0.0, 0.0, 0.0, 0.0, 0.0, 0.0, 0.0, 0.0]",,-4.97247689591,0.982807031084,-0.891181238755,"[0.0, 0.0, 0.0, 0.0, 0.0, 0.0, 0.0, 0.0, 0.0]",,7.45068555,1.8847584,-8.84462145,"[0.0, 0.0, 0.0, 0.0, 0.0, 0.0, 0.0, 0.0, 0.0]"
1569261701611730094,,61812,,1569261701,570518016,"""knife_link""",,0.487633002912,0.78322162037,0.321261759386,0.213468568675,"[0.0, 0.0, 0.0, 0.0, 0.0, 0.0, 0.0, 0.0, 0.0]",,-9.60458073072,3.05974884096,-0.645089814223,"[0.0, 0.0, 0.0, 0.0, 0.0, 0.0, 0.0, 0.0, 0.0]",,7.37215395,5.2616172,-5.2419843,"[0.0, 0.0, 0.0, 0.0, 0.0, 0.0, 0.0, 0.0, 0.0]"
1569261701652825164,,61813,,1569261701,610882043,"""knife_link""",,0.418472666048,0.702729733401,0.518055512262,0.250339840577,"[0.0, 0.0, 0.0, 0.0, 0.0, 0.0, 0.0, 0.0, 0.0]",,-10.7774419881,3.75788054176,0.635981856745,"[0.0, 0.0, 0.0, 0.0, 0.0, 0.0, 0.0, 0.0, 0.0]",,7.460502,8.5010457,1.18779045,"[0.0, 0.0, 0.0, 0.0, 0.0, 0.0, 0.0, 0.0, 0.0]"
1569261701716940932,,61814,,1569261701,652116060,"""knife_link""",,0.355691737851,0.58087045127,0.669847116114,0.295597272483,"[0.0, 0.0, 0.0, 0.0, 0.0, 0.0, 0.0, 0.0, 0.0]",,-10.1229435186,1.81881974279,1.04264357246,"[0.0, 0.0, 0.0, 0.0, 0.0, 0.0, 0.0, 0.0, 0.0]",,4.52538345,11.2889175,2.16943545,"[0.0, 0.0, 0.0, 0.0, 0.0, 0.0, 0.0, 0.0, 0.0]"
1569261701760889580,,61815,,1569261701,716074943,"""knife_link""",,0.300378478923,0.442103171036,0.757513797326,0.374820493597,"[0.0, 0.0, 0.0, 0.0, 0.0, 0.0, 0.0, 0.0, 0.0]",,-5.99000384983,-0.523412113392,-0.296023963823,"[0.0, 0.0, 0.0, 0.0, 0.0, 0.0, 0.0, 0.0, 0.0]",,4.34868735,10.84717725,3.4161246,"[0.0, 0.0, 0.0, 0.0, 0.0, 0.0, 0.0, 0.0, 0.0]"
1569261701801862703,,61816,,1569261701,759161949,"""knife_link""",,0.311546800183,0.4453993354,0.73178135879,0.411161849213,"[0.0, 0.0, 0.0, 0.0, 0.0, 0.0, 0.0, 0.0, 0.0]",,0.387429236982,-1.37164212986,-1.47586653818,"[0.0, 0.0, 0.0, 0.0, 0.0, 0.0, 0.0, 0.0, 0.0]",,-0.4319238,8.5010457,6.09601545,"[0.0, 0.0, 0.0, 0.0, 0.0, 0.0, 0.0, 0.0, 0.0]"
1569261701866094423,,61817,,1569261701,801181077,"""knife_link""",,0.327509616838,0.508700730523,0.672675307377,0.425991723497,"[0.0, 0.0, 0.0, 0.0, 0.0, 0.0, 0.0, 0.0, 0.0]",,3.63897763346,-0.436145650792,-2.21239548252,"[0.0, 0.0, 0.0, 0.0, 0.0, 0.0, 0.0, 0.0, 0.0]",,-1.6295307,8.8151721,5.6150094,"[0.0, 0.0, 0.0, 0.0, 0.0, 0.0, 0.0, 0.0, 0.0]"
1569261701908747183,,61818,,1569261701,864989995,"""knife_link""",,0.297639886793,0.527308390335,0.643153651089,0.468732056044,"[0.0, 0.0, 0.0, 0.0, 0.0, 0.0, 0.0, 0.0, 0.0]",,-0.00876050322218,-0.0574092031077,-1.91394418043,"[0.0, 0.0, 0.0, 0.0, 0.0, 0.0, 0.0, 0.0, 0.0]",,-3.141264,8.638476,0.59880345,"[0.0, 0.0, 0.0, 0.0, 0.0, 0.0, 0.0, 0.0, 0.0]"
1569261701950593536,,61819,,1569261701,907466888,"""knife_link""",,0.326082047614,0.582583795182,0.578423340507,0.468714261541,"[0.0, 0.0, 0.0, 0.0, 0.0, 0.0, 0.0, 0.0, 0.0]",,3.91997564303,-0.465816248076,-1.48284785518,"[0.0, 0.0, 0.0, 0.0, 0.0, 0.0, 0.0, 0.0, 0.0]",,-1.60008135,8.3636154,1.2761385,"[0.0, 0.0, 0.0, 0.0, 0.0, 0.0, 0.0, 0.0, 0.0]"
1569261702014361777,,61820,,1569261701,949637889,"""knife_link""",,0.338749345473,0.59893008616,0.548939079706,0.474549807297,"[0.0, 0.0, 0.0, 0.0, 0.0, 0.0, 0.0, 0.0, 0.0]",,1.38750289838,-0.533884088904,-0.693959033279,"[0.0, 0.0, 0.0, 0.0, 0.0, 0.0, 0.0, 0.0, 0.0]",,-2.56209345,8.94278595,-1.61971425,"[0.0, 0.0, 0.0, 0.0, 0.0, 0.0, 0.0, 0.0, 0.0]"
1569261702057439303,,61821,,1569261702,13648986,"""knife_link""",,0.366481513269,0.619727998318,0.500746676837,0.480501065732,"[0.0, 0.0, 0.0, 0.0, 0.0, 0.0, 0.0, 0.0, 0.0]",,1.59345175011,-0.750304916152,-0.517680778827,"[0.0, 0.0, 0.0, 0.0, 0.0, 0.0, 0.0, 0.0, 0.0]",,-2.355948,9.76736775,-0.83439825,"[0.0, 0.0, 0.0, 0.0, 0.0, 0.0, 0.0, 0.0, 0.0]"
1569261702099674835,,61822,,1569261702,56469917,"""knife_link""",,0.379266701213,0.631996051514,0.477507859632,0.478250984538,"[0.0, 0.0, 0.0, 0.0, 0.0, 0.0, 0.0, 0.0, 0.0]",,1.274056497,-0.300009969136,-0.294278634571,"[0.0, 0.0, 0.0, 0.0, 0.0, 0.0, 0.0, 0.0, 0.0]",,-3.2590614,9.7379184,-0.785316,"[0.0, 0.0, 0.0, 0.0, 0.0, 0.0, 0.0, 0.0, 0.0]"
1569261702164598657,,61823,,1569261702,98809957,"""knife_link""",,0.372427747721,0.631248502986,0.480367179923,0.481736725462,"[0.0, 0.0, 0.0, 0.0, 0.0, 0.0, 0.0, 0.0, 0.0]",,-0.352590365866,0.136322343864,-0.226210793743,"[0.0, 0.0, 0.0, 0.0, 0.0, 0.0, 0.0, 0.0, 0.0]",,-1.73751165,9.39434265,-1.50191685,"[0.0, 0.0, 0.0, 0.0, 0.0, 0.0, 0.0, 0.0, 0.0]"
1569261702213248544,,61824,,1569261702,163127899,"""knife_link""",,0.370283091806,0.615714890206,0.483497954494,0.500015333666,"[0.0, 0.0, 0.0, 0.0, 0.0, 0.0, 0.0, 0.0, 0.0]",,-0.549812571342,-0.490250857604,-0.0970564290953,"[0.0, 0.0, 0.0, 0.0, 0.0, 0.0, 0.0, 0.0, 0.0]",,-2.2185177,10.0324119,-0.5693541,"[0.0, 0.0, 0.0, 0.0, 0.0, 0.0, 0.0, 0.0, 0.0]"
1569261702270832830,,61825,,1569261702,212084054,"""knife_link""",,0.373024781147,0.613490448526,0.48119201289,0.502927657769,"[0.0, 0.0, 0.0, 0.0, 0.0, 0.0, 0.0, 0.0, 0.0]",,0.0331273988258,-0.160383628976,-0.0272432590153,"[0.0, 0.0, 0.0, 0.0, 0.0, 0.0, 0.0, 0.0, 0.0]",,-1.46265105,10.00296255,0.61843635,"[0.0, 0.0, 0.0, 0.0, 0.0, 0.0, 0.0, 0.0, 0.0]"
1569261702313228603,,61826,,1569261702,268847942,"""knife_link""",,0.373347775991,0.610038043623,0.489441507859,0.498910847627,"[0.0, 0.0, 0.0, 0.0, 0.0, 0.0, 0.0, 0.0, 0.0]",,-0.20772803795,0.162502282644,0.248518762801,"[0.0, 0.0, 0.0, 0.0, 0.0, 0.0, 0.0, 0.0, 0.0]",,-1.4724675,9.8360829,-1.34485365,"[0.0, 0.0, 0.0, 0.0, 0.0, 0.0, 0.0, 0.0, 0.0]"
1569261702355638458,,61827,,1569261702,311980009,"""knife_link""",,0.374291175751,0.609224807867,0.490701915437,0.497958712568,"[0.0, 0.0, 0.0, 0.0, 0.0, 0.0, 0.0, 0.0, 0.0]",,-0.0523937345222,0.0542918690203,0.0704951790967,"[0.0, 0.0, 0.0, 0.0, 0.0, 0.0, 0.0, 0.0, 0.0]",,-1.56081555,9.8949816,-1.2761385,"[0.0, 0.0, 0.0, 0.0, 0.0, 0.0, 0.0, 0.0, 0.0]"
1569261702420535518,,61828,,1569261702,353955984,"""knife_link""",,0.381355214347,0.610293808988,0.48507968764,0.496797105306,"[0.0, 0.0, 0.0, 0.0, 0.0, 0.0, 0.0, 0.0, 0.0]",,0.373466602966,-0.153402311968,0.0547872158287,"[0.0, 0.0, 0.0, 0.0, 0.0, 0.0, 0.0, 0.0, 0.0]",,-1.42338525,10.012779,0.0392658,"[0.0, 0.0, 0.0, 0.0, 0.0, 0.0, 0.0, 0.0, 0.0]"
1569261702461616021,,61829,,1569261702,418929100,"""knife_link""",,0.389511032306,0.613213229747,0.474797473811,0.496807859679,"[0.0, 0.0, 0.0, 0.0, 0.0, 0.0, 0.0, 0.0, 0.0]",,0.35950396895,-0.167364945984,-0.0569138562993,"[0.0, 0.0, 0.0, 0.0, 0.0, 0.0, 0.0, 0.0, 0.0]",,-1.36448655,10.2680067,-0.2159619,"[0.0, 0.0, 0.0, 0.0, 0.0, 0.0, 0.0, 0.0, 0.0]"
1569261702507706181,,61830,,1569261702,460362911,"""knife_link""",,0.389570182706,0.612634144487,0.473437247635,0.498770137745,"[0.0, 0.0, 0.0, 0.0, 0.0, 0.0, 0.0, 0.0, 0.0]",,-0.0331951127502,-0.0574092031077,-0.0813484658273,"[0.0, 0.0, 0.0, 0.0, 0.0, 0.0, 0.0, 0.0, 0.0]",,-1.6884294,8.8740708,-1.01109435,"[0.0, 0.0, 0.0, 0.0, 0.0, 0.0, 0.0, 0.0, 0.0]"
1569261702568017053,,61831,,1569261702,506604909,"""knife_link""",,0.387437932635,0.607562954667,0.476321953985,0.503861588756,"[0.0, 0.0, 0.0, 0.0, 0.0, 0.0, 0.0, 0.0, 0.0]",,-0.315938451574,-0.11151440992,-0.0377152345273,"[0.0, 0.0, 0.0, 0.0, 0.0, 0.0, 0.0, 0.0, 0.0]",,-1.4528346,10.1894751,-0.10798095,"[0.0, 0.0, 0.0, 0.0, 0.0, 0.0, 0.0, 0.0, 0.0]"
1569261702617177391,,61832,,1569261702,566514968,"""knife_link""",,0.350977044532,0.59162965348,0.502807026661,0.523425793476,"[0.0, 0.0, 0.0, 0.0, 0.0, 0.0, 0.0, 0.0, 0.0]",,-1.67031395113,0.295147305796,-0.426923657723,"[0.0, 0.0, 0.0, 0.0, 0.0, 0.0, 0.0, 0.0, 0.0]",,-1.10925885,10.4447028,0.5104554,"[0.0, 0.0, 0.0, 0.0, 0.0, 0.0, 0.0, 0.0, 0.0]"
1569261702652350021,,61833,,1569261702,616264104,"""knife_link""",,0.363213225059,0.592417506385,0.51809158184,0.498697066462,"[0.0, 0.0, 0.0, 0.0, 0.0, 0.0, 0.0, 0.0, 0.0]",,0.21987762879,0.619778546668,1.07231416974,"[0.0, 0.0, 0.0, 0.0, 0.0, 0.0, 0.0, 0.0, 0.0]",,-0.5693541,10.06186125,-0.9620121,"[0.0, 0.0, 0.0, 0.0, 0.0, 0.0, 0.0, 0.0, 0.0]"
1569261702716276161,,61834,,1569261702,651072978,"""knife_link""",,0.389847816035,0.593578907821,0.519498692866,0.47518824547,"[0.0, 0.0, 0.0, 0.0, 0.0, 0.0, 0.0, 0.0, 0.0]",,1.20947931467,0.136322343864,1.59591294534,"[0.0, 0.0, 0.0, 0.0, 0.0, 0.0, 0.0, 0.0, 0.0]",,-0.59880345,9.72810195,-0.71660085,"[0.0, 0.0, 0.0, 0.0, 0.0, 0.0, 0.0, 0.0, 0.0]"
1569261702758861626,,61835,,1569261702,715002059,"""knife_link""",,0.403325711486,0.594489158083,0.49846336319,0.485227046787,"[0.0, 0.0, 0.0, 0.0, 0.0, 0.0, 0.0, 0.0, 0.0]",,0.49913030911,-0.615914563748,-0.241918757011,"[0.0, 0.0, 0.0, 0.0, 0.0, 0.0, 0.0, 0.0, 0.0]",,-1.34485365,9.2667288,0.93256275,"[0.0, 0.0, 0.0, 0.0, 0.0, 0.0, 0.0, 0.0, 0.0]"
1569261702801902536,,61836,,1569261702,757709980,"""knife_link""",,0.387457904095,0.592042062122,0.495241969621,0.504081303718,"[0.0, 0.0, 0.0, 0.0, 0.0, 0.0, 0.0, 0.0, 0.0]",,-0.692929570006,-0.228451469804,-0.910379860527,"[0.0, 0.0, 0.0, 0.0, 0.0, 0.0, 0.0, 0.0, 0.0]",,-0.89329695,7.8138942,-0.2748606,"[0.0, 0.0, 0.0, 0.0, 0.0, 0.0, 0.0, 0.0, 0.0]"
1569261702864905065,,61837,,1569261702,800525903,"""knife_link""",,0.38657403598,0.590953060796,0.491160838169,0.509996103603,"[0.0, 0.0, 0.0, 0.0, 0.0, 0.0, 0.0, 0.0, 0.0]",,-0.0628657100342,-0.204016860276,-0.262862708035,"[0.0, 0.0, 0.0, 0.0, 0.0, 0.0, 0.0, 0.0, 0.0]",,-1.1387082,9.6004881,-0.53990475,"[0.0, 0.0, 0.0, 0.0, 0.0, 0.0, 0.0, 0.0, 0.0]"
1569261702909221595,,61838,,1569261702,863795995,"""knife_link""",,0.381969619313,0.593521543858,0.480004833154,0.520986321363,"[0.0, 0.0, 0.0, 0.0, 0.0, 0.0, 0.0, 0.0, 0.0]",,0.0278914110698,-0.204016860276,-0.488010181543,"[0.0, 0.0, 0.0, 0.0, 0.0, 0.0, 0.0, 0.0, 0.0]",,-1.2761385,9.88516515,-0.32394285,"[0.0, 0.0, 0.0, 0.0, 0.0, 0.0, 0.0, 0.0, 0.0]"
1569261702949501310,,61839,,1569261702,907058954,"""knife_link""",,0.381394377868,0.592159846879,0.481307020548,0.521755303037,"[0.0, 0.0, 0.0, 0.0, 0.0, 0.0, 0.0, 0.0, 0.0]",,-0.118716246098,0.0158946254763,0.000682009016702,"[0.0, 0.0, 0.0, 0.0, 0.0, 0.0, 0.0, 0.0, 0.0]",,-1.56081555,9.7575513,-0.59880345,"[0.0, 0.0, 0.0, 0.0, 0.0, 0.0, 0.0, 0.0, 0.0]"
1569261703013455633,,61840,,1569261702,948643922,"""knife_link""",,0.379765098611,0.594992666421,0.479854920123,0.521058012524,"[0.0, 0.0, 0.0, 0.0, 0.0, 0.0, 0.0, 0.0, 0.0]",,0.0523260205978,0.139813002368,-0.144180318899,"[0.0, 0.0, 0.0, 0.0, 0.0, 0.0, 0.0, 0.0, 0.0]",,-1.4528346,9.4826907,-0.59880345,"[0.0, 0.0, 0.0, 0.0, 0.0, 0.0, 0.0, 0.0, 0.0]"
1569261703057146058,,61841,,1569261703,12362957,"""knife_link""",,0.378010950564,0.592007574384,0.479275296614,0.526241335493,"[0.0, 0.0, 0.0, 0.0, 0.0, 0.0, 0.0, 0.0, 0.0]",,-0.141405526374,-0.10278776366,-0.0953110998433,"[0.0, 0.0, 0.0, 0.0, 0.0, 0.0, 0.0, 0.0, 0.0]",,-1.97310645,9.9538803,-0.52027185,"[0.0, 0.0, 0.0, 0.0, 0.0, 0.0, 0.0, 0.0, 0.0]"
1569261703120200446,,61842,,1569261703,55442094,"""knife_link""",,0.375166021004,0.593769593066,0.480389175816,0.525275515127,"[0.0, 0.0, 0.0, 0.0, 0.0, 0.0, 0.0, 0.0, 0.0]",,-0.0785736733022,0.18519156292,-0.0830937950793,"[0.0, 0.0, 0.0, 0.0, 0.0, 0.0, 0.0, 0.0, 0.0]",,-1.570632,9.33544395,-0.87366405,"[0.0, 0.0, 0.0, 0.0, 0.0, 0.0, 0.0, 0.0, 0.0]"
1569261703162496751,,61843,,1569261703,119359016,"""knife_link""",,0.367348055849,0.592118586192,0.481064579929,0.532003623754,"[0.0, 0.0, 0.0, 0.0, 0.0, 0.0, 0.0, 0.0, 0.0]",,-0.26008791551,-0.00155866704375,-0.229701452247,"[0.0, 0.0, 0.0, 0.0, 0.0, 0.0, 0.0, 0.0, 0.0]",,-1.8651255,9.7379184,-0.20614545,"[0.0, 0.0, 0.0, 0.0, 0.0, 0.0, 0.0, 0.0, 0.0]"
1569261703205315447,,61844,,1569261703,161624908,"""knife_link""",,0.365811953387,0.588886783133,0.48494111324,0.533128584959,"[0.0, 0.0, 0.0, 0.0, 0.0, 0.0, 0.0, 0.0, 0.0]",,-0.270559891022,0.0263666009883,0.0600232035847,"[0.0, 0.0, 0.0, 0.0, 0.0, 0.0, 0.0, 0.0, 0.0]",,-1.65898005,9.9342474,-0.40247445,"[0.0, 0.0, 0.0, 0.0, 0.0, 0.0, 0.0, 0.0, 0.0]"
1569261703270180899,,61845,,1569261703,203723907,"""knife_link""",,0.367086294342,0.589307505779,0.483987714771,0.53265392901,"[0.0, 0.0, 0.0, 0.0, 0.0, 0.0, 0.0, 0.0, 0.0]",,0.0645433253618,0.0193852839803,-0.0115352957473,"[0.0, 0.0, 0.0, 0.0, 0.0, 0.0, 0.0, 0.0, 0.0]",,-1.58044845,9.90479805,0.3337593,"[0.0, 0.0, 0.0, 0.0, 0.0, 0.0, 0.0, 0.0, 0.0]"
1569261703313448497,,61846,,1569261703,268295049,"""knife_link""",,0.369088813089,0.586358994386,0.485069425515,0.533539342679,"[0.0, 0.0, 0.0, 0.0, 0.0, 0.0, 0.0, 0.0, 0.0]",,-0.0541390637742,-0.0574092031077,0.0582778743327,"[0.0, 0.0, 0.0, 0.0, 0.0, 0.0, 0.0, 0.0, 0.0]",,-1.60008135,9.92443095,0.0196329,"[0.0, 0.0, 0.0, 0.0, 0.0, 0.0, 0.0, 0.0, 0.0]"
1569261703354284667,,61847,,1569261703,311567068,"""knife_link""",,0.37047545349,0.585181369393,0.485245021942,0.5337115063,"[0.0, 0.0, 0.0, 0.0, 0.0, 0.0, 0.0, 0.0, 0.0]",,-0.0297044542462,-0.0277386058237,0.0303526063007,"[0.0, 0.0, 0.0, 0.0, 0.0, 0.0, 0.0, 0.0, 0.0]",,-1.30558785,9.09984915,-0.40247445,"[0.0, 0.0, 0.0, 0.0, 0.0, 0.0, 0.0, 0.0, 0.0]"
1569261703417534058,,61848,,1569261703,352864980,"""knife_link""",,0.369271173022,0.584287109628,0.488418638035,0.53262989807,"[0.0, 0.0, 0.0, 0.0, 0.0, 0.0, 0.0, 0.0, 0.0]",,-0.13791486787,0.134577014612,0.0495512280727,"[0.0, 0.0, 0.0, 0.0, 0.0, 0.0, 0.0, 0.0, 0.0]",,-0.9423792,9.9538803,0.2944935,"[0.0, 0.0, 0.0, 0.0, 0.0, 0.0, 0.0, 0.0, 0.0]"
1569261703460072618,,61849,,1569261703,416100025,"""knife_link""",,0.365510924565,0.584862442258,0.491687427031,0.531583635714,"[0.0, 0.0, 0.0, 0.0, 0.0, 0.0, 0.0, 0.0, 0.0]",,-0.118716246098,0.152030307132,-0.0220072712593,"[0.0, 0.0, 0.0, 0.0, 0.0, 0.0, 0.0, 0.0, 0.0]",,-1.44301815,9.53177295,-0.0392658,"[0.0, 0.0, 0.0, 0.0, 0.0, 0.0, 0.0, 0.0, 0.0]"
1569261703503517447,,61850,,1569261703,458847045,"""knife_link""",,0.366575033292,0.583702191915,0.491720298777,0.532095521398,"[0.0, 0.0, 0.0, 0.0, 0.0, 0.0, 0.0, 0.0, 0.0]",,-0.0384311005062,-0.0294839350757,0.0181353015367,"[0.0, 0.0, 0.0, 0.0, 0.0, 0.0, 0.0, 0.0, 0.0]",,-1.6295307,9.43360845,-0.24541125,"[0.0, 0.0, 0.0, 0.0, 0.0, 0.0, 0.0, 0.0, 0.0]"
1569261703567827854,,61851,,1569261703,501202106,"""knife_link""",,0.368911340638,0.583655859958,0.490621987118,0.531545224456,"[0.0, 0.0, 0.0, 0.0, 0.0, 0.0, 0.0, 0.0, 0.0]",,0.0732699716218,-0.0207572888157,0.0216259600407,"[0.0, 0.0, 0.0, 0.0, 0.0, 0.0, 0.0, 0.0, 0.0]",,-1.3350372,10.012779,-0.0981645,"[0.0, 0.0, 0.0, 0.0, 0.0, 0.0, 0.0, 0.0, 0.0]"
1569261703609150184,,61852,,1569261703,564825057,"""knife_link""",,0.365765276366,0.580276739613,0.494440607457,0.53387559765,"[0.0, 0.0, 0.0, 0.0, 0.0, 0.0, 0.0, 0.0, 0.0]",,-0.223436001218,0.0193852839803,-0.0045539787393,"[0.0, 0.0, 0.0, 0.0, 0.0, 0.0, 0.0, 0.0, 0.0]",,-1.56081555,9.45324135,-0.2944935,"[0.0, 0.0, 0.0, 0.0, 0.0, 0.0, 0.0, 0.0, 0.0]"
1569261703651302606,,61853,,1569261703,607846975,"""knife_link""",,0.368320474222,0.580468799154,0.49372349619,0.532572164863,"[0.0, 0.0, 0.0, 0.0, 0.0, 0.0, 0.0, 0.0, 0.0]",,0.0837419471338,0.00716797921625,0.0547872158287,"[0.0, 0.0, 0.0, 0.0, 0.0, 0.0, 0.0, 0.0, 0.0]",,-1.44301815,9.59067165,-0.08834805,"[0.0, 0.0, 0.0, 0.0, 0.0, 0.0, 0.0, 0.0, 0.0]"
1569261703714715733,,61854,,1569261703,650144100,"""knife_link""",,0.370713156214,0.580072817742,0.493008231647,0.53200579457,"[0.0, 0.0, 0.0, 0.0, 0.0, 0.0, 0.0, 0.0, 0.0]",,0.0470900328418,-0.0277386058237,0.0443152403167,"[0.0, 0.0, 0.0, 0.0, 0.0, 0.0, 0.0, 0.0, 0.0]",,-1.4921004,10.06186125,-0.4711896,"[0.0, 0.0, 0.0, 0.0, 0.0, 0.0, 0.0, 0.0, 0.0]"
1569261703758219470,,61855,,1569261703,713766098,"""knife_link""",,0.35992050443,0.575561848728,0.497462679046,0.54010801858,"[0.0, 0.0, 0.0, 0.0, 0.0, 0.0, 0.0, 0.0, 0.0]",,-0.45207413323,0.0193852839803,-0.207012171971,"[0.0, 0.0, 0.0, 0.0, 0.0, 0.0, 0.0, 0.0, 0.0]",,-1.8847584,10.25819025,-0.4319238,"[0.0, 0.0, 0.0, 0.0, 0.0, 0.0, 0.0, 0.0, 0.0]"
1569261703799606095,,61856,,1569261703,756109952,"""knife_link""",,0.358954195827,0.579371074984,0.490897434656,0.542679234372,"[0.0, 0.0, 0.0, 0.0, 0.0, 0.0, 0.0, 0.0, 0.0]",,0.169263080482,-0.0259932765717,-0.318713244099,"[0.0, 0.0, 0.0, 0.0, 0.0, 0.0, 0.0, 0.0, 0.0]",,-2.81732115,10.23855735,-0.1177974,"[0.0, 0.0, 0.0, 0.0, 0.0, 0.0, 0.0, 0.0, 0.0]"
1569261703863775847,,61857,,1569261703,798754930,"""knife_link""",,0.352486005427,0.581643726001,0.484240511871,0.5504137704,"[0.0, 0.0, 0.0, 0.0, 0.0, 0.0, 0.0, 0.0, 0.0]",,-0.104753612082,-0.0853344711397,-0.564804668631,"[0.0, 0.0, 0.0, 0.0, 0.0, 0.0, 0.0, 0.0, 0.0]",,-2.91548565,10.209108,-0.6675186,"[0.0, 0.0, 0.0, 0.0, 0.0, 0.0, 0.0, 0.0, 0.0]"
1569261703906439789,,61858,,1569261703,862754106,"""knife_link""",,0.346890926378,0.588801663799,0.46830343987,0.560063544707,"[0.0, 0.0, 0.0, 0.0, 0.0, 0.0, 0.0, 0.0, 0.0]",,0.183225714498,-0.118495726928,-0.615419216939,"[0.0, 0.0, 0.0, 0.0, 0.0, 0.0, 0.0, 0.0, 0.0]",,-2.1399861,8.834805,0.3730251,"[0.0, 0.0, 0.0, 0.0, 0.0, 0.0, 0.0, 0.0, 0.0]"
1569261703974702069,,61859,,1569261703,905150890,"""knife_link""",,0.348845965661,0.591219089256,0.460969594955,0.562381999418,"[0.0, 0.0, 0.0, 0.0, 0.0, 0.0, 0.0, 0.0, 0.0]",,0.258274872334,-0.12896770244,-0.227956122995,"[0.0, 0.0, 0.0, 0.0, 0.0, 0.0, 0.0, 0.0, 0.0]",,-1.05036015,7.5979323,0.0785316,"[0.0, 0.0, 0.0, 0.0, 0.0, 0.0, 0.0, 0.0, 0.0]"
1569261704013457959,,61860,,1569261703,968539953,"""knife_link""",,0.358318981524,0.586983733635,0.468781599618,0.554347739048,"[0.0, 0.0, 0.0, 0.0, 0.0, 0.0, 0.0, 0.0, 0.0]",,0.0401087158338,0.0473105520123,0.478902224065,"[0.0, 0.0, 0.0, 0.0, 0.0, 0.0, 0.0, 0.0, 0.0]",,-1.1387082,7.8138942,-0.1177974,"[0.0, 0.0, 0.0, 0.0, 0.0, 0.0, 0.0, 0.0, 0.0]"
1569261704054468955,,61861,,1569261704,11873006,"""knife_link""",,0.36447971802,0.586580164512,0.470256963646,0.549487610319,"[0.0, 0.0, 0.0, 0.0, 0.0, 0.0, 0.0, 0.0, 0.0]",,0.177989726742,0.0473105520123,0.318331932881,"[0.0, 0.0, 0.0, 0.0, 0.0, 0.0, 0.0, 0.0, 0.0]",,1.58044845,4.70207955,-0.196329,"[0.0, 0.0, 0.0, 0.0, 0.0, 0.0, 0.0, 0.0, 0.0]"
1569261704128457890,,61862,,1569261704,53719997,"""knife_link""",,0.386708069275,0.576585074178,0.48378002032,0.532882175843,"[0.0, 0.0, 0.0, 0.0, 0.0, 0.0, 0.0, 0.0, 0.0]",,0.260020201586,-0.0277386058237,1.52784510452,"[0.0, 0.0, 0.0, 0.0, 0.0, 0.0, 0.0, 0.0, 0.0]",,0.3533922,16.79594595,-1.1976069,"[0.0, 0.0, 0.0, 0.0, 0.0, 0.0, 0.0, 0.0, 0.0]"
1569261704162069496,,61863,,1569261704,117880105,"""knife_link""",,0.37181072391,0.559415190028,0.504170800098,0.542792073524,"[0.0, 0.0, 0.0, 0.0, 0.0, 0.0, 0.0, 0.0, 0.0]",,-1.00185284761,0.0298572594923,0.128091044413,"[0.0, 0.0, 0.0, 0.0, 0.0, 0.0, 0.0, 0.0, 0.0]",,-1.2368727,7.9120587,-0.24541125,"[0.0, 0.0, 0.0, 0.0, 0.0, 0.0, 0.0, 0.0, 0.0]"
1569261704203745097,,61864,,1569261704,160569906,"""knife_link""",,0.394357448358,0.562243307533,0.50311318569,0.52463490967,"[0.0, 0.0, 0.0, 0.0, 0.0, 0.0, 0.0, 0.0, 0.0]",,0.977350524158,0.0298572594923,0.946650463601,"[0.0, 0.0, 0.0, 0.0, 0.0, 0.0, 0.0, 0.0, 0.0]",,-5.46776265,12.368727,1.3350372,"[0.0, 0.0, 0.0, 0.0, 0.0, 0.0, 0.0, 0.0, 0.0]"
1569261704267786433,,61865,,1569261704,202887058,"""knife_link""",,0.399496825272,0.563907614178,0.502789825793,0.519242602594,"[0.0, 0.0, 0.0, 0.0, 0.0, 0.0, 0.0, 0.0, 0.0]",,0.244312238318,0.0839624663043,0.234556128785,"[0.0, 0.0, 0.0, 0.0, 0.0, 0.0, 0.0, 0.0, 0.0]",,-2.44429605,10.6999305,-1.0994424,"[0.0, 0.0, 0.0, 0.0, 0.0, 0.0, 0.0, 0.0, 0.0]"
1569261704310629649,,61866,,1569261704,266310930,"""knife_link""",,0.403152058605,0.565951110991,0.496504438093,0.520241386824,"[0.0, 0.0, 0.0, 0.0, 0.0, 0.0, 0.0, 0.0, 0.0]",,0.181480385246,-0.10278776366,-0.0900751120873,"[0.0, 0.0, 0.0, 0.0, 0.0, 0.0, 0.0, 0.0, 0.0]",,-0.8442147,8.56976085,-0.14724675,"[0.0, 0.0, 0.0, 0.0, 0.0, 0.0, 0.0, 0.0, 0.0]"
