rosbagTimestamp,header,seq,stamp,secs,nsecs,frame_id,orientation,x,y,z,w,orientation_covariance,angular_velocity,x_1,y_1,z_1,angular_velocity_covariance,linear_acceleration,x_2,y_2,z_2,linear_acceleration_covariance,Label
1.56926168441977e+18,NaN,26945,NaN,1569261684,362994909,NaN,NaN,-0.652658147927,-0.178694231151,-0.16392152754,-0.717799029329,NaN,NaN,-0.644730975399,0.212922209901,0.790050188905,NaN,NaN,0.40247445,9.0900327,1.8062268,NaN,5
1.56926168445715e+18,NaN,26946,NaN,1569261684,419116020,NaN,NaN,-0.639130153189,-0.164749016212,-0.181980863372,-0.728871301608,NaN,NaN,-0.756432047527,-0.0104799343548,0.610281275949,NaN,NaN,0.87366405,9.7575513,3.70080165,NaN,5
1.56926168451324e+18,NaN,26947,NaN,1569261684,456505060,NaN,NaN,-0.611336908561,-0.144538329562,-0.205655945746,-0.750387558198,NaN,NaN,-2.19283802192,-0.0226972391188,1.12864406379,NaN,NaN,1.2761385,9.88516515,5.33033235,NaN,5
1.56926168456973e+18,NaN,26948,NaN,1569261684,512835025,NaN,NaN,-0.561121702031,-0.0889162064906,-0.235850431206,-0.78842305765,NaN,NaN,-2.7426167363,-0.743518220195,1.45676596317,NaN,NaN,1.4528346,9.8753487,6.25307865,NaN,4
1.56926168460764e+18,NaN,26949,NaN,1569261684,569051980,NaN,NaN,-0.467827792677,-0.0185372878582,-0.250696914005,-0.847316105515,NaN,NaN,-4.4408220985,-1.19206783796,0.994253711389,NaN,NaN,1.67861295,6.41014185,7.5586665,NaN,5
1.56926168466373e+18,NaN,26950,NaN,1569261684,606996059,NaN,NaN,-0.389196985678,0.0309393635224,-0.250118400992,-0.886007476046,NaN,NaN,-5.15815242107,-1.33867549513,0.535232118113,NaN,NaN,1.3939359,5.17326915,6.56720505,NaN,5
1.56926168471976e+18,NaN,26951,NaN,1569261684,663094997,NaN,NaN,-0.29568731083,0.0720255571661,-0.242650339386,-0.92114176223,NaN,NaN,-3.85439146983,-0.591674575271,0.0849371710969,NaN,NaN,1.3939359,4.58428215,7.5782994,NaN,6
1.56926168475733e+18,NaN,26952,NaN,1569261684,719065904,NaN,NaN,-0.23162570187,0.116371971884,-0.244748406573,-0.934294020035,NaN,NaN,-2.56110249409,-0.767952829723,0.728963665085,NaN,NaN,3.6320865,2.5326441,8.6973747,NaN,6
1.56926168481382e+18,NaN,26953,NaN,1569261684,756658077,NaN,NaN,-0.228174164083,0.095818884669,-0.260204200359,-0.93330009445,NaN,NaN,0.212225687333,1.29502634614,0.906987248789,NaN,NaN,-0.83439825,6.27271155,6.11564835,NaN,5
1.56926168486961e+18,NaN,26954,NaN,1569261684,813038110,NaN,NaN,-0.259023919407,0.0832017425266,-0.267735955626,-0.924284337896,NaN,NaN,1.29432982357,0.176270295609,0.250743450037,NaN,NaN,0.61843635,3.4946562,9.1489314,NaN,6
1.56926168490765e+18,NaN,26955,NaN,1569261684,868948936,NaN,NaN,-0.24746952837,0.0619686147069,-0.268851953317,-0.928782725139,NaN,NaN,-0.185709382123,0.886619301173,-0.0686518030791,NaN,NaN,1.9829229,3.03328305,11.39689845,NaN,6
1.56926168496388e+18,NaN,26956,NaN,1569261684,906852960,NaN,NaN,-0.236729738925,0.0603294825727,-0.293945143328,-0.924075558034,NaN,NaN,-0.309627759015,0.628310571877,1.48643656045,NaN,NaN,5.33033235,4.7315289,9.423792,NaN,4
1.56926168501973e+18,NaN,26957,NaN,1569261684,963115930,NaN,NaN,-0.21165206022,0.062489467809,-0.371254506638,-0.901924920999,NaN,NaN,-0.459726074687,0.848222057629,2.97694774166,NaN,NaN,3.56337135,8.0691219,9.08021625,NaN,4
1.5692616850576e+18,NaN,26958,NaN,1569261685,19140958,NaN,NaN,-0.215694799347,0.0444940885629,-0.406794877328,-0.88657428194,NaN,NaN,0.606670098285,0.794116850817,1.33982890328,NaN,NaN,1.48228395,3.0627324,8.49122925,NaN,4
1.56926168511351e+18,NaN,26959,NaN,1569261685,56873083,NaN,NaN,-0.231783676344,0.0480327594269,-0.415759949271,-0.878130312644,NaN,NaN,0.926065351401,-0.385725723535,0.765615579377,NaN,NaN,1.8454926,0.785316,9.02131755,NaN,6
1.56926168516992e+18,NaN,26960,NaN,1569261685,113084077,NaN,NaN,-0.240739357302,0.0475622863252,-0.425504637216,-0.871050052795,NaN,NaN,0.449590465605,-0.0261878976228,0.481126911301,NaN,NaN,2.05163805,0.8049489,10.29745605,NaN,6
1.56926168520742e+18,NaN,26961,NaN,1569261685,169226884,NaN,NaN,-0.252168885295,0.0439116323263,-0.420714266769,-0.870334491774,NaN,NaN,0.489733038401,-0.0785477751828,-0.101813058867,NaN,NaN,1.9436571,1.2368727,9.227463,NaN,6
1.56926168526387e+18,NaN,26962,NaN,1569261685,206679105,NaN,NaN,-0.262998441893,0.046846621299,-0.412927431832,-0.870705547057,NaN,NaN,0.515912977181,-0.471246856883,-0.243184728279,NaN,NaN,1.67861295,2.14980255,10.23855735,NaN,6
1.56926168531999e+18,NaN,26963,NaN,1569261685,263079881,NaN,NaN,-0.266803907374,0.0502638424551,-0.403582731486,-0.87373348339,NaN,NaN,0.0725993471732,-0.246099383375,-0.248420716035,NaN,NaN,1.48228395,2.8467705,9.66920325,NaN,6
1.56926168535715e+18,NaN,26964,NaN,1569261685,319169044,NaN,NaN,-0.266705408955,0.0588991740681,-0.398991189064,-0.875331447612,NaN,NaN,-0.115896212043,-0.303695248691,-0.0162919255191,NaN,NaN,1.570632,3.2394285,8.1083877,NaN,6
1.56926168541386e+18,NaN,26965,NaN,1569261685,356597900,NaN,NaN,-0.268553931363,0.0643345066535,-0.396730999638,-0.875410972703,NaN,NaN,0.0167488111092,-0.324639199715,0.0831918418449,NaN,NaN,1.22705625,3.3768588,8.09857125,NaN,6
1.56926168546999e+18,NaN,26966,NaN,1569261685,413244009,NaN,NaN,-0.266248419234,0.0618625434308,-0.39546398878,-0.87686546206,NaN,NaN,-0.0199031031828,0.0994758085212,-0.0145465962671,NaN,NaN,1.5509991,3.4750233,8.6777418,NaN,6
1.5692616855075e+18,NaN,26967,NaN,1569261685,469393968,NaN,NaN,-0.252804255797,0.0570153513968,-0.40075497803,-0.878768857857,NaN,NaN,-0.321845063779,0.411889744629,0.191402255469,NaN,NaN,2.1203532,3.26887785,8.68755825,NaN,6
1.56926168556448e+18,NaN,26968,NaN,1569261685,506762981,NaN,NaN,-0.241243204684,0.0508967892495,-0.403649683756,-0.881066493428,NaN,NaN,-0.377695599843,0.640527876641,0.186166267713,NaN,NaN,2.5915428,3.5731878,8.92315305,NaN,6
1.56926168562007e+18,NaN,26969,NaN,1569261685,563719034,NaN,NaN,-0.229463020219,0.0437030032129,-0.39973895488,-0.886366480534,NaN,NaN,-0.267739856967,0.422361720141,-0.140210302411,NaN,NaN,3.2786943,2.7682389,8.74645695,NaN,6
1.56926168565756e+18,NaN,26970,NaN,1569261685,619246006,NaN,NaN,-0.224025432509,0.0427949724866,-0.393068277017,-0.89077411588,NaN,NaN,-0.161274772595,0.118674430293,-0.175116887451,NaN,NaN,3.5928207,2.93511855,9.49250715,NaN,6
1.56926168571365e+18,NaN,26971,NaN,1569261685,656820058,NaN,NaN,-0.221364190744,0.0417803933637,-0.386519080448,-0.894346294361,NaN,NaN,-0.107169565783,0.109947784033,-0.229222094263,NaN,NaN,3.24924495,3.48483975,9.9931461,NaN,6
1.5692616857701e+18,NaN,26972,NaN,1569261685,713059902,NaN,NaN,-0.220606169301,0.0477847535799,-0.374216376147,-0.899450743073,NaN,NaN,-0.138585492319,-0.223410103099,-0.306016581351,NaN,NaN,2.79768825,3.9462129,9.29617815,NaN,6
1.56926168580774e+18,NaN,26973,NaN,1569261685,769376993,NaN,NaN,-0.231828518254,0.0591501319788,-0.361307842742,-0.901228851504,NaN,NaN,0.205244370325,-0.584693258263,-0.264128679303,NaN,NaN,1.96329,3.62227005,9.3256275,NaN,6
1.56926168586388e+18,NaN,26974,NaN,1569261685,806931972,NaN,NaN,-0.237608302102,0.0659498161024,-0.354119149232,-0.902104508733,NaN,NaN,0.159865809773,-0.504408112671,-0.162899582687,NaN,NaN,1.56081555,3.533922,8.90352015,NaN,6
1.56926168591956e+18,NaN,26975,NaN,1569261685,863204002,NaN,NaN,-0.244074483976,0.0717646033772,-0.34866273846,-0.902059744575,NaN,NaN,0.151139163513,-0.314167224203,-0.0616704860711,NaN,NaN,1.22705625,3.60263715,8.98205175,NaN,6
1.56926168595743e+18,NaN,26976,NaN,1569261685,919085025,NaN,NaN,-0.248324297512,0.0761886987283,-0.34605377467,-0.901541519004,NaN,NaN,0.102269944457,-0.223410103099,0.0308319642849,NaN,NaN,1.03072725,3.81859905,8.29490025,NaN,6
1.56926168601377e+18,NaN,26977,NaN,1569261685,956743955,NaN,NaN,-0.251449235604,0.0745732238222,-0.342424404172,-0.902196011757,NaN,NaN,0.196517724065,-0.0401505316388,-0.129738326899,NaN,NaN,1.0994424,3.36704235,8.45196345,NaN,6
1.56926168606976e+18,NaN,26978,NaN,1569261686,13192892,NaN,NaN,-0.25140705112,0.0728590538621,-0.342305981372,-0.902392746001,NaN,NaN,0.0446740791412,0.0610785649772,0.0273413057809,NaN,NaN,1.61971425,2.83695405,7.90224225,NaN,6
1.5692616861075e+18,NaN,26979,NaN,1569261686,69256067,NaN,NaN,-0.252338155947,0.0680091087409,-0.346030919037,-0.901089795332,NaN,NaN,0.137176529497,0.176270295609,0.130315731649,NaN,NaN,1.9240242,3.15108045,8.3439825,NaN,6
1.56926168616379e+18,NaN,26980,NaN,1569261686,106775045,NaN,NaN,-0.250755705801,0.0626222044569,-0.345998181877,-0.901934195856,NaN,NaN,0.0708540179212,0.305424660257,-0.0145465962671,NaN,NaN,2.28723285,2.944935,9.423792,NaN,6
1.56926168622005e+18,NaN,26981,NaN,1569261686,163260936,NaN,NaN,-0.24538500531,0.0600450028827,-0.346822644683,-0.903268979835,NaN,NaN,-0.119386870547,0.176270295609,0.0517759153089,NaN,NaN,2.5326441,3.46520685,9.41397555,NaN,6
1.56926168625766e+18,NaN,26982,NaN,1569261686,219364881,NaN,NaN,-0.242455578301,0.0600348639046,-0.343869977365,-0.905187575221,NaN,NaN,-0.0914616025148,0.0331532969452,-0.0529438398111,NaN,NaN,2.34613155,3.68116875,9.1489314,NaN,6
1.56926168631356e+18,NaN,26983,NaN,1569261686,256966114,NaN,NaN,-0.244610403152,0.059768298602,-0.338923300541,-0.906490208167,NaN,NaN,0.102269944457,-0.0576038241588,-0.169880899695,NaN,NaN,2.1792519,4.28978865,8.9722353,NaN,6
1.56926168637022e+18,NaN,26984,NaN,1569261686,312829017,NaN,NaN,-0.2542498265,0.0640351378482,-0.333353988759,-0.905611199701,NaN,NaN,0.271566881901,-0.286241956171,-0.0791237785911,NaN,NaN,1.9829229,4.319238,8.0887548,NaN,6
1.56926168640765e+18,NaN,26985,NaN,1569261686,369458913,NaN,NaN,-0.274048640984,0.0613098269583,-0.329762382146,-0.901329694848,NaN,NaN,0.716625841161,-0.169304896287,-0.0721424615831,NaN,NaN,2.0810874,4.11309255,7.82371065,NaN,6
1.56926168646334e+18,NaN,26986,NaN,1569261686,406804084,NaN,NaN,-0.293798247142,0.0547412765749,-0.324751849722,-0.897341751351,NaN,NaN,1.13725019089,-0.0994917262068,-0.276345984067,NaN,NaN,2.28723285,4.3585038,7.78444485,NaN,6
1.5692616865201e+18,NaN,26987,NaN,1569261686,462873935,NaN,NaN,-0.327070091751,0.0356191958038,-0.315641621535,-0.89001505309,NaN,NaN,1.37461496917,0.118674430293,-0.475313518795,NaN,NaN,2.67989085,4.03456095,8.09857125,NaN,6
1.56926168655784e+18,NaN,26988,NaN,1569261686,519294977,NaN,NaN,-0.372046361106,0.0107544596377,-0.306007653536,-0.876256333936,NaN,NaN,1.87552446449,0.144854369073,-0.524182737851,NaN,NaN,2.9056692,4.54501635,7.78444485,NaN,6
1.56926168661378e+18,NaN,26989,NaN,1569261686,557162046,NaN,NaN,-0.406978023347,-0.00482617092098,-0.294142488941,-0.864769213598,NaN,NaN,2.12336121827,-0.150106274515,-0.773764820887,NaN,NaN,3.0038337,5.2616172,9.1881972,NaN,5
1.56926168666984e+18,NaN,26990,NaN,1569261686,613188982,NaN,NaN,-0.435790621193,-0.022211835015,-0.276551907189,-0.856219721506,NaN,NaN,1.19659138546,-0.0802931044348,-0.756311528367,NaN,NaN,2.62099215,5.99785095,9.4826907,NaN,5
1.56926168670755e+18,NaN,26991,NaN,1569261686,669236898,NaN,NaN,-0.467345623982,-0.0422348746888,-0.254279588409,-0.845663156359,NaN,NaN,1.36065233515,-0.116945018727,-0.913391161047,NaN,NaN,1.32522075,7.460502,7.48995135,NaN,5
1.5692616867636e+18,NaN,26992,NaN,1569261686,706983089,NaN,NaN,-0.488032772344,-0.0485046845779,-0.233394365689,-0.83964181575,NaN,NaN,1.228007312,-0.645779782083,-1.03730953794,NaN,NaN,0.8049489,7.2052743,6.35124315,NaN,5
1.56926168682022e+18,NaN,26993,NaN,1569261686,762934923,NaN,NaN,-0.508533651147,-0.0598161010554,-0.207541388946,-0.833511926477,NaN,NaN,0.899885412621,-0.380489735779,-0.939571099827,NaN,NaN,0.5693541,6.2432622,6.37087605,NaN,5
1.56926168685768e+18,NaN,26994,NaN,1569261686,819453954,NaN,NaN,-0.517825606653,-0.0694094367362,-0.187868147738,-0.83171180721,NaN,NaN,0.416429209817,-0.235627407863,-0.772019491635,NaN,NaN,0.59880345,7.13655915,4.42721895,NaN,5
1.56926168691442e+18,NaN,26995,NaN,1569261686,857086896,NaN,NaN,-0.542176646925,-0.0747958524552,-0.170914596973,-0.819291318474,NaN,NaN,1.57183717464,-0.596910563027,-0.777255479391,NaN,NaN,1.0405437,8.1476535,5.58556005,NaN,5
1.56926168697005e+18,NaN,26996,NaN,1569261686,913593053,NaN,NaN,-0.550393470582,-0.0830603147554,-0.154132151748,-0.816340181205,NaN,NaN,0.398975917297,-0.233882078611,-0.670790395019,NaN,NaN,1.2957714,8.80535565,4.5548328,NaN,5
1.56926168700747e+18,NaN,26997,NaN,1569261686,969213962,NaN,NaN,-0.574537522074,-0.0848491790061,-0.141807894547,-0.801621964267,NaN,NaN,1.03602109428,-0.397943028299,-0.300780593595,NaN,NaN,0.91292985,9.25691235,2.7682389,NaN,2
1.56926168706387e+18,NaN,26998,NaN,1569261687,6869077,NaN,NaN,-0.578266007362,-0.0957032672404,-0.135667126715,-0.798776401816,NaN,NaN,0.327417417965,0.0715505404892,-0.621921175963,NaN,NaN,0.1766961,9.4041591,2.16943545,NaN,5
1.56926168711991e+18,NaN,26999,NaN,1569261687,63236951,NaN,NaN,-0.598461223988,-0.0983581201149,-0.127906296133,-0.784735511494,NaN,NaN,0.889413437109,-0.267043334399,-0.150682277923,NaN,NaN,-1.81604325,10.51341795,2.1792519,NaN,2
1.56926168715751e+18,NaN,27000,NaN,1569261687,119272947,NaN,NaN,-0.614845789447,-0.110304205444,-0.114234876163,-0.772494679936,NaN,NaN,0.816109608525,-0.136143640499,-0.529418725607,NaN,NaN,-3.17071335,10.5428673,1.52154975,NaN,5
1.56926168721346e+18,NaN,27001,NaN,1569261687,156810998,NaN,NaN,-0.618645902035,-0.118191013834,-0.107792699987,-0.769213147297,NaN,NaN,0.343125381233,-0.113454360223,-0.471822860291,NaN,NaN,-2.4933783,9.2667288,1.4135688,NaN,5
1.56926168727014e+18,NaN,27002,NaN,1569261687,212846994,NaN,NaN,-0.634004900936,-0.120092694881,-0.0974899037942,-0.75770129265,NaN,NaN,0.734079133681,-0.335111175227,-0.204787484735,NaN,NaN,-2.73878955,9.61030455,1.6295307,NaN,2
1.56926168730781e+18,NaN,27003,NaN,1569261687,269447088,NaN,NaN,-0.651071771614,-0.134919274626,-0.0906457841619,-0.741407903488,NaN,NaN,0.878941461597,0.113438442537,-0.395028373203,NaN,NaN,-1.570632,10.55268375,-0.7656831,NaN,5
1.56926168736363e+18,NaN,27004,NaN,1569261687,307051897,NaN,NaN,-0.650862346171,-0.142377753766,-0.0895965380311,-0.740323741307,NaN,NaN,0.121468566229,0.0558425772212,-0.299035264343,NaN,NaN,-1.8454926,10.35635475,2.38539735,NaN,2
1.56926168742009e+18,NaN,27005,NaN,1569261687,363087892,NaN,NaN,-0.655681611035,-0.152213533256,-0.0832979450313,-0.73482931188,NaN,NaN,0.357088015249,-0.00698927585078,-0.354885800407,NaN,NaN,-1.6884294,9.0900327,2.159619,NaN,2
1.56926168745759e+18,NaN,27006,NaN,1569261687,419549942,NaN,NaN,-0.654629366137,-0.161310781621,-0.0830620159414,-0.733852796024,NaN,NaN,0.0376927621332,0.109947784033,-0.239694069775,NaN,NaN,-0.785316,8.92315305,0.73623375,NaN,2
1.56926168751406e+18,NaN,27007,NaN,1569261687,456895112,NaN,NaN,-0.659532872558,-0.164086299413,-0.082629106381,-0.728878938603,NaN,NaN,0.440863819345,-0.0768024459308,-0.0564344983151,NaN,NaN,-1.58044845,9.31581105,1.87494195,NaN,2
1.56926168757012e+18,NaN,27008,NaN,1569261687,513401031,NaN,NaN,-0.660932238209,-0.171369850669,-0.0841619088191,-0.725753211417,NaN,NaN,0.144157846505,0.108202454781,-0.110539705127,NaN,NaN,-2.05163805,9.7968171,0.9620121,NaN,2
1.56926168760777e+18,NaN,27009,NaN,1569261687,569494962,NaN,NaN,-0.659737546219,-0.173369999386,-0.0849655495754,-0.726271346541,NaN,NaN,-0.0181577739308,-0.0558584949068,-0.0319998887871,NaN,NaN,-1.9436571,9.227463,0.97182855,NaN,2
1.56926168766374e+18,NaN,27010,NaN,1569261687,606959104,NaN,NaN,-0.661870032072,-0.174937584734,-0.0866806456376,-0.723748138349,NaN,NaN,0.194772394813,-0.0558584949068,0.0273413057809,NaN,NaN,-1.18779045,9.0507669,0.7460502,NaN,2
1.56926168772008e+18,NaN,27011,NaN,1569261687,663012981,NaN,NaN,-0.660580178822,-0.187023313762,-0.0757549724561,-0.72313020377,NaN,NaN,0.107505932213,-0.0698211289228,-0.581778603167,NaN,NaN,-1.20742335,4.6333644,2.66025795,NaN,6
1.56926168775786e+18,NaN,27012,NaN,1569261687,719471931,NaN,NaN,-0.66831132712,-0.190915653035,-0.0763660578649,-0.714898180635,NaN,NaN,0.421665197573,0.0139546751732,-0.0075652792591,NaN,NaN,-2.5130112,11.3281833,1.34485365,NaN,5
1.56926168781393e+18,NaN,27013,NaN,1569261687,757066965,NaN,NaN,-0.667932964003,-0.196978906681,-0.0758603650284,-0.713659632415,NaN,NaN,0.128449883237,0.0366439554492,-0.232712752767,NaN,NaN,-2.01237225,9.5219565,1.56081555,NaN,2
1.56926168787003e+18,NaN,27014,NaN,1569261687,813267946,NaN,NaN,-0.663467186517,-0.205827893201,-0.0705694256163,-0.715867394818,NaN,NaN,-0.0827349562548,-0.0349145438828,-0.370593763675,NaN,NaN,-3.01365015,10.10112705,0.18651255,NaN,5
1.56926168790738e+18,NaN,27015,NaN,1569261687,869451045,NaN,NaN,-0.654884801402,-0.220902202827,-0.0629395984758,-0.71997688895,NaN,NaN,-0.196181357635,0.0663145527332,-0.609703871199,NaN,NaN,-3.9854787,10.2287409,0.2552277,NaN,5
1.56926168796368e+18,NaN,27016,NaN,1569261687,906747102,NaN,NaN,-0.64955228702,-0.234950304314,-0.05182329207,-0.721245122915,NaN,NaN,-0.0321204079468,-0.0261878976228,-0.977968343371,NaN,NaN,-3.8284155,10.1894751,0.1374303,NaN,5
1.56926168801997e+18,NaN,27017,NaN,1569261687,962990045,NaN,NaN,-0.642329378196,-0.249698231259,-0.0342475323198,-0.723803060053,NaN,NaN,-0.0268844201908,-0.150106274515,-0.859285954235,NaN,NaN,-3.01365015,8.47159635,0.8442147,NaN,5
1.5692616880763e+18,NaN,27018,NaN,1569261688,19308090,NaN,NaN,-0.641233860685,-0.260589724139,-0.0204393162514,-0.721452954762,NaN,NaN,0.210480358081,-0.120435677231,-0.655082431751,NaN,NaN,-1.26632205,9.1881972,0.91292985,NaN,5
1.56926168811368e+18,NaN,27019,NaN,1569261688,75701951,NaN,NaN,-0.640241262493,-0.266736718154,-0.0134682130224,-0.72025082869,NaN,NaN,0.114487249221,-0.0994917262068,-0.363612446667,NaN,NaN,-0.77549955,8.43233055,0.392658,NaN,5
1.5692616881703e+18,NaN,27020,NaN,1569261688,113184928,NaN,NaN,-0.638467538026,-0.269822441564,-0.0112236284463,-0.720714286718,NaN,NaN,0.0150034818572,-0.125671664987,-0.223986106507,NaN,NaN,-0.6086199,7.2052743,0.52027185,NaN,5
1.56926168820761e+18,NaN,27021,NaN,1569261688,169589042,NaN,NaN,-0.635514345612,-0.268632932022,-0.0148505390708,-0.723696984825,NaN,NaN,-0.133349504563,-0.0872744214428,0.0849371710969,NaN,NaN,-1.42338525,6.64573665,2.1203532,NaN,5
1.56926168826378e+18,NaN,27022,NaN,1569261688,206729888,NaN,NaN,-0.637709757358,-0.272679541858,-0.0196266736428,-0.720129798373,NaN,NaN,0.208735028829,0.202450234389,0.0744651955849,NaN,NaN,-3.34740945,5.0456553,0.99146145,NaN,6
1.56926168832054e+18,NaN,27023,NaN,1569261688,262923002,NaN,NaN,-0.659905894095,-0.232281440161,-0.0851369449796,-0.709451368379,NaN,NaN,0.177319102293,0.445051000417,2.82510409674,NaN,NaN,-3.05291595,14.79339015,-2.48356185,NaN,4
1.56926168835736e+18,NaN,27024,NaN,1569261688,319818019,NaN,NaN,-0.683234291321,-0.180091242366,-0.146636371183,-0.692283050661,NaN,NaN,0.336144064225,0.0977304792692,2.99614636343,NaN,NaN,-7.2249072,9.6986526,0.36320865,NaN,4
1.56926168841414e+18,NaN,27025,NaN,1569261688,356846094,NaN,NaN,-0.693870118788,-0.166683389958,-0.166697009707,-0.680421202432,NaN,NaN,0.538602257457,0.0785318574972,1.4445486584,NaN,NaN,-0.10798095,17.0413572,-1.7473281,NaN,4
1.56926168847013e+18,NaN,27026,NaN,1569261688,413481950,NaN,NaN,-0.688213804578,-0.169125438072,-0.169995308595,-0.68473348132,NaN,NaN,-0.262503869211,0.0209359921812,-0.0162919255191,NaN,NaN,-1.06999305,8.9722353,-0.8245818,NaN,2
1.56926168850803e+18,NaN,27027,NaN,1569261688,469558954,NaN,NaN,-0.606332422433,-0.138904024025,-0.182323807377,-0.761462208439,NaN,NaN,-4.24010923452,-0.541060026963,0.0797011833409,NaN,NaN,-0.4908225,8.9722353,-1.4332017,NaN,2
1.56926168856386e+18,NaN,27028,NaN,1569261688,507278919,NaN,NaN,-0.483736588569,-0.136490368658,-0.208827584475,-0.838904244896,NaN,NaN,-7.5824147521,1.2164865298,-0.489276152811,NaN,NaN,-2.7878718,3.70080165,7.74517905,NaN,6
1.56926168861953e+18,NaN,27029,NaN,1569261688,563122987,NaN,NaN,-0.517515969154,-0.127605048506,-0.256665840713,-0.806236205759,NaN,NaN,1.28211251881,0.436324354157,2.01003533605,NaN,NaN,-2.44429605,10.1305764,4.5744657,NaN,4
1.56926168865728e+18,NaN,27030,NaN,1569261688,618912935,NaN,NaN,-0.520473458233,-0.114917222287,-0.284036930995,-0.797009681954,NaN,NaN,0.00976749410119,0.104711796277,1.10071879576,NaN,NaN,-0.97182855,10.8569937,9.19801365,NaN,5
1.56926168871416e+18,NaN,27031,NaN,1569261688,656620025,NaN,NaN,-0.522301319313,-0.104785766251,-0.295637694097,-0.792981480783,NaN,NaN,0.00453150634519,-0.193739505815,0.812739469181,NaN,NaN,0.9031134,8.17710285,7.4997678,NaN,5
1.5692616887702e+18,NaN,27032,NaN,1569261688,713304996,NaN,NaN,-0.491516102266,-0.0466878353482,-0.315567947136,-0.810338841463,NaN,NaN,-1.83155486676,-1.08211209508,1.32412094002,NaN,NaN,0.87366405,7.2445401,7.8138942,NaN,5
1.56926168880739e+18,NaN,27033,NaN,1569261688,769450902,NaN,NaN,-0.435755053771,0.00892200266043,-0.323234295501,-0.839974714616,NaN,NaN,-2.76530601658,-0.979137669215,0.737690311345,NaN,NaN,1.24668915,4.95730725,6.9304137,NaN,6
1.56926168886369e+18,NaN,27034,NaN,1569261688,806679010,NaN,NaN,-0.378353717073,0.0407547249998,-0.319394757095,-0.867856270535,NaN,NaN,-3.82646620179,-0.562003977987,0.0727198663329,NaN,NaN,1.7473281,4.4174025,6.27271155,NaN,6
1.56926168891994e+18,NaN,27035,NaN,1569261688,863116025,NaN,NaN,-0.333506985056,0.0835408287864,-0.320424722739,-0.882678887196,NaN,NaN,-2.06717431578,-0.778424805235,0.498580203821,NaN,NaN,2.93511855,3.62227005,5.1438198,NaN,6
1.56926168895734e+18,NaN,27036,NaN,1569261688,919173002,NaN,NaN,-0.317466125985,0.0905911112483,-0.38284178037,-0.862809759227,NaN,NaN,-0.156038784839,0.628310571877,2.39749843,NaN,NaN,1.16815755,5.4579462,7.50958425,NaN,4
1.56926168901437e+18,NaN,27037,NaN,1569261688,956712961,NaN,NaN,-0.314665863644,0.0715727443023,-0.405759427448,-0.855115210698,NaN,NaN,0.479261062889,1.28106371213,1.05010424745,NaN,NaN,0.981645,7.460502,7.1660085,NaN,5
1.56926168907001e+18,NaN,27038,NaN,1569261689,13683080,NaN,NaN,-0.336578310272,0.0580454192349,-0.418442128346,-0.841577064555,NaN,NaN,1.12154222763,0.216412868405,0.418295058229,NaN,NaN,2.748606,2.0221887,9.06058335,NaN,6
1.56926168910744e+18,NaN,27039,NaN,1569261689,69149017,NaN,NaN,-0.309065760256,0.0770026471484,-0.545555932033,-0.775188798418,NaN,NaN,-0.000704481410812,1.31073430941,5.29474498832,NaN,NaN,4.2603393,5.21253495,11.2692846,NaN,4
1.56926168916392e+18,NaN,27040,NaN,1569261689,106642961,NaN,NaN,-0.296177990661,0.0145489082077,-0.613768405034,-0.731679760619,NaN,NaN,2.22284498564,3.97759740647,3.40978939616,NaN,NaN,0.79513245,8.1280206,3.40630815,NaN,4
1.56926168921986e+18,NaN,27041,NaN,1569261689,163157939,NaN,NaN,-0.353395178249,-0.0652314272196,-0.569144667951,-0.739547872579,NaN,NaN,3.16881344022,0.422361720141,-2.11068702792,NaN,NaN,-0.196329,5.104554,5.50702845,NaN,4
1.56926168925741e+18,NaN,27042,NaN,1569261689,219264030,NaN,NaN,-0.453590176908,-0.11414849342,-0.484588973217,-0.739188473868,NaN,NaN,3.89836106756,-1.76453583261,-2.5731992797,NaN,NaN,2.95475145,4.44685185,11.6815755,NaN,7
1.56926168931409e+18,NaN,27043,NaN,1569261689,256601095,NaN,NaN,-0.498505320484,-0.130126011048,-0.423100454491,-0.745349362452,NaN,NaN,2.44799245915,-2.00190061089,-2.67268304706,NaN,NaN,3.533922,8.51086215,9.19801365,NaN,7
1.56926168936993e+18,NaN,27044,NaN,1569261689,313441038,NaN,NaN,-0.554444672281,-0.136982132032,-0.348167269796,-0.7433751093,NaN,NaN,1.99944284138,-1.95303139183,-1.80350907957,NaN,NaN,2.24796705,8.66792535,6.25307865,NaN,5
1.5692616894075e+18,NaN,27045,NaN,1569261689,369205951,NaN,NaN,-0.60305962511,-0.147889816885,-0.280611825854,-0.731918502167,NaN,NaN,2.04133074343,-1.6231641632,-1.63770280063,NaN,NaN,0.8638476,8.8151721,4.5351999,NaN,5
1.56926168946477e+18,NaN,27046,NaN,1569261689,406761884,NaN,NaN,-0.628461900762,-0.149813997685,-0.252763426432,-0.720209730319,NaN,NaN,1.61023441819,-1.15541592367,-0.745839552855,NaN,NaN,-0.2944935,9.2078301,1.56081555,NaN,5
1.56926168951991e+18,NaN,27047,NaN,1569261689,464023113,NaN,NaN,-0.657283630141,-0.157387850562,-0.22192576276,-0.702820211625,NaN,NaN,1.37286963991,-0.703375647399,-0.604467883443,NaN,NaN,-1.4921004,9.15874785,3.0627324,NaN,5
1.56926168955706e+18,NaN,27048,NaN,1569261689,519032001,NaN,NaN,-0.675264519388,-0.155802041714,-0.2128584199,-0.688792309576,NaN,NaN,0.842289547305,-0.383980394283,0.0570119030649,NaN,NaN,-1.36448655,9.8557158,1.08962595,NaN,2
1.56926168961413e+18,NaN,27049,NaN,1569261689,556535005,NaN,NaN,-0.691733132352,-0.15688242182,-0.202956742524,-0.675056842047,NaN,NaN,1.24196994601,-0.506153441923,-0.0337452180391,NaN,NaN,-2.3363151,10.23855735,2.1399861,NaN,2
1.56926168967005e+18,NaN,27050,NaN,1569261689,613354921,NaN,NaN,-0.685726031518,-0.167607451141,-0.205019363867,-0.677978327427,NaN,NaN,-0.152548126335,0.263536758209,-0.243184728279,NaN,NaN,-0.7067844,9.4041591,0.0392658,NaN,2
1.56926168970767e+18,NaN,27051,NaN,1569261689,669399023,NaN,NaN,-0.701537670039,-0.171764329492,-0.198154021088,-0.662628777339,NaN,NaN,0.847525535061,-0.160578250027,-0.0285092302831,NaN,NaN,-1.18779045,9.68883615,0.73623375,NaN,2
1.56926168976408e+18,NaN,27052,NaN,1569261689,706845045,NaN,NaN,-0.696188482176,-0.176989137559,-0.194130225938,-0.668064291704,NaN,NaN,-0.227597284171,-0.0750571166788,-0.410736336471,NaN,NaN,-0.7460502,9.45324135,2.50319475,NaN,2
1.56926168983859e+18,NaN,27053,NaN,1569261689,763420104,NaN,NaN,-0.700461794286,-0.179193967062,-0.19468411009,-0.662827952181,NaN,NaN,0.248877601625,-7.95884277677e-06,0.0395586105449,NaN,NaN,-0.5300883,10.39562055,0.0981645,NaN,2
1.56926168985695e+18,NaN,27054,NaN,1569261689,838022947,NaN,NaN,-0.707119386357,-0.181303859066,-0.192271996416,-0.655852547087,NaN,NaN,0.289020174421,-0.0610944826628,0.0116333425129,NaN,NaN,-1.3350372,9.8753487,0.7460502,NaN,2
1.56926168991428e+18,NaN,27055,NaN,1569261689,856497049,NaN,NaN,-0.705439271851,-0.184179985096,-0.193073241524,-0.656624618963,NaN,NaN,-0.0862256147588,0.0820225160012,-0.122757009891,NaN,NaN,-1.06999305,9.7575513,0.36320865,NaN,2
1.56926168996996e+18,NaN,27056,NaN,1569261689,913465023,NaN,NaN,-0.709958142345,-0.186882277628,-0.188887962285,-0.652193060474,NaN,NaN,0.297746820681,-0.111709030971,-0.0669064738271,NaN,NaN,-1.50191685,9.3845262,1.44301815,NaN,2
1.5692616900075e+18,NaN,27057,NaN,1569261689,969296932,NaN,NaN,-0.70571790586,-0.192604256641,-0.19120142017,-0.654452331798,NaN,NaN,-0.114150882791,0.139618381317,-0.105303717371,NaN,NaN,-1.1976069,9.92443095,0.4319238,NaN,2
1.56926169006412e+18,NaN,27058,NaN,1569261690,6836891,NaN,NaN,-0.708341468802,-0.196170343829,-0.190409851074,-0.650779262416,NaN,NaN,0.316945442453,0.00871868741722,-0.0477078520551,NaN,NaN,-1.3546701,9.423792,0.81476535,NaN,2
1.56926169012009e+18,NaN,27059,NaN,1569261690,63591003,NaN,NaN,-0.709587632477,-0.200617305139,-0.186996179652,-0.649053555193,NaN,NaN,0.144157846505,-0.0453865193948,-0.143700960915,NaN,NaN,-1.0994424,10.3269054,0.24541125,NaN,2
1.56926169015746e+18,NaN,27060,NaN,1569261690,119318962,NaN,NaN,-0.704405900726,-0.204778001279,-0.180877137993,-0.655104387228,NaN,NaN,-0.176982735863,-0.134398311247,-0.297289935091,NaN,NaN,-1.38411945,9.61030455,0.63806925,NaN,2
1.56926169021357e+18,NaN,27061,NaN,1569261690,156810998,NaN,NaN,-0.702533730167,-0.20881175372,-0.180076076396,-0.656061442394,NaN,NaN,0.00104084784119,0.0244266506852,-0.166390241191,NaN,NaN,-1.44301815,9.31581105,1.16815755,NaN,2
1.56926169027048e+18,NaN,27062,NaN,1569261690,212933063,NaN,NaN,-0.697681351879,-0.214240927055,-0.177328185176,-0.660224409695,NaN,NaN,-0.152548126335,-0.00524394659878,-0.237948740523,NaN,NaN,-1.5117333,10.02259545,-0.20614545,NaN,2
1.56926169030758e+18,NaN,27063,NaN,1569261690,269566059,NaN,NaN,-0.697536255756,-0.217306391054,-0.171282210753,-0.660971639779,NaN,NaN,0.0987792859532,-0.153596933019,-0.189079521467,NaN,NaN,-1.83567615,8.6973747,2.07127095,NaN,2
1.56926169036363e+18,NaN,27064,NaN,1569261690,306766033,NaN,NaN,-0.695256768357,-0.219172292315,-0.173924124236,-0.662066410071,NaN,NaN,-0.110660224287,0.0732958697412,0.0273413057809,NaN,NaN,-1.58044845,9.1096656,0.10798095,NaN,2
1.56926169042005e+18,NaN,27065,NaN,1569261690,362900972,NaN,NaN,-0.695880381919,-0.218805776606,-0.172295554119,-0.661958282836,NaN,NaN,0.0673633594172,-0.122181006483,0.0011613670009,NaN,NaN,-1.6884294,10.27782315,1.4332017,NaN,2
1.569261690458e+18,NaN,27066,NaN,1569261690,419418096,NaN,NaN,-0.69455576966,-0.221661735227,-0.17003787275,-0.662982262055,NaN,NaN,0.00104084784119,-0.0593491534108,-0.117521022135,NaN,NaN,-1.56081555,9.92443095,0.4122909,NaN,2
1.56926169051409e+18,NaN,27067,NaN,1569261690,457263946,NaN,NaN,-0.691913128873,-0.225507238478,-0.165881755923,-0.665496769744,NaN,NaN,-0.0949522610188,-0.127416994239,-0.333941849383,NaN,NaN,-0.89329695,7.4801349,0.2159619,NaN,5
1.56926169057012e+18,NaN,27068,NaN,1569261690,513205051,NaN,NaN,-0.686430717774,-0.228928934162,-0.163398855332,-0.670600646344,NaN,NaN,-0.173492077359,-0.0576038241588,-0.197806167727,NaN,NaN,-1.93384065,10.51341795,1.9043913,NaN,2
1.5692616906077e+18,NaN,27069,NaN,1569261690,569459915,NaN,NaN,-0.684486099134,-0.236875016038,-0.16150844359,-0.670286527926,NaN,NaN,0.0499100668972,0.0855131745052,-0.206532813987,NaN,NaN,-3.3768588,9.6593868,0.6675186,NaN,2
1.56926169066415e+18,NaN,27070,NaN,1569261690,606890916,NaN,NaN,-0.682218158753,-0.234990862348,-0.164367629067,-0.672562979204,NaN,NaN,-0.175237406611,-0.0802931044348,0.154750341177,NaN,NaN,-1.8847584,9.74773485,0.7460502,NaN,2
1.56926169072017e+18,NaN,27071,NaN,1569261690,663151025,NaN,NaN,-0.681376115128,-0.23776318418,-0.164993860916,-0.672288839594,NaN,NaN,0.0289661158732,0.0209359921812,-0.0407265350471,NaN,NaN,-1.79641035,10.2483738,1.0209108,NaN,2
1.56926169075765e+18,NaN,27072,NaN,1569261690,719438076,NaN,NaN,-0.679598385445,-0.240576015181,-0.165207950329,-0.673034582,NaN,NaN,-0.0199031031828,0.00697335816522,-0.0599251568191,NaN,NaN,-1.97310645,9.3256275,0.63806925,NaN,2
1.56926169081355e+18,NaN,27073,NaN,1569261690,756973981,NaN,NaN,-0.679833897267,-0.243219113741,-0.165140771165,-0.671862233302,NaN,NaN,0.137176529497,0.00173737040922,-0.0564344983151,NaN,NaN,-1.9240242,9.9146145,1.5117333,NaN,2
1.56926169087e+18,NaN,27074,NaN,1569261690,812784910,NaN,NaN,-0.6787869935,-0.247709942007,-0.16455406329,-0.671423832122,NaN,NaN,0.0324567743772,0.0366439554492,-0.115775692883,NaN,NaN,-1.9436571,8.09857125,0.38284155,NaN,2
1.56926169090765e+18,NaN,27075,NaN,1569261690,869395017,NaN,NaN,-0.68102084159,-0.264805723953,-0.159190654113,-0.663887699483,NaN,NaN,0.388503941785,0.261791428957,-0.470077531039,NaN,NaN,0.785316,-1.99273935,1.16815755,NaN,6
1.56926169096418e+18,NaN,27076,NaN,1569261690,906887054,NaN,NaN,-0.678352346784,-0.276339960915,-0.147548057676,-0.664608072694,NaN,NaN,0.329162747217,-0.104727713963,-1.2170784509,NaN,NaN,8.23600155,1.30558785,4.03456095,NaN,4
1.56926169102006e+18,NaN,27077,NaN,1569261690,963155984,NaN,NaN,-0.674236381475,-0.277664631229,-0.150109549547,-0.667663671016,NaN,NaN,-0.173492077359,-0.00698927585078,-0.0215279132751,NaN,NaN,-2.159619,4.99657305,-1.374303,NaN,6
1.56926169105763e+18,NaN,27078,NaN,1569261691,19377946,NaN,NaN,-0.686658348492,-0.258003222283,-0.175208518767,-0.656686092962,NaN,NaN,0.217461675089,0.0890038330092,1.25605309919,NaN,NaN,-0.5300883,15.16641525,-0.6478857,NaN,4
1.56926169111363e+18,NaN,27079,NaN,1569261691,56828022,NaN,NaN,-0.683815353031,-0.255032702666,-0.179758347794,-0.659577000757,NaN,NaN,-0.286938478739,-0.0994917262068,0.210600877241,NaN,NaN,-0.75586665,11.3281833,-1.34485365,NaN,5
1.56926169117017e+18,NaN,27080,NaN,1569261691,112998962,NaN,NaN,-0.63358917455,-0.23680313688,-0.196076686264,-0.709959833625,NaN,NaN,-2.67629422473,-0.268788663651,0.0552665738129,NaN,NaN,-1.1976069,8.5795773,0.3533922,NaN,2
1.5692616912075e+18,NaN,27081,NaN,1569261691,169457912,NaN,NaN,-0.58050616954,-0.231370980922,-0.20533224422,-0.753205633141,NaN,NaN,-2.41798549543,-0.0104799343548,-0.405500348715,NaN,NaN,-4.46648475,11.3674491,9.1489314,NaN,5
1.56926169126375e+18,NaN,27082,NaN,1569261691,206855058,NaN,NaN,-0.58755318542,-0.225654034334,-0.252007013756,-0.735087733614,NaN,NaN,0.212225687333,1.28804502913,2.32943058917,NaN,NaN,-0.1766961,15.10751655,1.1387082,NaN,4
1.56926169131991e+18,NaN,27083,NaN,1569261691,263021945,NaN,NaN,-0.621998438378,-0.232870232862,-0.21647455783,-0.715561432103,NaN,NaN,1.74462477059,-0.783660792991,-0.660318419507,NaN,NaN,0.5104554,9.1881972,5.6346423,NaN,5
1.56926169137673e+18,NaN,27084,NaN,1569261691,319294929,NaN,NaN,-0.623504094419,-0.234099643652,-0.230534487958,-0.709432062249,NaN,NaN,0.0708540179212,0.308915318761,0.381643143937,NaN,NaN,1.4135688,7.41141975,0.83439825,NaN,5
1.56926169141437e+18,NaN,27085,NaN,1569261691,375998973,NaN,NaN,-0.646435226284,-0.220485587167,-0.223890004134,-0.69525597453,NaN,NaN,0.891158766361,-0.638798465075,0.446220326261,NaN,NaN,-0.9423792,8.90352015,3.75970035,NaN,5
1.56926169146993e+18,NaN,27086,NaN,1569261691,413558006,NaN,NaN,-0.648217861713,-0.22296891441,-0.219692779007,-0.694142312365,NaN,NaN,0.186045748553,-0.195484835067,-0.215259460247,NaN,NaN,-0.36320865,7.33288815,1.44301815,NaN,5
1.56926169150735e+18,NaN,27087,NaN,1569261691,469427108,NaN,NaN,-0.661256665506,-0.222383806801,-0.206285011514,-0.686098796691,NaN,NaN,0.636340695569,-0.462520210623,-0.140210302411,NaN,NaN,-1.18779045,9.6790197,1.374303,NaN,2
1.56926169156409e+18,NaN,27088,NaN,1569261691,506854057,NaN,NaN,-0.655574471807,-0.228975893642,-0.216420747617,-0.686261037832,NaN,NaN,-0.300901112755,0.523590816757,0.0605025615689,NaN,NaN,-0.0981645,10.78827855,-1.5902649,NaN,2
1.56926169162051e+18,NaN,27089,NaN,1569261691,563322067,NaN,NaN,-0.661022719703,-0.233027653387,-0.214171505488,-0.680351117461,NaN,NaN,0.355342685997,-0.0349145438828,-0.0564344983151,NaN,NaN,-0.588987,9.31581105,1.9436571,NaN,2
1.56926169165748e+18,NaN,27090,NaN,1569261691,619710922,NaN,NaN,-0.664136941877,-0.236115187331,-0.212563951366,-0.676748333818,NaN,NaN,0.224442992097,-0.0488771778988,-0.0546891690631,NaN,NaN,-0.59880345,9.6004881,1.40375235,NaN,2
1.56926169171366e+18,NaN,27091,NaN,1569261691,656981945,NaN,NaN,-0.665280120603,-0.238338863038,-0.21369195996,-0.674486985601,NaN,NaN,0.215716345837,-7.95884277677e-06,0.0186146595209,NaN,NaN,-1.0012779,9.7379184,2.89585275,NaN,2
1.56926169177027e+18,NaN,27092,NaN,1569261691,712884902,NaN,NaN,-0.666858505582,-0.243139288969,-0.214756359204,-0.670867144727,NaN,NaN,0.149393834261,0.0732958697412,-0.0546891690631,NaN,NaN,0.0196329,10.1305764,-0.40247445,NaN,2
1.56926169180752e+18,NaN,27093,NaN,1569261691,769491910,NaN,NaN,-0.66643572326,-0.247996840604,-0.213055277041,-0.670051074723,NaN,NaN,0.107505932213,-0.00349861734678,-0.143700960915,NaN,NaN,-0.9423792,10.209108,2.3952138,NaN,2
1.56926169186378e+18,NaN,27094,NaN,1569261691,807027101,NaN,NaN,-0.665799654177,-0.254697707054,-0.211414760345,-0.668688042085,NaN,NaN,0.135431200245,0.0855131745052,-0.293799276587,NaN,NaN,-0.3533922,9.59067165,0.0392658,NaN,2
1.56926169192036e+18,NaN,27095,NaN,1569261691,863018989,NaN,NaN,-0.666192140891,-0.260351667676,-0.208982276342,-0.66688188514,NaN,NaN,0.147648505009,0.0122093459212,-0.164644911939,NaN,NaN,-1.0601766,8.8151721,1.05036015,NaN,2
1.56926169195753e+18,NaN,27096,NaN,1569261691,919682025,NaN,NaN,-0.664398937269,-0.264411294588,-0.212835105197,-0.665854291453,NaN,NaN,-0.00768579841881,0.132637064309,-0.0197825840231,NaN,NaN,-0.24541125,9.66920325,0.3533922,NaN,2
1.56926169201361e+18,NaN,27097,NaN,1569261691,956926107,NaN,NaN,-0.663677869729,-0.268160794221,-0.212452834436,-0.66519566055,NaN,NaN,0.0534007254012,0.0209359921812,-0.145446290167,NaN,NaN,-0.785316,9.5612223,-0.2748606,NaN,2
1.56926169205106e+18,NaN,27098,NaN,1569261692,12888908,NaN,NaN,-0.657187445366,-0.272453252543,-0.208472128082,-0.671128347371,NaN,NaN,-0.211889320903,-0.0768024459308,-0.293799276587,NaN,NaN,-2.9056692,11.0533227,1.18779045,NaN,5
1.56926169212627e+18,NaN,27099,NaN,1569261692,50390958,NaN,NaN,-0.654478131505,-0.274058551759,-0.208892785089,-0.672988922588,NaN,NaN,-0.122877529051,-0.0296785561268,-0.0913410833551,NaN,NaN,-1.40375235,8.0691219,1.18779045,NaN,2
1.56926169216357e+18,NaN,27100,NaN,1569261692,125627040,NaN,NaN,-0.650357404717,-0.281483011686,-0.205402194381,-0.674990739792,NaN,NaN,-0.0338657371988,0.0191906629292,-0.234458082019,NaN,NaN,-0.81476535,11.37726555,0.32394285,NaN,5
1.56926169220111e+18,NaN,27101,NaN,1569261692,162894964,NaN,NaN,-0.641667206869,-0.283805206792,-0.203498409155,-0.682866163826,NaN,NaN,-0.510340622995,-0.111709030971,-0.379320409935,NaN,NaN,-0.785316,8.94278595,0.53990475,NaN,2
1.56926169225751e+18,NaN,27102,NaN,1569261692,200572013,NaN,NaN,-0.640042537744,-0.28469342572,-0.207116214563,-0.682933435185,NaN,NaN,-0.0460830419628,0.0837678452532,0.0849371710969,NaN,NaN,-1.54118265,7.90224225,2.5915428,NaN,5
1.56926169231355e+18,NaN,27103,NaN,1569261692,256742000,NaN,NaN,-0.641565646915,-0.287327599136,-0.211527049813,-0.679038053919,NaN,NaN,0.109251261465,0.123910418049,0.0901731588529,NaN,NaN,-1.1190753,11.6619426,0.6282528,NaN,5
1.56926169235187e+18,NaN,27104,NaN,1569261692,312983989,NaN,NaN,-0.641361784973,-0.287714374378,-0.211928873945,-0.678941567398,NaN,NaN,0.0376927621332,-0.0384052023868,0.0186146595209,NaN,NaN,-1.9829229,8.4225141,1.77677745,NaN,2
1.56926169240801e+18,NaN,27105,NaN,1569261692,351027965,NaN,NaN,-0.646565856529,-0.288872666893,-0.212843743776,-0.673203324582,NaN,NaN,0.385013283281,-0.00698927585078,0.125079743893,NaN,NaN,-0.71660085,9.70846905,-0.24541125,NaN,2
1.56926169246355e+18,NaN,27106,NaN,1569261692,407314062,NaN,NaN,-0.643146207862,-0.290267630114,-0.214145092731,-0.675462461932,NaN,NaN,-0.119386870547,-0.00524394659878,-0.0529438398111,NaN,NaN,-1.374303,11.1514872,2.73878955,NaN,5
1.56926169250139e+18,NaN,27107,NaN,1569261692,462990999,NaN,NaN,-0.651017707014,-0.259420954729,-0.234857173122,-0.673586536114,NaN,NaN,-0.213634650155,-0.378744406527,1.31190363525,NaN,NaN,-5.52666135,14.30256765,7.5979323,NaN,4
1.56926169255749e+18,NaN,27108,NaN,1569261692,500619888,NaN,NaN,-0.6506975099,-0.264825805177,-0.231564472692,-0.672932343189,NaN,NaN,0.128449883237,0.00348269966122,-0.302525922847,NaN,NaN,0.14724675,5.74262325,-2.5915428,NaN,5
1.56926169261366e+18,NaN,27109,NaN,1569261692,556890010,NaN,NaN,-0.655499047561,-0.254301778302,-0.242612840323,-0.668423977659,NaN,NaN,0.0307114451252,-0.0506225071508,0.589337324925,NaN,NaN,-1.0798095,17.3162178,5.2616172,NaN,4
1.56926169265153e+18,NaN,27110,NaN,1569261692,613107919,NaN,NaN,-0.653604636855,-0.260431647826,-0.239293040454,-0.669115218989,NaN,NaN,0.00453150634519,0.0244266506852,-0.230967423515,NaN,NaN,-1.14852465,8.53049505,-1.0012779,NaN,2
1.56926169270786e+18,NaN,27111,NaN,1569261692,650782108,NaN,NaN,-0.653531811464,-0.261562373859,-0.239449748855,-0.668689100972,NaN,NaN,0.0708540179212,-0.0331692146308,-0.0093106085111,NaN,NaN,-1.0601766,9.1685643,1.5902649,NaN,2
1.56926169276376e+18,NaN,27112,NaN,1569261692,707269906,NaN,NaN,-0.650963402021,-0.261637234006,-0.240157575868,-0.670907553814,NaN,NaN,-0.103678907279,-0.0384052023868,0.0011613670009,NaN,NaN,-2.11053675,10.21892445,0.87366405,NaN,2
1.56926169280112e+18,NaN,27113,NaN,1569261692,763222932,NaN,NaN,-0.647094798635,-0.263868222555,-0.236523309716,-0.675054521254,NaN,NaN,-0.119386870547,-0.0907650799468,-0.183843533711,NaN,NaN,-2.16943545,10.3661712,1.08962595,NaN,2
1.56926169285757e+18,NaN,27114,NaN,1569261692,800523042,NaN,NaN,-0.647951758307,-0.2665267461,-0.233820924604,-0.674128910326,NaN,NaN,0.200008382569,-0.0698211289228,-0.203042155483,NaN,NaN,0.8049489,8.35379895,2.34613155,NaN,2
1.56926169291419e+18,NaN,27115,NaN,1569261692,856924057,NaN,NaN,-0.645538075753,-0.272847778374,-0.237498749463,-0.672628446167,NaN,NaN,-0.00244981066281,0.216412868405,-0.0686518030791,NaN,NaN,1.63934715,7.52921715,0.6282528,NaN,5
1.56926169295128e+18,NaN,27116,NaN,1569261692,913268089,NaN,NaN,-0.646147035215,-0.268325366303,-0.244989810523,-0.671174716017,NaN,NaN,-0.0600456759788,0.0191906629292,0.299612669093,NaN,NaN,-4.56464925,12.761385,2.13016965,NaN,5
1.56926169300796e+18,NaN,27117,NaN,1569261692,950769901,NaN,NaN,-0.6418132204,-0.27362878967,-0.240404554015,-0.674839778016,NaN,NaN,-0.173492077359,-0.0523678364028,-0.377575080683,NaN,NaN,-3.3964917,8.90352015,-0.8638476,NaN,2
1.56926169306378e+18,NaN,27118,NaN,1569261693,7189035,NaN,NaN,-0.635986442624,-0.280755087793,-0.23255911713,-0.680157395399,NaN,NaN,-0.101933578027,-0.0628398119148,-0.419462982731,NaN,NaN,-2.69952375,9.5023236,1.30558785,NaN,5
1.56926169310137e+18,NaN,27119,NaN,1569261693,63158035,NaN,NaN,-0.626781385923,-0.289628516147,-0.223879085818,-0.687850690068,NaN,NaN,-0.234578601179,-0.0331692146308,-0.625411834467,NaN,NaN,1.6687965,8.96241885,0.30430995,NaN,5
1.56926169315767e+18,NaN,27120,NaN,1569261693,100656032,NaN,NaN,-0.625568677981,-0.288940761509,-0.226275709026,-0.688459417085,NaN,NaN,-0.0705176514908,-0.0104799343548,-0.0075652792591,NaN,NaN,2.67989085,10.37598765,1.85530905,NaN,2
1.56926169321433e+18,NaN,27121,NaN,1569261693,157104969,NaN,NaN,-0.621112436976,-0.286722009893,-0.22789163171,-0.692874616272,NaN,NaN,-0.206653333147,-0.0750571166788,0.0308319642849,NaN,NaN,-2.56209345,9.4826907,2.22833415,NaN,2
1.56926169325178e+18,NaN,27122,NaN,1569261693,213259935,NaN,NaN,-0.619578168218,-0.289160794736,-0.226217448787,-0.693782814806,NaN,NaN,-0.00244981066281,-0.0261878976228,-0.0878504248511,NaN,NaN,-3.81859905,10.1698422,1.61971425,NaN,2
1.56926169330747e+18,NaN,27123,NaN,1569261693,250917911,NaN,NaN,-0.61783004234,-0.291060589379,-0.225624259712,-0.694739854565,NaN,NaN,-0.0530643589708,-0.0139705928588,-0.117521022135,NaN,NaN,-3.15108045,11.0336898,1.12889175,NaN,5
1.569261693364e+18,NaN,27124,NaN,1569261693,306674003,NaN,NaN,-0.612606145005,-0.294757754312,-0.221521093317,-0.699113712204,NaN,NaN,-0.136840163067,-0.0523678364028,-0.264128679303,NaN,NaN,-1.99273935,9.00168465,1.24668915,NaN,2
1.56926169340143e+18,NaN,27125,NaN,1569261693,363302946,NaN,NaN,-0.607502298684,-0.296887643609,-0.220121346911,-0.703096918497,NaN,NaN,-0.161274772595,-0.0226972391188,-0.178607545955,NaN,NaN,-0.9031134,9.49250715,1.5313662,NaN,2
1.56926169345727e+18,NaN,27126,NaN,1569261693,400738954,NaN,NaN,-0.609072298294,-0.300148636285,-0.219086070652,-0.700673265677,NaN,NaN,0.247132272373,0.0488612602132,-0.0878504248511,NaN,NaN,-1.91420775,10.00296255,2.54246055,NaN,2
1.56926169351386e+18,NaN,27127,NaN,1569261693,456701040,NaN,NaN,-0.60895084807,-0.304212511298,-0.220650693893,-0.698531949083,NaN,NaN,0.0656180301652,0.115183771789,-0.0372358765431,NaN,NaN,1.4135688,-1.63934715,0.85403115,NaN,6
1.56926169355168e+18,NaN,27128,NaN,1569261693,513226032,NaN,NaN,-0.597584181703,-0.321246002589,-0.200230092238,-0.706825340351,NaN,NaN,-0.0966975902708,-0.0733117874268,-1.06348947672,NaN,NaN,-1.9436571,4.7707947,-0.14724675,NaN,5
1.56926169360771e+18,NaN,27129,NaN,1569261693,551017999,NaN,NaN,-0.60236276386,-0.325054494455,-0.203331993618,-0.700110546072,NaN,NaN,0.313454783949,0.176270295609,0.130315731649,NaN,NaN,-1.69824585,9.64957035,-2.8075047,NaN,2
1.56926169366396e+18,NaN,27130,NaN,1569261693,607095956,NaN,NaN,-0.615406501334,-0.311785022337,-0.221601727526,-0.689171685663,NaN,NaN,0.266330894145,0.0209359921812,0.968073772609,NaN,NaN,-1.18779045,13.34055555,0.8638476,NaN,4
1.56926169370127e+18,NaN,27131,NaN,1569261693,663147926,NaN,NaN,-0.602994389579,-0.308102913129,-0.22002594129,-0.702181562146,NaN,NaN,-0.616805707367,-0.253080700383,-0.211768801743,NaN,NaN,-1.2368727,10.8766266,-1.26632205,NaN,5
1.5692616937575e+18,NaN,27132,NaN,1569261693,700671911,NaN,NaN,-0.591458634024,-0.295886641501,-0.210737875687,-0.719873132831,NaN,NaN,-0.969362216271,-1.03673353453,-0.365357775919,NaN,NaN,-1.63934715,7.01876175,2.16943545,NaN,5
1.56926169381402e+18,NaN,27133,NaN,1569261693,756774902,NaN,NaN,-0.375251909909,-0.271505964665,-0.331864451609,-0.82178859874,NaN,NaN,-9.49180495379,2.5219928103,0.578865349413,NaN,NaN,-1.766961,12.00551835,12.4079928,NaN,5
1.5692616938517e+18,NaN,27134,NaN,1569261693,813357114,NaN,NaN,-0.376079990613,-0.270564291154,-0.312732719287,-0.829190600104,NaN,NaN,0.0464194083932,-0.371763089519,-0.634138480727,NaN,NaN,-1.83567615,9.11948205,2.9645679,NaN,5
1.56926169390745e+18,NaN,27135,NaN,1569261693,850971937,NaN,NaN,-0.396316893329,-0.274542533559,-0.303347374596,-0.82191221408,NaN,NaN,1.24371527527,-0.240863395619,-0.133228985403,NaN,NaN,-0.20614545,7.3230717,4.72171245,NaN,5
1.56926169396383e+18,NaN,27136,NaN,1569261693,906744003,NaN,NaN,-0.469683320689,-0.2870950897,-0.291919359617,-0.782149010878,NaN,NaN,2.99428051502,-0.225155432351,0.625989239217,NaN,NaN,-1.22705625,10.4250699,4.97694015,NaN,5
1.56926169400136e+18,NaN,27137,NaN,1569261693,963202953,NaN,NaN,-0.502996743653,-0.295994766737,-0.3068353435,-0.751820088796,NaN,NaN,1.36588832291,0.420616390889,0.906987248789,NaN,NaN,-1.95347355,10.9747911,2.159619,NaN,5
1.56926169405746e+18,NaN,27138,NaN,1569261694,715970,NaN,NaN,-0.559926037906,-0.303156693891,-0.301783780451,-0.709581144677,NaN,NaN,3.631325692,-0.191994176563,1.16355064883,NaN,NaN,-0.392658,8.7366405,1.71787875,NaN,5
1.56926169413243e+18,NaN,27139,NaN,1569261694,56745052,NaN,NaN,-0.612159780917,-0.297551157181,-0.304639603197,-0.666272034271,NaN,NaN,2.10241726725,-0.251335371131,1.20543855088,NaN,NaN,0.6086199,11.47543005,-0.06871515,NaN,4
1.56926169416989e+18,NaN,27140,NaN,1569261694,131814002,NaN,NaN,-0.703134622387,-0.336129440672,-0.257379900516,-0.571291771974,NaN,NaN,3.90883304307,-0.132652981995,0.0325772935369,NaN,NaN,-0.52027185,10.1894751,-1.10925885,NaN,2
1.56926169420743e+18,NaN,27141,NaN,1569261694,169233083,NaN,NaN,-0.731158169154,-0.366448316097,-0.222491037938,-0.530679848257,NaN,NaN,3.48297270558,-0.155342262271,-1.086178757,NaN,NaN,-1.38411945,8.64829245,-1.5902649,NaN,5
1.56926169426399e+18,NaN,27142,NaN,1569261694,206737995,NaN,NaN,-0.742751092257,-0.381945261363,-0.198995200669,-0.512678790652,NaN,NaN,1.66957561275,-0.382235065031,-0.785982125651,NaN,NaN,-0.7460502,7.90224225,-3.93639645,NaN,5
1.56926169430177e+18,NaN,27143,NaN,1569261694,263252973,NaN,NaN,-0.788697658744,-0.38911384168,-0.151903420605,-0.451078454498,NaN,NaN,3.18103074499,-0.682431696375,0.0413039397969,NaN,NaN,0.4122909,10.49378505,-4.1032761,NaN,2
1.56926169435743e+18,NaN,27144,NaN,1569261694,301168918,NaN,NaN,-0.841373531437,-0.384089157357,-0.0812525370837,-0.371435223176,NaN,NaN,6.03988005976,-1.97397534285,0.365935180669,NaN,NaN,-1.9043913,6.15491415,-6.37087605,NaN,5
1.56926169441414e+18,NaN,27145,NaN,1569261694,356802940,NaN,NaN,-0.826587479603,-0.378924780373,-0.0870035200847,-0.406939229955,NaN,NaN,-1.34984399321,-0.401433686803,0.0238506472769,NaN,NaN,-3.337593,7.2052743,-6.4003254,NaN,5
1.56926169445184e+18,NaN,27146,NaN,1569261694,413290023,NaN,NaN,-0.75012190581,-0.341583332089,-0.137387822627,-0.549329172588,NaN,NaN,-6.12681015593,-0.837765999803,0.440984338505,NaN,NaN,-2.95475145,9.08021625,-3.2001627,NaN,5
1.56926169450787e+18,NaN,27147,NaN,1569261694,451057910,NaN,NaN,-0.694746320643,-0.328002904366,-0.173491041894,-0.61615136376,NaN,NaN,-4.98361949587,0.0942398207652,0.186166267713,NaN,NaN,-3.30814365,9.96369675,-0.7067844,NaN,2
1.56926169456394e+18,NaN,27148,NaN,1569261694,506829023,NaN,NaN,-0.789671696334,-0.339660447654,-0.0830322193605,-0.50413792047,NaN,NaN,6.06955065705,-1.41896064072,-0.438661604503,NaN,NaN,-2.0025558,6.3021609,-8.05930545,NaN,5
1.56926169460184e+18,NaN,27149,NaN,1569261694,563251972,NaN,NaN,-0.795184598443,-0.342634763127,-0.0309129459946,-0.49932681008,NaN,NaN,0.940027985417,-1.47830183529,-0.852304637227,NaN,NaN,-3.3964917,7.5390336,-1.60008135,NaN,5
1.56926169465767e+18,NaN,27150,NaN,1569261694,601085901,NaN,NaN,-0.782036421171,-0.348346743326,-0.0498172568582,-0.514384898005,NaN,NaN,-1.24861489659,0.555006743293,0.137297048657,NaN,NaN,-4.52538345,7.7549955,-4.01492805,NaN,5
1.56926169471403e+18,NaN,27151,NaN,1569261694,656842947,NaN,NaN,-0.758038245689,-0.371069089173,-0.0996838593643,-0.527018858596,NaN,NaN,-1.34809866395,1.62314824552,0.0290866350329,NaN,NaN,-3.5928207,8.4617799,-3.83823195,NaN,2
1.56926169475211e+18,NaN,27152,NaN,1569261694,713244915,NaN,NaN,-0.730350239484,-0.396379138599,-0.120852112517,-0.543016457457,NaN,NaN,-1.13516849521,0.837750082117,-0.679517041279,NaN,NaN,-1.8062268,8.96241885,-5.15363625,NaN,5
1.5692616948076e+18,NaN,27153,NaN,1569261694,750941991,NaN,NaN,-0.718619579021,-0.404773382178,-0.132927048353,-0.549613327298,NaN,NaN,-0.754686718275,0.537553450773,-0.232712752767,NaN,NaN,-2.0810874,8.8544379,-3.2001627,NaN,2
1.56926169486393e+18,NaN,27154,NaN,1569261694,806875944,NaN,NaN,-0.696639827501,-0.418661927105,-0.161741357508,-0.559691767675,NaN,NaN,-1.03044874009,0.911053910701,-0.145446290167,NaN,NaN,-1.89457485,9.5612223,-3.54373845,NaN,2
1.56926169490124e+18,NaN,27155,NaN,1569261694,863277912,NaN,NaN,-0.666511474169,-0.420431637468,-0.209657225836,-0.578829457329,NaN,NaN,-1.75126972117,1.07162420189,0.358953863661,NaN,NaN,-1.7473281,8.834805,-1.4921004,NaN,5
1.56926169499481e+18,NaN,27156,NaN,1569261694,900629043,NaN,NaN,-0.62408538737,-0.414291833754,-0.274156557134,-0.603090281746,NaN,NaN,-3.70080249565,2.02282864423,0.985527065129,NaN,NaN,-1.08962595,9.7379184,-0.8834805,NaN,5
1.56926169501438e+18,NaN,27157,NaN,1569261694,994211912,NaN,NaN,-0.492264128481,-0.370932694829,-0.449268034664,-0.646717246366,NaN,NaN,-4.22091061275,2.23750414222,1.45327530466,NaN,NaN,-0.30430995,10.3072725,0.20614545,NaN,4
1.56926169505194e+18,NaN,27158,NaN,1569261695,13724088,NaN,NaN,-0.471103532785,-0.359915446646,-0.476657614593,-0.649091558344,NaN,NaN,-3.15451443977,1.66154548906,1.51785248699,NaN,NaN,-0.61843635,10.1305764,1.54118265,NaN,4
1.56926169510741e+18,NaN,27159,NaN,1569261695,50862073,NaN,NaN,-0.43412485246,-0.341687077774,-0.519647789345,-0.65172979707,NaN,NaN,-2.71294613902,1.46257795433,1.21241986789,NaN,NaN,0.48100605,10.08149415,2.355948,NaN,5
1.56926169516381e+18,NaN,27160,NaN,1569261695,106739997,NaN,NaN,-0.410189417486,-0.323941566964,-0.559593509692,-0.643165302925,NaN,NaN,-1.2555962136,0.839495411369,1.11293610052,NaN,NaN,0.46137315,8.834805,3.7695168,NaN,5
1.56926169520114e+18,NaN,27161,NaN,1569261695,163254976,NaN,NaN,-0.403923389371,-0.311860491179,-0.587509107299,-0.628030236853,NaN,NaN,-0.489396671971,0.511373511993,1.09373747875,NaN,NaN,0.3533922,9.66920325,4.3977696,NaN,5
1.5692616952578e+18,NaN,27162,NaN,1569261695,200400114,NaN,NaN,-0.398257288353,-0.303056384156,-0.602637410804,-0.621591595338,NaN,NaN,-0.578408463823,0.455522975929,0.889533956269,NaN,NaN,1.03072725,8.88388725,4.7707947,NaN,5
1.56926169531433e+18,NaN,27163,NaN,1569261695,257039070,NaN,NaN,-0.389580521855,-0.282984124647,-0.625818685775,-0.61359430793,NaN,NaN,-0.754686718275,0.246083465689,0.927931199813,NaN,NaN,1.26632205,8.96241885,4.80024405,NaN,5
1.56926169535244e+18,NaN,27164,NaN,1569261695,313817024,NaN,NaN,-0.368611025833,-0.252156683422,-0.65868935989,-0.605533851909,NaN,NaN,-1.34984399321,0.397927110613,1.19322124612,NaN,NaN,-0.00981645,8.5992102,5.4383133,NaN,5
1.56926169540793e+18,NaN,27165,NaN,1569261695,351317882,NaN,NaN,-0.335189423727,-0.207663931051,-0.68927612913,-0.607801085696,NaN,NaN,-3.0480493554,0.399672439865,1.51436182848,NaN,NaN,-0.6871515,6.871515,7.74517905,NaN,4
1.56926169546411e+18,NaN,27166,NaN,1569261695,407239913,NaN,NaN,-0.29676782865,-0.209394774776,-0.715177940582,-0.597162622307,NaN,NaN,-0.819263900599,1.4782859176,0.638206543981,NaN,NaN,0.46137315,6.282528,9.59067165,NaN,5
1.56926169550134e+18,NaN,27167,NaN,1569261695,463316917,NaN,NaN,-0.218550882514,-0.224212638835,-0.700823009236,-0.640945640491,NaN,NaN,-1.63433266128,1.94777948639,-2.03912852859,NaN,NaN,2.13016965,5.25180075,1.44301815,NaN,4
1.56926169559494e+18,NaN,27168,NaN,1569261695,500432968,NaN,NaN,-0.28368427451,-0.262275620082,-0.65086485329,-0.653536283811,NaN,NaN,4.20553901591,-1.67203338226,-1.71798794622,NaN,NaN,2.44429605,5.17326915,6.7537176,NaN,4
1.56926169561413e+18,NaN,27169,NaN,1569261695,594319105,NaN,NaN,-0.505770661836,-0.32131720704,-0.497051216388,-0.627607662774,NaN,NaN,5.2021220188,-3.1032033689,-0.906409844039,NaN,NaN,2.11053675,5.31069945,7.2052743,NaN,5
1.56926169568841e+18,NaN,27170,NaN,1569261695,613390922,NaN,NaN,-0.512388677276,-0.31805153471,-0.478963355654,-0.637883350314,NaN,NaN,0.355342685997,-1.60222021218,-1.25373036519,NaN,NaN,1.85530905,10.6802976,6.4199583,NaN,5
1.56926169570756e+18,NaN,27171,NaN,1569261695,687917947,NaN,NaN,-0.539366627896,-0.325025156861,-0.40749501868,-0.661354744347,NaN,NaN,0.844034876557,-1.36660076316,-1.38463005909,NaN,NaN,1.6098978,7.5194007,1.8062268,NaN,5
1.56926169576364e+18,NaN,27172,NaN,1569261695,706924915,NaN,NaN,-0.544260333252,-0.318237478588,-0.395728990192,-0.667760558278,NaN,NaN,0.131940541741,-1.42768728698,-0.508474774583,NaN,NaN,0.0196329,9.6986526,2.85658695,NaN,5
1.56926169582074e+18,NaN,27173,NaN,1569261695,762906074,NaN,NaN,-0.561379173149,-0.319644653782,-0.361535322291,-0.672289320159,NaN,NaN,0.735824462933,-0.900597852875,-0.703951650807,NaN,NaN,-0.63806925,10.8177279,2.42466315,NaN,5
1.56926169585742e+18,NaN,27174,NaN,1569261695,819812059,NaN,NaN,-0.586999579197,-0.31193313579,-0.325148697298,-0.672612471981,NaN,NaN,0.957481277937,-1.24093705701,-0.412481665723,NaN,NaN,-1.0798095,9.92443095,3.99529515,NaN,5
1.56926169591403e+18,NaN,27175,NaN,1569261695,856884002,NaN,NaN,-0.595984118294,-0.310620732366,-0.312350177253,-0.671382944477,NaN,NaN,0.603179439781,-0.635307806571,-0.251911374539,NaN,NaN,-0.5300883,9.5808552,2.5326441,NaN,2
1.56926169595141e+18,NaN,27176,NaN,1569261695,913165092,NaN,NaN,-0.608375076565,-0.306718950694,-0.293736733578,-0.670464005631,NaN,NaN,0.510676989425,-0.666723733107,-0.223986106507,NaN,NaN,-0.2159619,9.61030455,2.3755809,NaN,2
1.56926169600796e+18,NaN,27177,NaN,1569261695,950683116,NaN,NaN,-0.6151422375,-0.306430827505,-0.291979426408,-0.665167790976,NaN,NaN,0.493223696905,-0.181522201051,0.139042377909,NaN,NaN,-0.65770215,9.7575513,2.42466315,NaN,2
1.56926169606368e+18,NaN,27178,NaN,1569261696,7221937,NaN,NaN,-0.62750473766,-0.310257212462,-0.280575460511,-0.656700599428,NaN,NaN,0.678228597617,-0.265298005147,-0.141955631663,NaN,NaN,-0.0196329,9.27654525,2.09090385,NaN,2
1.56926169610142e+18,NaN,27179,NaN,1569261696,63011884,NaN,NaN,-0.633670910068,-0.302709896082,-0.274180508353,-0.65700300257,NaN,NaN,0.175573773041,-0.464265539875,0.0779558540889,NaN,NaN,-0.1570632,9.45324135,2.1399861,NaN,2
1.56926169615766e+18,NaN,27180,NaN,1569261696,100754976,NaN,NaN,-0.632857686824,-0.303495038973,-0.272734609866,-0.658025639415,NaN,NaN,0.0376927621332,-0.158832920775,-0.0983224003631,NaN,NaN,-0.8049489,9.45324135,2.26759995,NaN,2
1.56926169621384e+18,NaN,27181,NaN,1569261696,157088041,NaN,NaN,-0.633166389907,-0.308574136873,-0.273124257111,-0.655198798017,NaN,NaN,0.144157846505,0.0732958697412,-0.0529438398111,NaN,NaN,-1.87494195,10.06186125,1.44301815,NaN,2
1.56926169625196e+18,NaN,27182,NaN,1569261696,212924957,NaN,NaN,-0.6272485989,-0.312299597374,-0.274724389049,-0.658448681918,NaN,NaN,-0.161274772595,0.0663145527332,-0.154172936427,NaN,NaN,-0.1570632,9.35507685,1.6098978,NaN,2
1.56926169630784e+18,NaN,27183,NaN,1569261696,251280069,NaN,NaN,-0.624143982225,-0.314817832647,-0.278023624068,-0.658814758609,NaN,NaN,-0.0722629807428,0.127401076553,-0.0442171935511,NaN,NaN,-0.0196329,9.9735132,2.42466315,NaN,2
1.56926169636342e+18,NaN,27184,NaN,1569261696,307220935,NaN,NaN,-0.621404081763,-0.320595078452,-0.278520968415,-0.658408560845,NaN,NaN,0.0219847988652,0.109947784033,-0.157663594931,NaN,NaN,-0.08834805,9.72810195,1.3350372,NaN,2
1.56926169640176e+18,NaN,27185,NaN,1569261696,362838029,NaN,NaN,-0.632731573229,-0.315797082972,-0.286044885412,-0.646607517862,NaN,NaN,0.418174539069,0.0104640166692,0.526505471853,NaN,NaN,-0.0785316,10.02259545,0.93256275,NaN,5
1.56926169645792e+18,NaN,27186,NaN,1569261696,400913000,NaN,NaN,-0.631570675527,-0.318284029204,-0.28495588961,-0.647003786345,NaN,NaN,0.0952886274492,-0.0418958608908,-0.166390241191,NaN,NaN,0.28467705,8.58939375,2.944935,NaN,2
1.5692616965138e+18,NaN,27187,NaN,1569261696,457161903,NaN,NaN,-0.616423925333,-0.323140443683,-0.286064122741,-0.658611505832,NaN,NaN,-0.559209842051,0.0907491622612,-0.382811068439,NaN,NaN,-0.22577835,10.04222835,0.8245818,NaN,5
1.56926169655124e+18,NaN,27188,NaN,1569261696,512902975,NaN,NaN,-0.62018942578,-0.325118215146,-0.282636758035,-0.655575842553,NaN,NaN,0.266330894145,-0.0942557384508,-0.0529438398111,NaN,NaN,-0.65770215,9.7771842,2.71915665,NaN,2
1.56926169660784e+18,NaN,27189,NaN,1569261696,550369977,NaN,NaN,-0.619076820303,-0.32840059296,-0.28457011643,-0.654153491117,NaN,NaN,0.0691086886692,0.123910418049,-0.0529438398111,NaN,NaN,-0.2944935,9.23727945,1.46265105,NaN,2
1.56926169666347e+18,NaN,27190,NaN,1569261696,607045888,NaN,NaN,-0.620807706799,-0.329867309452,-0.284112136812,-0.651970584498,NaN,NaN,0.151139163513,-0.0314238853788,-0.0093106085111,NaN,NaN,-0.32394285,9.78700065,2.26759995,NaN,2
1.56926169670144e+18,NaN,27191,NaN,1569261696,662880897,NaN,NaN,-0.620172357167,-0.336416570937,-0.285450881983,-0.648635438579,NaN,NaN,0.144157846505,0.165798320097,-0.101813058867,NaN,NaN,-0.08834805,10.29745605,1.7080623,NaN,2
1.56926169675794e+18,NaN,27192,NaN,1569261696,700809001,NaN,NaN,-0.619007358279,-0.34087432326,-0.283022377642,-0.648485096123,NaN,NaN,0.0917979689452,0.00871868741722,-0.260638020799,NaN,NaN,-0.42210735,9.9342474,0.3533922,NaN,2
1.56926169681355e+18,NaN,27193,NaN,1569261696,757304906,NaN,NaN,-0.612821283113,-0.346581642496,-0.278144161893,-0.65342716905,NaN,NaN,-0.100188248775,-0.0261878976228,-0.365357775919,NaN,NaN,-0.91292985,10.06186125,1.71787875,NaN,2
1.56926169685164e+18,NaN,27194,NaN,1569261696,812966108,NaN,NaN,-0.602305895062,-0.362174792818,-0.26315786099,-0.660912224444,NaN,NaN,-0.0391017249548,-0.0122252636068,-0.864521941991,NaN,NaN,-3.5731878,9.2078301,1.2957714,NaN,5
1.56926169690784e+18,NaN,27195,NaN,1569261696,850928068,NaN,NaN,-0.589460225725,-0.368258565168,-0.258831422326,-0.67076714759,NaN,NaN,-0.553973854295,-7.95884277677e-06,-0.712678297067,NaN,NaN,-2.4344796,9.72810195,1.374303,NaN,5
1.56926169696371e+18,NaN,27196,NaN,1569261696,907284975,NaN,NaN,-0.582820129324,-0.378463202903,-0.249355526958,-0.674468770277,NaN,NaN,0.0237301281172,0.0209359921812,-0.616685188207,NaN,NaN,0.8442147,8.9722353,1.9829229,NaN,5
1.56926169700129e+18,NaN,27197,NaN,1569261696,963033914,NaN,NaN,-0.58712635354,-0.378698830134,-0.249036012876,-0.670709255434,NaN,NaN,0.241896284617,-0.0122252636068,-0.0162919255191,NaN,NaN,3.0430995,8.94278595,2.5719099,NaN,2
1.56926169705774e+18,NaN,27198,NaN,1569261697,658988,NaN,NaN,-0.585133648494,-0.376591513143,-0.250273359895,-0.673172110946,NaN,NaN,-0.178728065115,-0.118690347979,-0.0162919255191,NaN,NaN,-0.20614545,9.1292985,0.57917055,NaN,2
1.56926169711362e+18,NaN,27199,NaN,1569261697,57167053,NaN,NaN,-0.577725351971,-0.374847322186,-0.247986850386,-0.681340902028,NaN,NaN,-0.311373088267,-0.176286213295,-0.187334192215,NaN,NaN,-3.93639645,10.1305764,4.07382675,NaN,2
1.56926169715143e+18,NaN,27200,NaN,1569261697,113004922,NaN,NaN,-0.581211513659,-0.376527144111,-0.251147588815,-0.676273151005,NaN,NaN,0.182555090049,0.102966467025,0.166967645941,NaN,NaN,-4.36832025,9.8360829,1.0798095,NaN,2
1.56926169720757e+18,NaN,27201,NaN,1569261697,150599956,NaN,NaN,-0.5781407237,-0.373371229579,-0.254868918812,-0.679256257053,NaN,NaN,-0.253777222951,-0.0680757996708,0.133806390153,NaN,NaN,-2.38539735,9.74773485,2.5719099,NaN,2
1.56926169726418e+18,NaN,27202,NaN,1569261697,206933021,NaN,NaN,-0.576792388837,-0.373626269023,-0.255000937412,-0.680212079571,NaN,NaN,-0.0268844201908,-0.0314238853788,-0.0634158153231,NaN,NaN,-0.3533922,10.5625002,1.50191685,NaN,2
1.56926169730131e+18,NaN,27203,NaN,1569261697,263401031,NaN,NaN,-0.576326687372,-0.375060738373,-0.254064622296,-0.68016774376,NaN,NaN,0.0586367131572,-0.0157159221108,-0.0686518030791,NaN,NaN,-1.65898005,9.6593868,2.4933783,NaN,2
1.56926169735739e+18,NaN,27204,NaN,1569261697,300671100,NaN,NaN,-0.575397384565,-0.377079283973,-0.254538332002,-0.6796611663,NaN,NaN,0.0499100668972,0.0488612602132,-0.0686518030791,NaN,NaN,-1.7473281,8.96241885,1.69824585,NaN,2
1.56926169741359e+18,NaN,27205,NaN,1569261697,356668949,NaN,NaN,-0.57497490105,-0.377341960078,-0.255066863586,-0.67967477769,NaN,NaN,0.0115128233532,-0.0174612513628,-0.0110559377631,NaN,NaN,-1.6098978,9.7379184,1.5117333,NaN,2
