rosbagTimestamp,header,seq,stamp,secs,nsecs,frame_id,orientation,x,y,z,w,orientation_covariance,angular_velocity,x_1,y_1,z_1,angular_velocity_covariance,linear_acceleration,x_2,y_2,z_2,linear_acceleration_covariance,Label
1.55542457006857e+18,NaN,20824,NaN,1555424570,66937923,NaN,NaN,0.49147107704,-0.513997602077,-0.702728657542,-0.0208585560644,NaN,NaN,0.0882354260773,0.0536603657614,-0.0894649251258,NaN,NaN,-4.2407064,8.86425435,-0.85403115,NaN,2
1.55542457006931e+18,NaN,20825,NaN,1555424570,68094968,NaN,NaN,0.490671616152,-0.514963374949,-0.702623677861,-0.0193404982547,NaN,NaN,0.320364216593,0.0257350977294,-0.00917977953382,NaN,NaN,-3.77933325,8.98205175,-0.2355948,NaN,2
1.55542457060035e+18,NaN,20826,NaN,1555424570,68970918,NaN,NaN,0.489949901315,-0.515665722274,-0.70265262104,-0.0178115473508,NaN,NaN,-0.196253241999,0.0152631222174,-0.0161610965418,NaN,NaN,-4.19162415,9.227463,-0.2552277,NaN,2
1.55542457068372e+18,NaN,20827,NaN,1555424570,599620103,NaN,NaN,0.497104919678,-0.499055977225,-0.70953590991,-0.0197135226698,NaN,NaN,-0.0548815725867,-0.000444841050566,-0.0563036693378,NaN,NaN,-4.07382675,8.834805,-0.75586665,NaN,2
1.55542457085369e+18,NaN,20828,NaN,1555424570,683180093,NaN,NaN,0.495353334618,-0.503244300292,-0.707735965016,-0.0219100873975,NaN,NaN,0.124887340369,-0.0370967553426,-0.0126704380378,NaN,NaN,-4.1818077,9.0703998,0.0392658,NaN,2
1.55542457085457e+18,NaN,20829,NaN,1555424570,853018045,NaN,NaN,0.497569384534,-0.474862326635,-0.725899041619,0.00102941398725,NaN,NaN,-0.484232568579,0.0362070732414,-0.00568912102982,NaN,NaN,-4.01492805,9.0703998,-0.5693541,NaN,2
1.5554245713004e+18,NaN,20830,NaN,1555424570,854146003,NaN,NaN,0.496692151385,-0.475837081722,-0.725858245352,0.00240542390523,NaN,NaN,-0.187526595739,0.0274804269814,0.0187454884982,NaN,NaN,-4.01492805,8.834805,0.26504415,NaN,2
1.55542457138559e+18,NaN,20831,NaN,1555424571,299881935,NaN,NaN,0.489792545261,-0.414753078576,-0.764458676771,0.0607130787174,NaN,NaN,-0.419655386255,0.0152631222174,0.0606333905462,NaN,NaN,-4.01492805,9.08021625,-0.5104554,NaN,2
1.55542457151321e+18,NaN,20832,NaN,1555424571,385006904,NaN,NaN,0.486160332727,-0.414453655604,-0.76664360697,0.0642952419058,NaN,NaN,-0.102005462391,-0.0528047186106,0.0519067442862,NaN,NaN,-3.91676355,9.1489314,0.1570632,NaN,2
1.55542457155535e+18,NaN,20833,NaN,1555424571,512449979,NaN,NaN,0.481115767308,-0.413516358911,-0.769611655116,0.0723169390318,NaN,NaN,-0.117713425659,-0.0301154383346,0.0972853048382,NaN,NaN,-4.23088995,8.53049505,0.02944935,NaN,2
1.55542457210778e+18,NaN,20834,NaN,1555424571,554754018,NaN,NaN,0.479048053851,-0.41203922398,-0.771176956222,0.0776063283149,NaN,NaN,-0.278283716843,0.00304581745343,0.109502609602,NaN,NaN,-3.72043455,9.57103875,0.06871515,NaN,2
1.55542457210835e+18,NaN,20835,NaN,1555424572,107161998,NaN,NaN,0.481814857875,-0.41816712523,-0.76891997761,0.0418660499716,NaN,NaN,0.0795087798173,-0.0440780723506,-0.0981915713858,NaN,NaN,-4.44685185,8.35379895,0,NaN,2
1.55542457217103e+18,NaN,20836,NaN,1555424572,108056068,NaN,NaN,0.481031327935,-0.419533657709,-0.768621993456,0.042668522008,NaN,NaN,0.0847447675733,-0.0423327430986,-0.0336143890618,NaN,NaN,-4.4959341,9.19801365,1.03072725,NaN,2
1.55542457221362e+18,NaN,20837,NaN,1555424572,170574903,NaN,NaN,0.480630693264,-0.425328102186,-0.766024285063,0.0360130098413,NaN,NaN,0.252296375765,-0.0667673526266,-0.129607497922,NaN,NaN,-3.7891497,9.3256275,0.4711896,NaN,2
1.55542457225644e+18,NaN,20838,NaN,1555424572,213192939,NaN,NaN,0.482681281851,-0.422648036893,-0.766308118902,0.0340482593608,NaN,NaN,-0.0932788161307,0.0274804269814,-0.243053899302,NaN,NaN,-4.87877565,9.04095045,0.42210735,NaN,2
1.5554245723205e+18,NaN,20839,NaN,1555424572,255755901,NaN,NaN,0.485877334627,-0.42440973043,-0.763434404429,0.031104767248,NaN,NaN,0.151067279149,0.109510901825,-0.199420668002,NaN,NaN,-4.9671237,9.41397555,0.12761385,NaN,2
1.55542457236265e+18,NaN,20840,NaN,1555424572,319878101,NaN,NaN,0.485609268109,-0.419942505107,-0.765930032839,0.0343964522299,NaN,NaN,-0.203234559007,0.00304581745343,0.00303752523018,NaN,NaN,-5.07510465,6.52793925,0.24541125,NaN,5
1.55542457242631e+18,NaN,20841,NaN,1555424572,362119913,NaN,NaN,0.483691205985,-0.423897086581,-0.764752901304,0.038821092044,NaN,NaN,0.0201675852493,0.0327164147374,0.222949010982,NaN,NaN,-4.4959341,8.245818,0.2552277,NaN,5
1.55542457244804e+18,NaN,20842,NaN,1555424572,425782918,NaN,NaN,0.480648967646,-0.431590912817,-0.762318757705,0.0396984322831,NaN,NaN,0.194700510449,-0.0283701090826,0.182806438186,NaN,NaN,-4.3585038,-2.7682389,0.63806925,NaN,4
1.5554245725751e+18,NaN,20843,NaN,1555424572,447429895,NaN,NaN,0.476078724645,-0.435911875761,-0.762312334883,0.0470083885717,NaN,NaN,-0.0723348651067,-0.0109168165626,0.755274432842,NaN,NaN,-4.38795315,8.80535565,1.570632,NaN,5
1.55542457257631e+18,NaN,20844,NaN,1555424572,574460029,NaN,NaN,0.444550909175,-0.460252667405,-0.759478044257,0.117196721751,NaN,NaN,-0.245122461055,0.114746889581,1.24920261116,NaN,NaN,-3.48483975,4.85914275,-0.61843635,NaN,4
1.55542457261766e+18,NaN,20845,NaN,1555424572,575869083,NaN,NaN,0.443536780555,-0.461266136649,-0.75936107814,0.117810986258,NaN,NaN,0.0603101580453,-0.00219017030257,2.1602644807,NaN,NaN,-2.9842008,4.0051116,2.42466315,NaN,4
1.55542457266049e+18,NaN,20846,NaN,1555424572,617183923,NaN,NaN,0.420933657949,-0.466155462932,-0.762974019156,0.152920195125,NaN,NaN,-0.807118480199,-0.117381900935,1.88973844664,NaN,NaN,-0.83439825,19.60345065,-2.71915665,NaN,3
1.55542457270296e+18,NaN,20847,NaN,1555424572,659948110,NaN,NaN,0.410523806477,-0.486835296874,-0.754129585389,0.160468584073,NaN,NaN,0.721789944553,-0.113891242431,0.912354065522,NaN,NaN,-1.766961,9.92443095,4.03456095,NaN,5
1.55542457280897e+18,NaN,20848,NaN,1555424572,702445983,NaN,NaN,0.414992664233,-0.493169186483,-0.748043923374,0.15809974965,NaN,NaN,0.425083971713,0.208994669189,-0.0109251087858,NaN,NaN,-0.67733505,12.9184482,-1.0012779,NaN,5
1.55542457287222e+18,NaN,20849,NaN,1555424572,808268070,NaN,NaN,0.430319166091,-0.416376337094,-0.783396478255,0.166571663438,NaN,NaN,-1.46859826671,0.270081193009,-0.768398004154,NaN,NaN,-1.50191685,9.98332965,1.5902649,NaN,5
1.55542457308623e+18,NaN,20850,NaN,1555424572,871678113,NaN,NaN,0.433459857351,-0.368264707575,-0.804820960499,0.169578532726,NaN,NaN,-1.52095814427,0.113001560329,-0.719528785098,NaN,NaN,-1.8454926,12.51597375,0.57917055,NaN,5
1.55542457308712e+18,NaN,20851,NaN,1555424573,85479974,NaN,NaN,0.482877080367,-0.40050844575,-0.771497316537,0.105899011875,NaN,NaN,0.693864676521,0.247391912733,-0.46820137281,NaN,NaN,-3.17071335,6.3217938,3.9462129,NaN,5
1.55542457312054e+18,NaN,20852,NaN,1555424573,86677074,NaN,NaN,0.482708949917,-0.401579272041,-0.771115324548,0.105391243393,NaN,NaN,0.910285503769,0.769245359081,0.74480245733,NaN,NaN,-3.11181465,12.2705625,-0.2355948,NaN,5
1.55542457315386e+18,NaN,20853,NaN,1555424573,120045900,NaN,NaN,0.485616949719,-0.404714756832,-0.771570689439,0.0711394050199,NaN,NaN,1.11448902625,-0.684613907835,-1.58346676484,NaN,NaN,-1.77677745,7.52921715,2.1007203,NaN,5
1.55542457318745e+18,NaN,20854,NaN,1555424573,153398990,NaN,NaN,0.488522747597,-0.402980644395,-0.771829223648,0.0568487013652,NaN,NaN,0.257532363521,-0.220356326803,-0.867881771518,NaN,NaN,-1.97310645,7.9709574,-1.73751165,NaN,5
1.55542457322063e+18,NaN,20855,NaN,1555424573,186907052,NaN,NaN,0.48981783824,-0.410205851848,-0.768335554691,0.0383421419403,NaN,NaN,0.891086881997,-0.304132130899,-0.79981393069,NaN,NaN,-2.9645679,8.43233055,0.0981645,NaN,5
1.555424573254e+18,NaN,20856,NaN,1555424573,220160961,NaN,NaN,0.493082690471,-0.407607847343,-0.767843591643,0.0337864161298,NaN,NaN,-0.0217203167987,0.0641323412734,-0.455984068046,NaN,NaN,-2.58172635,8.03967255,-0.1570632,NaN,5
1.5554245732873e+18,NaN,20857,NaN,1555424573,253454923,NaN,NaN,0.494109709407,-0.411845215581,-0.765032906755,0.0310445656164,NaN,NaN,0.280221643797,0.0519150365094,-0.147060790442,NaN,NaN,-4.0640103,9.74773485,0.02944935,NaN,2
1.55542457332083e+18,NaN,20858,NaN,1555424573,286748886,NaN,NaN,0.495654819764,-0.410373801027,-0.76495375226,0.0276658630653,NaN,NaN,-0.0374282800667,-0.0196434628226,-0.377444251706,NaN,NaN,-3.3572259,8.98205175,-0.3533922,NaN,2
1.55542457346812e+18,NaN,20859,NaN,1555424573,320152997,NaN,NaN,0.49478452553,-0.410718798212,-0.765379058006,0.0263294446783,NaN,NaN,-0.00950301203472,-0.0807299866426,-0.15404210745,NaN,NaN,-3.79896615,8.6777418,0.5300883,NaN,2
1.55542457353124e+18,NaN,20860,NaN,1555424573,467425107,NaN,NaN,0.495545976166,-0.379837678233,-0.78024366528,0.0371126190173,NaN,NaN,-0.499940531847,-0.0283701090826,-0.133098156426,NaN,NaN,-4.2996051,9.53177295,-0.9423792,NaN,2
1.55542457353184e+18,NaN,20861,NaN,1555424573,530669927,NaN,NaN,0.494201346957,-0.383699978075,-0.779421761694,0.0322656611332,NaN,NaN,0.149321949897,-0.0737486696346,-0.10168222989,NaN,NaN,-3.95602935,8.00040675,1.0994424,NaN,2
1.55542457361701e+18,NaN,20862,NaN,1555424573,531538963,NaN,NaN,0.493829464751,-0.385910769298,-0.778523633914,0.0332609278633,NaN,NaN,-0.187526595739,-0.0685126818786,-0.0440863645738,NaN,NaN,-4.2799722,9.41397555,-0.87366405,NaN,2
1.55542457361793e+18,NaN,20863,NaN,1555424573,616332054,NaN,NaN,0.49589182792,-0.391069845222,-0.775111883637,0.0189007673195,NaN,NaN,0.276730985293,-0.0510593893586,-0.265743179578,NaN,NaN,-4.56464925,9.1096656,1.28595495,NaN,2
1.55542457361881e+18,NaN,20864,NaN,1555424573,617538928,NaN,NaN,0.495428052744,-0.392931944043,-0.774435055272,0.0201463910245,NaN,NaN,-0.337624911411,0.113001560329,-0.122626180914,NaN,NaN,-4.122909,10.0324119,-0.53990475,NaN,2
1.55542457363595e+18,NaN,20865,NaN,1555424573,618447065,NaN,NaN,0.494919251291,-0.394748110873,-0.773811799821,0.0210751541426,NaN,NaN,0.152812608401,0.0536603657614,-0.108663546898,NaN,NaN,-4.25052285,8.23600155,0.1177974,NaN,2
1.5554245736801e+18,NaN,20866,NaN,1555424573,635303020,NaN,NaN,0.494835471411,-0.396182588209,-0.773092416997,0.0224794976679,NaN,NaN,-0.0810615113667,0.0362070732414,-0.00743445028182,NaN,NaN,-4.21125705,8.33416605,-0.6282528,NaN,2
1.55542457374399e+18,NaN,20867,NaN,1555424573,679480075,NaN,NaN,0.494275565505,-0.396109244348,-0.773407865519,0.0250879540961,NaN,NaN,-0.124694742667,0.00828180520943,0.00129219597818,NaN,NaN,-4.03456095,9.29617815,-0.18651255,NaN,2
1.55542457380764e+18,NaN,20868,NaN,1555424573,743379116,NaN,NaN,0.493303782233,-0.401716113751,-0.771116962735,0.0255767896641,NaN,NaN,0.128377998873,0.0135177929654,0.0623787197982,NaN,NaN,-4.5744657,8.049489,0.6282528,NaN,5
1.55542457380845e+18,NaN,20869,NaN,1555424573,806957960,NaN,NaN,0.492845684736,-0.404525310736,-0.769891508152,0.0270086964914,NaN,NaN,0.0184222559973,0.0117724637134,0.0152548299942,NaN,NaN,-3.7695168,9.25691235,-0.59880345,NaN,2
1.55542457387158e+18,NaN,20870,NaN,1555424573,807948112,NaN,NaN,0.492256272842,-0.406272567386,-0.769315262487,0.0279354567267,NaN,NaN,0.0795087798173,-0.00742615805857,-0.00917977953382,NaN,NaN,-4.52538345,9.09984915,0.1177974,NaN,2
1.5554245739351e+18,NaN,20871,NaN,1555424573,870884895,NaN,NaN,0.491524770204,-0.40602412129,-0.769863848407,0.0292825566316,NaN,NaN,-0.0705895358547,-0.0161528043186,-0.0179064257938,NaN,NaN,-4.2014406,8.1869193,-0.02944935,NaN,2
1.55542457399907e+18,NaN,20872,NaN,1555424573,934497117,NaN,NaN,0.490450421325,-0.414012993847,-0.766394015956,0.026302803191,NaN,NaN,0.254041705017,-0.0178981335706,0.00303752523018,NaN,NaN,-4.2210735,9.8360829,0.42210735,NaN,2
1.55542457399993e+18,NaN,20873,NaN,1555424573,998349905,NaN,NaN,0.491543486819,-0.415657394004,-0.764902574518,0.0231944577787,NaN,NaN,0.0742727920613,-0.000444841050566,-0.122626180914,NaN,NaN,-4.2603393,9.02131755,-0.16687965,NaN,2
1.5554245740841e+18,NaN,20874,NaN,1555424573,999537944,NaN,NaN,0.491103817276,-0.417198226966,-0.764323864301,0.0239104691139,NaN,NaN,0.177247217929,-0.0126621458146,-0.0720116326058,NaN,NaN,-4.64318085,8.2065522,0.04908225,NaN,2
1.55542457412648e+18,NaN,20875,NaN,1555424574,83436012,NaN,NaN,0.492186863667,-0.402111374838,-0.771382849613,0.0320473521939,NaN,NaN,-0.472015263815,0.0152631222174,-0.0842289373698,NaN,NaN,-4.2407064,10.0324119,-1.26632205,NaN,2
1.55542457414742e+18,NaN,20876,NaN,1555424574,125894069,NaN,NaN,0.493112468854,-0.402164462059,-0.770877656397,0.0291800854378,NaN,NaN,0.0341302192653,-0.00917148731057,-0.204656655758,NaN,NaN,-4.17199125,8.2261851,0.4908225,NaN,2
1.55542457421159e+18,NaN,20877,NaN,1555424574,146831989,NaN,NaN,0.49311636049,-0.402762530631,-0.770555390466,0.0293766771427,NaN,NaN,-0.0915334868787,-0.0318607675866,-0.131352827174,NaN,NaN,-3.7498839,7.88260935,-0.9423792,NaN,5
1.555424574254e+18,NaN,20878,NaN,1555424574,210978984,NaN,NaN,0.492194667851,-0.39748721999,-0.773802649072,0.0312694607033,NaN,NaN,-0.232905156291,-0.0510593893586,-0.0772476203618,NaN,NaN,-5.2027185,9.2863617,0.08834805,NaN,2
1.55542457432408e+18,NaN,20879,NaN,1555424574,253474950,NaN,NaN,0.492746696419,-0.397244227817,-0.773637819945,0.0297025282635,NaN,NaN,-0.0147389997907,-0.00742615805857,-0.150551448946,NaN,NaN,-5.19290205,9.41397555,0.588987,NaN,2
1.5554245743599e+18,NaN,20880,NaN,1555424574,323349952,NaN,NaN,0.494904434438,-0.396415314168,-0.772470061321,0.0348497321301,NaN,NaN,-0.117713425659,0.107765572573,0.0327081225142,NaN,NaN,-4.5940986,8.245818,-0.77549955,NaN,2
1.55542457440235e+18,NaN,20881,NaN,1555424574,359388113,NaN,NaN,0.494331340249,-0.399744988203,-0.771203503492,0.0329488490853,NaN,NaN,0.166775242417,-0.0388420845946,-0.0755022911098,NaN,NaN,-4.56464925,9.8557158,0.38284155,NaN,2
1.55542457448769e+18,NaN,20882,NaN,1555424574,401803970,NaN,NaN,0.495600094176,-0.39971348671,-0.770437604194,0.0321803237947,NaN,NaN,0.00969560973728,0.0571510242654,-0.0720116326058,NaN,NaN,-4.74134535,6.74390115,0.75586665,NaN,5
1.55542457453015e+18,NaN,20883,NaN,1555424574,487029075,NaN,NaN,0.496084628947,-0.403264024376,-0.768355835233,0.0301243760153,NaN,NaN,0.0847447675733,0.00828180520943,-0.0371050475658,NaN,NaN,-4.6529973,9.9146145,-0.0588987,NaN,2
1.55542457457272e+18,NaN,20884,NaN,1555424574,529444932,NaN,NaN,0.497473071023,-0.40375955492,-0.767201585367,0.0300082126825,NaN,NaN,-0.0129936705387,0.0606416827694,-0.11040887615,NaN,NaN,-4.05419385,8.638476,-0.32394285,NaN,2
1.55542457462169e+18,NaN,20885,NaN,1555424574,572150945,NaN,NaN,0.498212680947,-0.404700115863,-0.766210695009,0.0303827519745,NaN,NaN,0.00271429272928,0.0501697072574,-0.0353597183138,NaN,NaN,-5.60519295,9.39434265,0.12761385,NaN,2
1.55542457465779e+18,NaN,20886,NaN,1555424574,621104001,NaN,NaN,0.498993062537,-0.392045696775,-0.772012064271,0.0361035704592,NaN,NaN,-0.650038847519,0.0100271344614,-0.14531546119,NaN,NaN,-3.7498839,7.56848295,-0.5497212,NaN,5
1.55542457472145e+18,NaN,20887,NaN,1555424574,657094001,NaN,NaN,0.500940201005,-0.38963930507,-0.772062700968,0.0340486818464,NaN,NaN,-0.0775708528627,0.0431883902494,-0.213383302018,NaN,NaN,-5.2223514,6.39050895,0.0588987,NaN,5
1.55542457478522e+18,NaN,20888,NaN,1555424574,720995903,NaN,NaN,0.499882733762,-0.391851828717,-0.771244258779,0.0418531972175,NaN,NaN,-0.110732108651,0.0571510242654,0.193278413698,NaN,NaN,-5.3990475,8.7955392,-1.3546701,NaN,5
1.55542457489142e+18,NaN,20889,NaN,1555424574,784580945,NaN,NaN,0.48731983067,-0.401381293515,-0.773209049923,0.059667453184,NaN,NaN,-0.102005462391,-0.117381900935,0.737821140322,NaN,NaN,-4.3585038,6.1254648,1.1976069,NaN,5
1.55542457489231e+18,NaN,20890,NaN,1555424574,890733003,NaN,NaN,0.466862346211,-0.429453725874,-0.766132842824,0.103196483324,NaN,NaN,0.0306395607613,0.0746043167854,1.05896172269,NaN,NaN,-3.7106181,3.87749775,-0.06871515,NaN,4
1.55542457492563e+18,NaN,20891,NaN,1555424574,891896963,NaN,NaN,0.46613636884,-0.432191105842,-0.764873417257,0.104385771298,NaN,NaN,0.0934714138333,0.133945511353,2.19691639499,NaN,NaN,-2.38539735,8.0298561,-1.9829229,NaN,4
1.55542457497664e+18,NaN,20892,NaN,1555424574,925153017,NaN,NaN,0.433697132634,-0.461462065184,-0.759921301789,0.146557751854,NaN,NaN,0.0568194995413,-0.396634581255,3.65252099116,NaN,NaN,-1.91420775,15.8633832,3.0627324,NaN,4
1.55542457499766e+18,NaN,20893,NaN,1555424574,975980997,NaN,NaN,0.429485317503,-0.46877503388,-0.757520852343,0.14817046914,NaN,NaN,0.161539254661,-0.0650220233746,0.188042425942,NaN,NaN,-1.10925885,9.0703998,0.50063895,NaN,2
1.55542457512525e+18,NaN,20894,NaN,1555424574,997014999,NaN,NaN,0.429040895219,-0.473838537918,-0.754540665454,0.14855751206,NaN,NaN,0.428574630217,0.113001560329,0.313706132086,NaN,NaN,-0.40247445,11.8190058,-0.6282528,NaN,5
1.55542457512575e+18,NaN,20895,NaN,1555424575,124521970,NaN,NaN,0.448231479413,-0.358511111682,-0.80718180299,0.137898007907,NaN,NaN,-1.66582047218,0.0798403045414,-1.17156906137,NaN,NaN,-0.9227463,12.90863175,1.2565056,NaN,4
1.55542457515996e+18,NaN,20896,NaN,1555424575,125463008,NaN,NaN,0.448132767857,-0.359086609027,-0.807188724492,0.136675501253,NaN,NaN,0.365742777145,0.692450871993,-0.52056125037,NaN,NaN,-2.4933783,7.25435655,0.2944935,NaN,5
1.55542457525283e+18,NaN,20897,NaN,1555424575,159270048,NaN,NaN,0.448607974675,-0.367620016999,-0.802889249481,0.13775072133,NaN,NaN,0.426829300965,0.144417486865,0.327668766102,NaN,NaN,-2.7289731,12.18221445,1.1190753,NaN,5
1.55542457525334e+18,NaN,20898,NaN,1555424575,252171993,NaN,NaN,0.481268076411,-0.347816036499,-0.802030406893,0.0644381082936,NaN,NaN,0.458245227501,0.0641323412734,-1.71436645874,NaN,NaN,-1.12889175,7.5390336,-0.9423792,NaN,5
1.55542457529515e+18,NaN,20899,NaN,1555424575,253007888,NaN,NaN,0.480728964036,-0.348413218561,-0.802159892499,0.0636191726982,NaN,NaN,0.119651352613,-0.581639481967,-0.819012552462,NaN,NaN,-1.8258597,7.6371981,1.44301815,NaN,5
1.55542457538082e+18,NaN,20900,NaN,1555424575,294511079,NaN,NaN,0.477232646265,-0.347210571321,-0.805466924996,0.0540078997815,NaN,NaN,0.0271489022573,-0.358237337711,-0.455984068046,NaN,NaN,-2.44429605,8.3243496,0.392658,NaN,5
1.55542457544398e+18,NaN,20901,NaN,1555424575,379909038,NaN,NaN,0.480760165307,-0.341000586833,-0.807453383381,0.0246433946678,NaN,NaN,0.151067279149,-0.194176388023,-0.717783455846,NaN,NaN,-3.17071335,9.11948205,-0.40247445,NaN,5
1.55542457557135e+18,NaN,20902,NaN,1555424575,443325042,NaN,NaN,0.488358128901,-0.326977350883,-0.808673339178,0.0252899277977,NaN,NaN,-0.414419398499,0.186305388913,-0.305885752374,NaN,NaN,-2.8860363,7.5194007,-1.63934715,NaN,5
1.55542457557218e+18,NaN,20903,NaN,1555424575,570653915,NaN,NaN,0.490717595239,-0.344134779604,-0.800441019396,0.00785300316542,NaN,NaN,0.370978764901,-0.00393549955457,-0.140079473434,NaN,NaN,-3.68116875,9.23727945,0.52027185,NaN,2
1.5554245756065e+18,NaN,20904,NaN,1555424575,571696043,NaN,NaN,0.489886059098,-0.34672847402,-0.799815889847,0.00924968938803,NaN,NaN,0.0271489022573,0.0187537807214,-0.185458033986,NaN,NaN,-3.4161246,9.62993745,0.44174025,NaN,2
1.55542457572001e+18,NaN,20905,NaN,1555424575,605845928,NaN,NaN,0.491646947981,-0.348207600737,-0.79810043389,0.00839301822181,NaN,NaN,0.0236582437533,0.0850762922974,-0.194184680246,NaN,NaN,-3.46520685,9.423792,-0.4711896,NaN,2
1.55542457584845e+18,NaN,20906,NaN,1555424575,719445943,NaN,NaN,0.492963964705,-0.348625221171,-0.797101273051,-0.00874900946314,NaN,NaN,0.128377998873,-0.0894566329026,-0.298904435366,NaN,NaN,-3.3179601,9.84589935,-0.9031134,NaN,2
1.55542457584932e+18,NaN,20907,NaN,1555424575,847856998,NaN,NaN,0.489446317855,-0.36270983287,-0.792300443364,-0.0338213914924,NaN,NaN,0.381450740413,-0.143561839715,-0.220364619026,NaN,NaN,-4.3388709,7.82371065,0.9620121,NaN,5
1.55542457588331e+18,NaN,20908,NaN,1555424575,848990917,NaN,NaN,0.489036072701,-0.364238528961,-0.791921385209,-0.0321641612088,NaN,NaN,-0.789665187679,0.0187537807214,-0.190694021742,NaN,NaN,-3.2786943,10.5625002,-0.63806925,NaN,2
1.55542457591668e+18,NaN,20909,NaN,1555424575,882586002,NaN,NaN,0.485447169494,-0.383645478602,-0.785481669348,-0.01325667745,NaN,NaN,0.508859775809,0.467303398485,1.52321930372,NaN,NaN,-4.34868735,11.37726555,1.67861295,NaN,4
1.55542457594995e+18,NaN,20910,NaN,1555424575,915956020,NaN,NaN,0.488416991417,-0.378336358759,-0.78591473975,-0.025464955921,NaN,NaN,0.0847447675733,-0.159269802983,-0.82599386947,NaN,NaN,-3.6713523,7.1071098,0.95219565,NaN,5
1.55542457598333e+18,NaN,20911,NaN,1555424575,949107885,NaN,NaN,0.491872954338,-0.376668098821,-0.784319433344,-0.0320182229267,NaN,NaN,0.0864900968253,0.0222444392254,-0.569430469426,NaN,NaN,-3.83823195,7.7942613,-0.2748606,NaN,5
1.55542457601649e+18,NaN,20912,NaN,1555424575,982640981,NaN,NaN,0.492034636966,-0.377288852295,-0.783654177179,-0.0379627257966,NaN,NaN,0.152812608401,-0.150543156723,-0.421077483006,NaN,NaN,-4.56464925,9.7379184,-0.4319238,NaN,5
1.55542457610255e+18,NaN,20913,NaN,1555424576,15913009,NaN,NaN,0.490312686321,-0.376596850951,-0.78521209171,-0.0347886837788,NaN,NaN,-0.222433180779,-0.0964379499106,0.0117641714902,NaN,NaN,-3.95602935,8.8151721,-0.1570632,NaN,2
1.55542457610305e+18,NaN,20914,NaN,1555424576,101852893,NaN,NaN,0.490518174788,-0.379212875212,-0.783454084168,-0.0422990954541,NaN,NaN,0.126632669621,-0.0562953771146,-0.168004741466,NaN,NaN,-4.64318085,9.04095045,-0.1374303,NaN,2
1.55542457611636e+18,NaN,20915,NaN,1555424576,102713108,NaN,NaN,0.490113735767,-0.381156584492,-0.7828499273,-0.0406715556309,NaN,NaN,0.0550741702893,-0.0667673526266,-0.0563036693378,NaN,NaN,-4.4370354,8.4225141,-0.10798095,NaN,2
1.55542457614999e+18,NaN,20916,NaN,1555424576,115896940,NaN,NaN,0.489581557047,-0.382478705654,-0.782636979603,-0.0387207551331,NaN,NaN,-0.0618628895947,0.0396977317454,0.00303752523018,NaN,NaN,-4.515567,8.638476,1.0209108,NaN,2
1.55542457625154e+18,NaN,20917,NaN,1555424576,149343967,NaN,NaN,0.490316138245,-0.386637822286,-0.780154579627,-0.0382113967375,NaN,NaN,0.163284583913,0.0711136582814,-0.0371050475658,NaN,NaN,-4.21125705,9.5612223,-0.97182855,NaN,2
1.55542457627313e+18,NaN,20918,NaN,1555424576,250802993,NaN,NaN,0.489331138193,-0.388361358938,-0.77971131407,-0.0421990377792,NaN,NaN,0.0568194995413,-0.0475687308546,-0.0842289373698,NaN,NaN,-4.3585038,8.37343185,0.6086199,NaN,2
1.55542457637902e+18,NaN,20919,NaN,1555424576,272299051,NaN,NaN,0.488831245164,-0.390969194703,-0.778768985397,-0.0413033888241,NaN,NaN,0.110924706353,-0.00568082880657,-0.0248877428018,NaN,NaN,-4.4959341,8.82498855,0.1177974,NaN,2
1.55542457646469e+18,NaN,20920,NaN,1555424576,378323078,NaN,NaN,0.492748673859,-0.394361702986,-0.774447292161,-0.0436919133488,NaN,NaN,0.0829994383213,0.0676229997774,-0.0842289373698,NaN,NaN,-4.319238,9.0900327,-0.50063895,NaN,2
1.55542457646633e+18,NaN,20921,NaN,1555424576,464026927,NaN,NaN,0.494158261794,-0.398335532076,-0.771225470963,-0.0484529578428,NaN,NaN,0.138849974385,0.00653647595743,-0.108663546898,NaN,NaN,-4.60391505,8.11820415,-0.10798095,NaN,2
1.55542457646779e+18,NaN,20922,NaN,1555424576,465467929,NaN,NaN,0.493889928153,-0.400237617604,-0.770509950592,-0.046872213125,NaN,NaN,0.154557937653,-0.0842206451466,-0.0720116326058,NaN,NaN,-4.81987695,8.834805,-0.71660085,NaN,2
1.55542457650644e+18,NaN,20923,NaN,1555424576,467035055,NaN,NaN,0.492948399665,-0.401501773071,-0.770571694121,-0.0449162076358,NaN,NaN,-0.337624911411,0.0152631222174,-0.0475770230778,NaN,NaN,-4.13272545,8.9329695,1.22705625,NaN,2
1.55542457661323e+18,NaN,20924,NaN,1555424576,505800008,NaN,NaN,0.492383853874,-0.405978005703,-0.768422625265,-0.0476095401245,NaN,NaN,0.259277692773,-0.0440780723506,-0.117390193158,NaN,NaN,-4.05419385,8.5795773,-0.0392658,NaN,2
1.55542457661386e+18,NaN,20925,NaN,1555424576,612293004,NaN,NaN,0.489980464745,-0.407840855088,-0.768585204216,-0.0534954666286,NaN,NaN,0.0690368043053,-0.0964379499106,-0.0929555836298,NaN,NaN,-4.42721895,8.25563445,-0.52027185,NaN,2
1.55542457665523e+18,NaN,20926,NaN,1555424576,613404989,NaN,NaN,0.489539996494,-0.409186866619,-0.768259047461,-0.0519108467799,NaN,NaN,0.00445962198128,-0.0440780723506,-0.218619289774,NaN,NaN,-4.74134535,8.29490025,0.3337593,NaN,2
1.55542457671907e+18,NaN,20927,NaN,1555424576,654694080,NaN,NaN,0.489628552448,-0.411566829108,-0.766890251246,-0.0524973175397,NaN,NaN,0.0987074015893,-0.0161528043186,-0.0650303155978,NaN,NaN,-5.60519295,8.88388725,-0.5693541,NaN,2
1.55542457676127e+18,NaN,20928,NaN,1555424576,718384027,NaN,NaN,0.490719907614,-0.410796141303,-0.766311475814,-0.0566323635202,NaN,NaN,0.0393662070213,-0.0388420845946,-0.190694021742,NaN,NaN,-5.13400335,8.3636154,0.28467705,NaN,2
1.55542457680378e+18,NaN,20929,NaN,1555424576,760689973,NaN,NaN,0.489884809636,-0.415203724899,-0.764374367487,-0.0578840776561,NaN,NaN,0.196445839701,-0.0458234016026,-0.0405957060698,NaN,NaN,-4.87877565,8.9918682,-0.81476535,NaN,2
1.55542457684616e+18,NaN,20930,NaN,1555424576,803244113,NaN,NaN,0.490550674992,-0.415435640338,-0.763678223021,-0.0597397328863,NaN,NaN,0.0550741702893,-0.0231341213266,-0.150551448946,NaN,NaN,-4.42721895,7.35252105,0.0981645,NaN,5
1.55542457691031e+18,NaN,20931,NaN,1555424576,845554113,NaN,NaN,0.489729459898,-0.415232697991,-0.764500121727,-0.0573273626272,NaN,NaN,-0.0845521698707,-0.0196434628226,-0.000453133273816,NaN,NaN,-5.0260224,8.70719115,0.85403115,NaN,2
1.55542457699535e+18,NaN,20932,NaN,1555424576,909625053,NaN,NaN,0.493316353759,-0.412949885116,-0.763589351912,-0.0551603946938,NaN,NaN,-0.0897881576267,0.102529584817,-0.0737569618578,NaN,NaN,-6.52793925,7.96114095,0.34357575,NaN,5
1.55542457701653e+18,NaN,20933,NaN,1555424576,994893074,NaN,NaN,0.491996247856,-0.411702974686,-0.765908768508,-0.0427096131225,NaN,NaN,-0.199743900503,0.0484243780054,0.189787755194,NaN,NaN,-4.91804145,7.1660085,-0.48100605,NaN,5
1.55542457705876e+18,NaN,20934,NaN,1555424577,15844106,NaN,NaN,0.489255173488,-0.412605554887,-0.767479835504,-0.036888119855,NaN,NaN,-0.236395814795,-0.0580407063666,0.577250849138,NaN,NaN,-4.3781367,6.3806925,0.48100605,NaN,5
1.55542457720717e+18,NaN,20935,NaN,1555424577,58248043,NaN,NaN,0.481718929873,-0.412893284327,-0.772784449442,-0.0164378544803,NaN,NaN,-0.547064421651,-0.000444841050566,0.90188209001,NaN,NaN,-3.95602935,6.0469332,0.32394285,NaN,5
1.55542457720767e+18,NaN,20936,NaN,1555424577,206634044,NaN,NaN,0.435869805192,-0.458751865232,-0.770290343246,0.0788481209006,NaN,NaN,-0.119458754911,0.0885669508014,1.53892726699,NaN,NaN,-3.6320865,8.6973747,2.60135925,NaN,4
1.55542457724151e+18,NaN,20937,NaN,1555424577,207392930,NaN,NaN,0.435439629588,-0.459132190842,-0.770270845529,0.0792009144184,NaN,NaN,-0.248613119559,0.208994669189,1.86006784936,NaN,NaN,-2.7093402,4.5548328,-0.785316,NaN,4
1.55542457727541e+18,NaN,20938,NaN,1555424577,240956068,NaN,NaN,0.4167294461,-0.47237488945,-0.768455402574,0.112582533392,NaN,NaN,-0.314935631135,0.0641323412734,2.40461057598,NaN,NaN,-1.56081555,19.1420775,-1.40375235,NaN,4
1.55542457733536e+18,NaN,20939,NaN,1555424577,274629116,NaN,NaN,0.412572180534,-0.47970536154,-0.765173810735,0.119063014092,NaN,NaN,0.220880449229,0.0519150365094,0.62262940969,NaN,NaN,-0.34357575,16.0597122,0.22577835,NaN,4
1.55542457739929e+18,NaN,20940,NaN,1555424577,334809064,NaN,NaN,0.406604524554,-0.478939530837,-0.76834020195,0.122241647902,NaN,NaN,-0.175309290975,-0.127853876447,0.0955399755862,NaN,NaN,-1.52154975,8.78572275,0.4319238,NaN,2
1.55542457746302e+18,NaN,20941,NaN,1555424577,398406028,NaN,NaN,0.407768968388,-0.485016074619,-0.764188283472,0.120416540326,NaN,NaN,0.201681827457,0.0431883902494,-0.0283784013058,NaN,NaN,-1.2761385,9.6593868,0.3337593,NaN,2
1.55542457746354e+18,NaN,20942,NaN,1555424577,461827993,NaN,NaN,0.403856571292,-0.457989676542,-0.781348112437,0.128997880591,NaN,NaN,-1.09160714827,-0.0720033403826,-0.202911326506,NaN,NaN,-1.10925885,10.84717725,-0.4319238,NaN,5
1.55542457752685e+18,NaN,20943,NaN,1555424577,463058948,NaN,NaN,0.402034100527,-0.45868286601,-0.781665862515,0.130296161957,NaN,NaN,-1.9014399212,-0.106909925423,-0.569430469426,NaN,NaN,-0.06871515,10.19929155,1.96329,NaN,5
1.55542457754772e+18,NaN,20944,NaN,1555424577,526135921,NaN,NaN,0.382986202199,-0.419891872198,-0.802035782763,0.183714419019,NaN,NaN,-2.03583027361,0.231683949465,1.04150843017,NaN,NaN,-4.64318085,7.39178685,3.38667525,NaN,5
1.55542457761137e+18,NaN,20945,NaN,1555424577,546971082,NaN,NaN,0.369073798026,-0.415725352514,-0.803414125996,0.213266746208,NaN,NaN,-1.75832292254,0.235174607969,2.70131654882,NaN,NaN,-0.4908225,12.16258155,3.141264,NaN,4
1.55542457765411e+18,NaN,20946,NaN,1555424577,610723018,NaN,NaN,0.345030215077,-0.409938380269,-0.801020703765,0.266965367053,NaN,NaN,-0.943254161855,0.208994669189,1.59652313231,NaN,NaN,-0.73623375,9.7771842,2.99401725,NaN,4
1.55542457769669e+18,NaN,20947,NaN,1555424577,653453111,NaN,NaN,0.343504411799,-0.41914159715,-0.785430702339,0.299037877929,NaN,NaN,0.0777634505653,0.764009371325,1.60350444931,NaN,NaN,-0.44174025,7.68628035,2.0025558,NaN,4
1.55542457776092e+18,NaN,20948,NaN,1555424577,696033954,NaN,NaN,0.34654237165,-0.429275540962,-0.771088141928,0.317889873951,NaN,NaN,0.329090862853,0.652308299197,0.990893881862,NaN,NaN,-0.50063895,8.5206786,1.8651255,NaN,5
1.5554245778027e+18,NaN,20949,NaN,1555424577,760272979,NaN,NaN,0.369938536202,-0.440158835899,-0.758987984925,0.305520731459,NaN,NaN,0.781131139121,0.489992678761,-0.39838820273,NaN,NaN,0.24541125,8.56976085,3.8087826,NaN,5
1.55542457784496e+18,NaN,20950,NaN,1555424577,802134037,NaN,NaN,0.38620040304,-0.443314000336,-0.754025223002,0.292861586546,NaN,NaN,0.678156713253,0.467303398485,-0.698584834074,NaN,NaN,1.0012779,7.23472365,4.13272545,NaN,5
1.55542457790886e+18,NaN,20951,NaN,1555424577,844448089,NaN,NaN,0.393451133744,-0.437180865893,-0.753413172767,0.294002868955,NaN,NaN,-0.129930730423,0.495228666517,-0.27621515509,NaN,NaN,0.588987,8.2850838,3.9462129,NaN,2
1.55542457795141e+18,NaN,20952,NaN,1555424577,908345937,NaN,NaN,0.415168383582,-0.430028625547,-0.750361764335,0.282254879688,NaN,NaN,0.199936498205,0.531880580809,-0.688112858562,NaN,NaN,0.97182855,10.06186125,3.5535549,NaN,5
1.55542457803644e+18,NaN,20953,NaN,1555424577,950870037,NaN,NaN,0.424305745008,-0.427642690403,-0.750735424551,0.271076901306,NaN,NaN,0.231352424741,0.238665266473,-0.714292797342,NaN,NaN,0.71660085,8.98205175,3.6124536,NaN,5
1.55542457805765e+18,NaN,20954,NaN,1555424578,35814046,NaN,NaN,0.424475670647,-0.424434659218,-0.755542820418,0.262356001641,NaN,NaN,-0.0304469630587,-0.0562953771146,-0.263997850326,NaN,NaN,0.81476535,9.4826907,3.3768588,NaN,2
1.55542457810009e+18,NaN,20955,NaN,1555424578,57122945,NaN,NaN,0.421401928231,-0.424283955075,-0.758312975368,0.259547629034,NaN,NaN,-0.156110669203,-0.223846985307,-0.339047008162,NaN,NaN,0.93256275,9.81645,3.1216311,NaN,2
1.55542457816428e+18,NaN,20956,NaN,1555424578,99392890,NaN,NaN,0.417607644327,-0.423181907569,-0.763546699245,0.252026519593,NaN,NaN,-0.0705895358547,-0.272716204363,-0.365226946942,NaN,NaN,0.44174025,9.21764655,3.2786943,NaN,2
1.55542457820641e+18,NaN,20957,NaN,1555424578,163656949,NaN,NaN,0.41359168371,-0.424544782419,-0.77012893442,0.235807275664,NaN,NaN,0.103943389345,-0.342529374443,-0.422822812258,NaN,NaN,0.22577835,9.98332965,3.3179601,NaN,5
1.55542457824905e+18,NaN,20958,NaN,1555424578,205955028,NaN,NaN,0.412710268147,-0.42774186748,-0.772296225395,0.224200066039,NaN,NaN,0.262768351277,-0.251772253339,-0.445512092534,NaN,NaN,-0.196329,9.031134,3.1805298,NaN,5
1.55542457834064e+18,NaN,20959,NaN,1555424578,248394966,NaN,NaN,0.406587033996,-0.428403895504,-0.77629206625,0.220290067823,NaN,NaN,-0.0775708528627,-0.305877460151,-0.113899534654,NaN,NaN,-0.7656831,8.6777418,2.87621985,NaN,2
1.5554245783553e+18,NaN,20960,NaN,1555424578,339900970,NaN,NaN,0.394809688104,-0.439303437897,-0.778416514513,0.212615920299,NaN,NaN,0.165029913165,-0.309368118655,0.0396894395222,NaN,NaN,-1.0994424,9.62993745,3.3179601,NaN,2
1.55542457839737e+18,NaN,20961,NaN,1555424578,354779005,NaN,NaN,0.392285353046,-0.44281608366,-0.778439342037,0.209900711304,NaN,NaN,0.386686728169,-0.319840094167,-0.10168222989,NaN,NaN,-1.24668915,9.3256275,3.4946562,NaN,2
1.55542457848262e+18,NaN,20962,NaN,1555424578,396852970,NaN,NaN,0.384465615335,-0.44632386471,-0.780478927602,0.209365331384,NaN,NaN,0.00620495123328,-0.304132130899,0.146154523894,NaN,NaN,-1.58044845,9.29617815,3.74006745,NaN,2
1.5554245785049e+18,NaN,20963,NaN,1555424578,482110977,NaN,NaN,0.379571234802,-0.446863136327,-0.780862697972,0.215621107546,NaN,NaN,-0.0862974991227,0.00130048820143,0.147899853146,NaN,NaN,-1.54118265,9.3059946,3.24924495,NaN,2
1.5554245785466e+18,NaN,20964,NaN,1555424578,504005908,NaN,NaN,0.379771185202,-0.446171604998,-0.781549017742,0.214209893914,NaN,NaN,-0.0740801943587,0.0763496460374,-0.25003521631,NaN,NaN,-0.99146145,8.8740708,3.0038337,NaN,2
1.55542457860996e+18,NaN,20965,NaN,1555424578,545892000,NaN,NaN,0.381577890042,-0.449352491745,-0.781498607355,0.204305111773,NaN,NaN,0.295929607065,-0.112145913179,-0.39838820273,NaN,NaN,-1.3939359,8.90352015,3.0430995,NaN,2
1.55542457865264e+18,NaN,20966,NaN,1555424578,609380960,NaN,NaN,0.388179094488,-0.466380310477,-0.776117287911,0.171605221387,NaN,NaN,0.915521491525,-0.312858777159,-0.702075492578,NaN,NaN,-0.91292985,10.5821331,2.60135925,NaN,5
1.55542457869523e+18,NaN,20967,NaN,1555424578,652023077,NaN,NaN,0.393723668189,-0.481708193325,-0.771260044264,0.134524472544,NaN,NaN,1.3745430848,-0.618291396259,-1.17855037837,NaN,NaN,1.570632,11.1514872,2.6308086,NaN,5
1.55542457875875e+18,NaN,20968,NaN,1555424578,694612026,NaN,NaN,0.392225735144,-0.506239059258,-0.763403823503,0.0842353241461,NaN,NaN,1.96620970123,-1.19425004942,-1.38449923011,NaN,NaN,-1.2368727,9.6790197,0.8049489,NaN,5
1.55542457880164e+18,NaN,20969,NaN,1555424578,758069038,NaN,NaN,0.386754863125,-0.512866751638,-0.765101288539,0.0448150553934,NaN,NaN,0.632778152701,-0.792824321459,-0.798068601438,NaN,NaN,-4.85914275,8.834805,3.56337135,NaN,5
1.55542457884422e+18,NaN,20970,NaN,1555424578,800935983,NaN,NaN,0.399789542172,-0.516919166692,-0.755853347252,0.0406031344005,NaN,NaN,0.477443849273,0.510936629785,-0.37220826395,NaN,NaN,-1.14852465,11.84845515,-0.4711896,NaN,5
1.55542457890745e+18,NaN,20971,NaN,1555424578,843544006,NaN,NaN,0.389082537548,-0.539100394764,-0.746949557394,0.007204307643,NaN,NaN,1.55605732701,-1.13490885485,-0.550231847654,NaN,NaN,-3.58300425,8.5206786,-2.355948,NaN,5
1.55542457895003e+18,NaN,20972,NaN,1555424578,906933069,NaN,NaN,0.379897646892,-0.548541345494,-0.744482161933,-0.0229451679904,NaN,NaN,0.681647371757,-0.700321871103,-0.469946702062,NaN,NaN,-4.2407064,9.04095045,3.6909852,NaN,5
1.55542457901447e+18,NaN,20973,NaN,1555424578,949552059,NaN,NaN,0.379766147066,-0.536610813461,-0.753145070207,-0.0244747143361,NaN,NaN,-0.587206994447,-0.248281594835,-0.260507191822,NaN,NaN,-4.44685185,6.58683795,0.5300883,NaN,5
1.55542457905661e+18,NaN,20974,NaN,1555424579,13582944,NaN,NaN,0.365461626177,-0.525644630712,-0.768071743798,-0.0141886706907,NaN,NaN,-0.630840225747,-0.387907934995,0.32592343685,NaN,NaN,-4.17199125,9.41397555,-0.24541125,NaN,5
1.55542457914145e+18,NaN,20975,NaN,1555424579,56060075,NaN,NaN,0.362435195389,-0.525944114103,-0.769430243999,-0.000785877113018,NaN,NaN,-0.300972997119,0.125218865093,0.516164325318,NaN,NaN,-3.91676355,8.72682405,-1.6098978,NaN,5
1.55542457916245e+18,NaN,20976,NaN,1555424579,140849113,NaN,NaN,0.387208918927,-0.494368947183,-0.774896994351,0.0721335241772,NaN,NaN,-1.26963073198,1.31378808571,0.732585152566,NaN,NaN,-4.27015575,9.2667288,2.3755809,NaN,5
1.55542457920504e+18,NaN,20977,NaN,1555424579,161907911,NaN,NaN,0.399687769116,-0.484059537808,-0.772436750263,0.0963198729211,NaN,NaN,-1.53317544903,2.2265952845,0.65753599473,NaN,NaN,-1.8258597,10.04222835,0.7460502,NaN,5
1.55542457924802e+18,NaN,20978,NaN,1555424579,204524993,NaN,NaN,0.420595277925,-0.484286530289,-0.759545916912,0.10796373868,NaN,NaN,0.149321949897,1.28586281767,-0.0667756448498,NaN,NaN,-2.34613155,10.27782315,1.34485365,NaN,2
1.55542457931172e+18,NaN,20979,NaN,1555424579,247370004,NaN,NaN,0.414247806922,-0.470554682122,-0.769872677923,0.119470102453,NaN,NaN,-0.993868710163,-0.0562953771146,0.121719914366,NaN,NaN,-0.5497212,8.80535565,2.11053675,NaN,2
1.55542457935381e+18,NaN,20980,NaN,1555424579,311043024,NaN,NaN,0.407072274948,-0.4915102844,-0.76158416599,0.112691443378,NaN,NaN,0.683392701009,-0.222101656055,0.182806438186,NaN,NaN,-1.177974,10.35635475,2.0810874,NaN,2
1.55542457939656e+18,NaN,20981,NaN,1555424579,353238105,NaN,NaN,0.397292013014,-0.501519028009,-0.762152783882,0.0987970392335,NaN,NaN,0.568200970377,-0.719520492875,-0.141824802686,NaN,NaN,-2.73878955,9.5023236,2.34613155,NaN,2
1.55542457946058e+18,NaN,20982,NaN,1555424579,395996093,NaN,NaN,0.391186420425,-0.505082680347,-0.765030136505,0.0812007433895,NaN,NaN,0.369233435649,-0.684613907835,-0.48565466533,NaN,NaN,-2.8467705,8.84462145,2.36576445,NaN,5
1.55542457954522e+18,NaN,20983,NaN,1555424579,459908962,NaN,NaN,0.381803223713,-0.505551837694,-0.771246872329,0.0618215147833,NaN,NaN,0.121396681865,-0.611310079251,-0.366972276194,NaN,NaN,-2.77805535,8.7366405,1.3939359,NaN,2
1.5554245795667e+18,NaN,20984,NaN,1555424579,544626951,NaN,NaN,0.402535973646,-0.491071357864,-0.766463400059,0.0966828204832,NaN,NaN,-0.545319092399,0.837313199909,0.233420986494,NaN,NaN,-2.7289731,9.9735132,-2.9842008,NaN,5
1.55542457960931e+18,NaN,20985,NaN,1555424579,566003084,NaN,NaN,0.402391522392,-0.494177029671,-0.76433561804,0.0982913477781,NaN,NaN,0.0917260845813,0.0588963535174,0.14266386539,NaN,NaN,-2.8664034,9.3059946,-1.766961,NaN,2
1.55542457965149e+18,NaN,20986,NaN,1555424579,608683109,NaN,NaN,0.396269027395,-0.489814492272,-0.769211051675,0.106616035701,NaN,NaN,-0.478996580823,-0.0877113036506,0.285780864054,NaN,NaN,-2.9645679,9.0507669,1.32522075,NaN,5
1.5554245796939e+18,NaN,20987,NaN,1555424579,650651931,NaN,NaN,0.391400933419,-0.487656134237,-0.772205601753,0.112673478162,NaN,NaN,-0.311444972631,-0.0667673526266,0.22120368173,NaN,NaN,-2.1007203,10.6802976,1.60008135,NaN,5
1.55542457975772e+18,NaN,20988,NaN,1555424579,693324089,NaN,NaN,0.38983978909,-0.488804803668,-0.772192881207,0.113194332748,NaN,NaN,-0.0129936705387,-0.0405874138466,0.0100188422382,NaN,NaN,-2.30686575,10.5428673,0.981645,NaN,2
1.55542457980031e+18,NaN,20989,NaN,1555424579,757184028,NaN,NaN,0.389056061542,-0.486298155928,-0.774451709605,0.111238635415,NaN,NaN,-0.102005462391,-0.0632766941226,-0.115644863906,NaN,NaN,-2.4737454,9.7379184,0.8049489,NaN,2
1.55542457986383e+18,NaN,20990,NaN,1555424579,799649953,NaN,NaN,0.388307241379,-0.489141906731,-0.773736475108,0.106252286839,NaN,NaN,0.170265900921,-0.134835193455,-0.181967375482,NaN,NaN,-1.91420775,9.04095045,0.8638476,NaN,2
1.55542457990651e+18,NaN,20991,NaN,1555424579,863151073,NaN,NaN,0.387826946365,-0.507300659712,-0.763900241555,0.0932347643349,NaN,NaN,0.744479224829,-0.147052498219,-0.0929555836298,NaN,NaN,-2.7093402,9.33544395,1.5117333,NaN,2
1.55542457994889e+18,NaN,20992,NaN,1555424579,905725002,NaN,NaN,0.388054511965,-0.50819145063,-0.763239039964,0.0928510265149,NaN,NaN,0.0428568655253,0.0152631222174,-0.0650303155978,NaN,NaN,-2.552277,10.10112705,1.54118265,NaN,2
1.55542458001281e+18,NaN,20993,NaN,1555424579,948276042,NaN,NaN,0.38958119105,-0.509965139435,-0.761447261672,0.0914336909104,NaN,NaN,0.112670035605,0.0431883902494,-0.105172888394,NaN,NaN,-2.6504415,9.1096656,0.67733505,NaN,2
1.55542458005532e+18,NaN,20994,NaN,1555424580,12168884,NaN,NaN,0.394141659146,-0.517437929183,-0.754936564581,0.0835531293673,NaN,NaN,0.386686728169,0.0414430609974,-0.174986058474,NaN,NaN,-2.64062505,10.8962595,1.1387082,NaN,5
1.55542458009807e+18,NaN,20995,NaN,1555424580,54713010,NaN,NaN,0.39731786481,-0.516290367072,-0.754686603525,0.0776588799256,NaN,NaN,0.0323848900133,-0.0475687308546,-0.373953593202,NaN,NaN,-2.73878955,9.90479805,-1.0994424,NaN,2
1.55542458016184e+18,NaN,20996,NaN,1555424580,97347974,NaN,NaN,0.399051962598,-0.518402199824,-0.753004887422,0.0707130107063,NaN,NaN,0.278476314545,-0.0650220233746,-0.286687130602,NaN,NaN,-3.0823653,7.9709574,2.44429605,NaN,5
1.55542458022519e+18,NaN,20997,NaN,1555424580,161137104,NaN,NaN,0.405383142962,-0.517564479703,-0.750366653682,0.0688578375613,NaN,NaN,0.0515835117853,0.151398803873,-0.190694021742,NaN,NaN,-3.1608969,9.43360845,0.7656831,NaN,2
1.55542458024689e+18,NaN,20998,NaN,1555424580,224601984,NaN,NaN,0.407213063133,-0.523952804242,-0.745732837778,0.0594433747377,NaN,NaN,0.344798826121,-0.0737486696346,-0.169750070718,NaN,NaN,-3.1608969,7.45068555,-0.8049489,NaN,5
1.55542458033217e+18,NaN,20999,NaN,1555424580,245815038,NaN,NaN,0.404728743017,-0.526188407346,-0.74536009534,0.0613085053231,NaN,NaN,0.0760181213133,-0.0929472914066,0.22993032799,NaN,NaN,-3.141264,8.88388725,0.7264173,NaN,5
1.55542458035297e+18,NaN,21000,NaN,1555424580,331331014,NaN,NaN,0.405467020845,-0.541183672019,-0.734268122522,0.0597248055247,NaN,NaN,0.412866666949,0.0728589875334,0.0972853048382,NaN,NaN,-3.0823653,10.6213989,0.48100605,NaN,2
1.55542458041641e+18,NaN,21001,NaN,1555424580,352097988,NaN,NaN,0.4061709749,-0.541854775244,-0.733190786991,0.0620468497552,NaN,NaN,-0.0426642678227,0.158380120881,0.0676147075542,NaN,NaN,-3.05291595,8.17710285,-0.77549955,NaN,5
1.5554245804596e+18,NaN,21002,NaN,1555424580,415703058,NaN,NaN,0.404253829718,-0.541786677188,-0.733468144743,0.0712075714233,NaN,NaN,-0.142148035187,0.0990389263134,0.20375038921,NaN,NaN,-2.95475145,9.53177295,-0.26504415,NaN,2
1.55542458050857e+18,NaN,21003,NaN,1555424580,458990097,NaN,NaN,0.403554463394,-0.538862579134,-0.735305480958,0.0780817876132,NaN,NaN,-0.288755692355,0.118237548085,0.13393721913,NaN,NaN,-2.95475145,9.6593868,0.3337593,NaN,2
1.55542458054381e+18,NaN,21004,NaN,1555424580,508011102,NaN,NaN,0.403167535655,-0.53994290397,-0.734387577856,0.0811941139277,NaN,NaN,-0.0164843290427,0.0623870120214,0.0711053660582,NaN,NaN,-2.87621985,9.98332965,0.0588987,NaN,2
1.55542458060792e+18,NaN,21005,NaN,1555424580,543142080,NaN,NaN,0.403085873843,-0.541169108103,-0.73339552995,0.0823940009508,NaN,NaN,0.0306395607613,0.0414430609974,0.0204908177502,NaN,NaN,-2.8467705,9.13911495,0.0196329,NaN,2
1.55542458069279e+18,NaN,21006,NaN,1555424580,607244968,NaN,NaN,0.403742062459,-0.533174170719,-0.737826105382,0.0912704163312,NaN,NaN,-0.393475447475,0.121728206589,0.0414347687742,NaN,NaN,-2.79768825,9.90479805,-0.6282528,NaN,2
1.55542458071388e+18,NaN,21007,NaN,1555424580,692246913,NaN,NaN,0.401660957809,-0.499979584768,-0.761416217177,0.0945210770559,NaN,NaN,-0.910092906067,-0.145307168967,-0.283196472098,NaN,NaN,-3.48483975,11.9368032,0.8049489,NaN,5
1.55542458077835e+18,NaN,21008,NaN,1555424580,713318109,NaN,NaN,0.401109085614,-0.496659684255,-0.762183188701,0.107319366076,NaN,NaN,-0.801882492443,0.584240458369,0.772727725362,NaN,NaN,-3.42594105,10.7391963,1.06999305,NaN,5
1.55542458079963e+18,NaN,21009,NaN,1555424580,777385950,NaN,NaN,0.405773718117,-0.504418896851,-0.755313329263,0.102034508,NaN,NaN,0.346544155373,0.0885669508014,-0.113899534654,NaN,NaN,-3.0038337,9.5612223,0.12761385,NaN,2
1.55542458090487e+18,NaN,21010,NaN,1555424580,798423051,NaN,NaN,0.406789923122,-0.503758555286,-0.756358922983,0.0931152836376,NaN,NaN,0.250551046513,-0.379181288735,-0.723019443602,NaN,NaN,-2.0614545,6.95986305,1.7276952,NaN,5
1.55542458090584e+18,NaN,21011,NaN,1555424580,904310941,NaN,NaN,0.407884670061,-0.516435734916,-0.749567221238,0.0712264590968,NaN,NaN,0.398904032933,-0.171487107747,-0.237817911546,NaN,NaN,-3.17071335,9.3648933,-0.7264173,NaN,2
1.55542458094791e+18,NaN,21012,NaN,1555424580,905394077,NaN,NaN,0.408065422313,-0.51747855381,-0.748708733191,0.0716504731601,NaN,NaN,0.100452730841,0.102529584817,-0.789341955178,NaN,NaN,-2.7289731,8.21636865,-1.10925885,NaN,5
1.55542458103327e+18,NaN,21013,NaN,1555424580,947304010,NaN,NaN,0.409873283425,-0.526633960833,-0.741743237577,0.0669143657294,NaN,NaN,0.587399592149,0.0431883902494,-0.0475770230778,NaN,NaN,-4.01492805,8.8740708,0.5104554,NaN,2
1.55542458107549e+18,NaN,21014,NaN,1555424581,32577991,NaN,NaN,0.420976666816,-0.520663279827,-0.740613074678,0.0563974170707,NaN,NaN,0.0254035730053,0.0798403045414,-0.39838820273,NaN,NaN,-3.7891497,8.60902665,0.588987,NaN,5
1.55542458113892e+18,NaN,21015,NaN,1555424581,74858903,NaN,NaN,0.422548288781,-0.525770551494,-0.736249903437,0.0543539374618,NaN,NaN,0.304656253325,0.0571510242654,-0.0563036693378,NaN,NaN,-3.4553904,9.2667288,-0.5300883,NaN,2
1.55542458116024e+18,NaN,21016,NaN,1555424581,138175010,NaN,NaN,0.423061613432,-0.527801819417,-0.734700347958,0.0515704311654,NaN,NaN,0.105688718597,-0.0248794505786,-0.0737569618578,NaN,NaN,-3.97566225,8.94278595,0.2748606,NaN,2
1.55542458128754e+18,NaN,21017,NaN,1555424581,159549951,NaN,NaN,0.423801575485,-0.52792252379,-0.734251989379,0.0506364452246,NaN,NaN,0.0480928532813,-0.00742615805857,-0.187203363238,NaN,NaN,-3.95602935,9.04095045,0.06871515,NaN,2
1.55542458130928e+18,NaN,21018,NaN,1555424581,286906957,NaN,NaN,0.424453209705,-0.532461063635,-0.730857411391,0.046606144432,NaN,NaN,0.0987074015893,-0.0161528043186,-0.0353597183138,NaN,NaN,-4.17199125,9.70846905,-0.95219565,NaN,2
1.55542458133697e+18,NaN,21019,NaN,1555424581,308806896,NaN,NaN,0.423906864655,-0.532887569536,-0.730901242783,0.0460128420206,NaN,NaN,0.0393662070213,-0.0912019621546,-0.10168222989,NaN,NaN,-3.730251,9.23727945,0.2944935,NaN,2
1.555424581394e+18,NaN,21020,NaN,1555424581,336361885,NaN,NaN,0.42345767027,-0.534560679465,-0.730093715687,0.0434930773096,NaN,NaN,0.161539254661,-0.145307168967,-0.129607497922,NaN,NaN,-4.0836432,8.90352015,-0.7460502,NaN,2
1.55542458141625e+18,NaN,21021,NaN,1555424581,393423080,NaN,NaN,0.422642489706,-0.531538440764,-0.732735999729,0.0440246134176,NaN,NaN,-0.126440071919,-0.0475687308546,-0.0510676815818,NaN,NaN,-4.07382675,8.68755825,1.0994424,NaN,2
1.55542458154396e+18,NaN,21022,NaN,1555424581,415477991,NaN,NaN,0.422669055098,-0.532888518935,-0.731753199482,0.0437944208565,NaN,NaN,0.119651352613,-0.0178981335706,-0.0528130108338,NaN,NaN,-3.99529515,9.09984915,-0.24541125,NaN,2
1.55542458160668e+18,NaN,21023,NaN,1555424581,543283939,NaN,NaN,0.424129757061,-0.522163042187,-0.738595269629,0.0440083427509,NaN,NaN,-0.184035937235,-0.0248794505786,-0.10168222989,NaN,NaN,-4.0051116,10.209108,-0.0196329,NaN,2
1.55542458160731e+18,NaN,21024,NaN,1555424581,606050968,NaN,NaN,0.426326950485,-0.523751800826,-0.736702859217,0.0346161760374,NaN,NaN,0.189464522693,-0.0964379499106,-0.26748850883,NaN,NaN,-4.1621748,9.0703998,-0.1766961,NaN,2
1.55542458161153e+18,NaN,21025,NaN,1555424581,607059001,NaN,NaN,0.426135755035,-0.524167555739,-0.736479825797,0.0354140930463,NaN,NaN,-0.159601327707,-0.0789846573906,-0.283196472098,NaN,NaN,-4.34868735,9.2863617,0.14724675,NaN,2
1.55542458164868e+18,NaN,21026,NaN,1555424581,611067056,NaN,NaN,0.425957802713,-0.524272416517,-0.736492926553,0.0357288780198,NaN,NaN,0.0306395607613,-0.0737486696346,-0.414096165998,NaN,NaN,-3.81859905,9.04095045,0.8442147,NaN,2
1.55542458175614e+18,NaN,21027,NaN,1555424581,648188114,NaN,NaN,0.428350185221,-0.523657394598,-0.735852224438,0.0286453432982,NaN,NaN,0.133613986629,-0.129599205699,-0.41584149525,NaN,NaN,-3.89713065,8.00040675,-0.7656831,NaN,5
1.55542458177665e+18,NaN,21028,NaN,1555424581,755482912,NaN,NaN,0.430692503818,-0.505770777081,-0.747192739665,0.0200723191704,NaN,NaN,-0.295737009363,-0.147052498219,-0.304140423122,NaN,NaN,-4.64318085,7.9513245,-0.5104554,NaN,5
1.55542458184098e+18,NaN,21029,NaN,1555424581,775983095,NaN,NaN,0.432510306394,-0.505296595489,-0.746588154082,0.0147076046633,NaN,NaN,0.299420265569,-0.112145913179,-0.419332153754,NaN,NaN,-6.58683795,5.31069945,2.0614545,NaN,5
1.55542458186123e+18,NaN,21030,NaN,1555424581,840107917,NaN,NaN,0.437702047003,-0.504635926904,-0.744091479686,0.00934714853668,NaN,NaN,0.0777634505653,0.0362070732414,-0.227345936034,NaN,NaN,-5.44812975,7.4801349,-1.24668915,NaN,5
1.55542458190454e+18,NaN,21031,NaN,1555424581,860770940,NaN,NaN,0.438300098137,-0.503020204792,-0.744808527938,0.0111334745486,NaN,NaN,-0.191017254243,0.0815856337934,0.00827351298618,NaN,NaN,-5.27143365,6.80279985,1.24668915,NaN,5
1.55542458200987e+18,NaN,21032,NaN,1555424581,903759002,NaN,NaN,0.438815806857,-0.505861493479,-0.742498188404,0.0155331028718,NaN,NaN,0.0515835117853,0.137436169857,0.165353145666,NaN,NaN,-5.11437045,8.23600155,-0.1374303,NaN,5
1.55542458201052e+18,NaN,21033,NaN,1555424582,9246110,NaN,NaN,0.433469778761,-0.507757368055,-0.743728119145,0.0339836854983,NaN,NaN,-0.136912047431,0.0868216215494,0.32592343685,NaN,NaN,-4.66281375,6.1058319,-1.2957714,NaN,5
1.55542458205241e+18,NaN,21034,NaN,1555424582,10250091,NaN,NaN,0.433116464233,-0.507864332816,-0.743823183209,0.034799712425,NaN,NaN,-0.227669168535,0.0746043167854,0.68371593351,NaN,NaN,-4.6726302,7.37215395,1.18779045,NaN,5
1.55542458211642e+18,NaN,21035,NaN,1555424582,51846981,NaN,NaN,0.426744723888,-0.511416090873,-0.744157579524,0.0507150812545,NaN,NaN,-0.224178510031,0.137436169857,0.790181017882,NaN,NaN,-4.13272545,7.0285782,0.16687965,NaN,5
1.55542458218729e+18,NaN,21036,NaN,1555424582,115827083,NaN,NaN,0.410740634666,-0.525478018335,-0.740411063814,0.0834052747905,NaN,NaN,-0.0845521698707,0.174088084149,1.18637075809,NaN,NaN,-3.8480484,9.2078301,0.4319238,NaN,5
1.55542458220159e+18,NaN,21037,NaN,1555424582,186343908,NaN,NaN,0.380333559808,-0.53932345887,-0.740532587973,0.126838780134,NaN,NaN,-0.293991680111,-0.0231341213266,1.51972864522,NaN,NaN,-2.99401725,8.00040675,0.87366405,NaN,4
1.55542458224416e+18,NaN,21038,NaN,1555424582,200901031,NaN,NaN,0.37580429211,-0.540358375922,-0.740767814712,0.134339139086,NaN,NaN,-0.391730118223,0.0833309630454,1.15146417305,NaN,NaN,-2.44429605,13.24239105,0.69696795,NaN,4
1.55542458230757e+18,NaN,21039,NaN,1555424582,243402957,NaN,NaN,0.362883417676,-0.557157428586,-0.732476005289,0.146185247622,NaN,NaN,0.491406483289,-0.101673937667,1.05547106419,NaN,NaN,-2.2577835,9.90479805,0.7264173,NaN,5
1.55542458235005e+18,NaN,21040,NaN,1555424582,307022094,NaN,NaN,0.362811688814,-0.553562446512,-0.7339398007,0.152540700208,NaN,NaN,-0.184035937235,0.116492218833,0.100775963342,NaN,NaN,-1.24668915,14.6265105,-0.32394285,NaN,4
1.55542458239337e+18,NaN,21041,NaN,1555424582,349513053,NaN,NaN,0.367960482633,-0.550561193286,-0.734173779085,0.149921038456,NaN,NaN,-0.0321922923107,0.137436169857,-0.27621515509,NaN,NaN,-2.22833415,7.43105265,0.392658,NaN,5
1.55542458245657e+18,NaN,21042,NaN,1555424582,392684936,NaN,NaN,0.359967314137,-0.543934355478,-0.740499762358,0.161922980554,NaN,NaN,-0.704144054331,-0.0301154383346,0.418425887206,NaN,NaN,-2.0221887,9.88516515,-0.83439825,NaN,5
1.55542458249871e+18,NaN,21043,NaN,1555424582,455933094,NaN,NaN,0.369740133361,-0.510579360915,-0.761812821154,0.149138108863,NaN,NaN,-0.957216795871,-0.0528047186106,-0.955148234118,NaN,NaN,-1.7865939,15.902649,3.0627324,NaN,4
1.55542458256303e+18,NaN,21044,NaN,1555424582,498156070,NaN,NaN,0.368752636827,-0.523766436194,-0.753937960061,0.145834719902,NaN,NaN,0.713063298293,-0.0615313648706,0.193278413698,NaN,NaN,-3.09218175,6.282528,1.28595495,NaN,5
1.55542458260504e+18,NaN,21045,NaN,1555424582,562333106,NaN,NaN,0.374425355795,-0.529769430854,-0.745366223773,0.153555187242,NaN,NaN,0.213899132221,0.339894363089,0.198514401454,NaN,NaN,-4.60391505,11.1122214,1.44301815,NaN,5
1.55542458264759e+18,NaN,21046,NaN,1555424582,604459047,NaN,NaN,0.390409267278,-0.526940002274,-0.746012735363,0.11567124406,NaN,NaN,0.671175396245,-0.372199971727,-1.79814226283,NaN,NaN,-2.16943545,6.1647306,1.14852465,NaN,4
1.55542458271174e+18,NaN,21047,NaN,1555424582,646920919,NaN,NaN,0.392412408335,-0.522298025122,-0.749460548746,0.10735995814,NaN,NaN,-0.0862974991227,-0.171487107747,-0.445512092534,NaN,NaN,-1.99273935,7.56848295,0.04908225,NaN,5
1.55542458277525e+18,NaN,21048,NaN,1555424582,710988998,NaN,NaN,0.397791800048,-0.526932477283,-0.74534948793,0.0925093997393,NaN,NaN,0.353525472381,-0.0894566329026,-0.401878861234,NaN,NaN,-2.8860363,9.76736775,-0.22577835,NaN,5
1.5554245828395e+18,NaN,21049,NaN,1555424582,774513959,NaN,NaN,0.404316917605,-0.523936865531,-0.745197003952,0.0818499625944,NaN,NaN,0.0812541090693,-0.0161528043186,-0.408860178242,NaN,NaN,-2.5719099,7.78444485,0.34357575,NaN,5
1.55542458286011e+18,NaN,21050,NaN,1555424582,838599920,NaN,NaN,0.403869093736,-0.52341278546,-0.745705202086,0.0827802073183,NaN,NaN,-0.0374282800667,-0.00393549955457,0.0100188422382,NaN,NaN,-4.515567,10.29745605,0.6675186,NaN,2
1.55542458296663e+18,NaN,21051,NaN,1555424582,859458923,NaN,NaN,0.404460250562,-0.524353193561,-0.744842359361,0.0817036952576,NaN,NaN,0.149321949897,0.00304581745343,-0.0807382788658,NaN,NaN,-3.8284155,10.9551582,-0.42210735,NaN,2
1.55542458296757e+18,NaN,21052,NaN,1555424582,965848922,NaN,NaN,0.408131201296,-0.538368095382,-0.734496107792,0.0640639059166,NaN,NaN,0.449518581241,-0.0615313648706,-0.174986058474,NaN,NaN,-3.8284155,8.78572275,2.01237225,NaN,2
1.55542458309446e+18,NaN,21053,NaN,1555424582,967087030,NaN,NaN,0.40830465809,-0.538543389144,-0.734239039887,0.0644310212339,NaN,NaN,-0.154365339951,0.0676229997774,-0.260507191822,NaN,NaN,-3.92658,10.61158245,-1.2761385,NaN,2
1.55542458309517e+18,NaN,21054,NaN,1555424583,93631029,NaN,NaN,0.421969837272,-0.555289726363,-0.715749300269,0.0360238170169,NaN,NaN,0.559474324117,0.0187537807214,-0.333811020406,NaN,NaN,-3.7106181,8.3243496,1.1583411,NaN,2
1.55542458313629e+18,NaN,21055,NaN,1555424583,94717025,NaN,NaN,0.422311799718,-0.555189177572,-0.715611257784,0.0363076942107,NaN,NaN,-0.0112483412867,0.0536603657614,-0.0824836081178,NaN,NaN,-4.70207955,6.9304137,-0.28467705,NaN,5
1.55542458315772e+18,NaN,21056,NaN,1555424583,135557889,NaN,NaN,0.422043003415,-0.556391999922,-0.714784962982,0.0372840768407,NaN,NaN,0.0480928532813,0.0117724637134,0.0361987810182,NaN,NaN,-4.48611765,8.8151721,-0.0785316,NaN,2
1.55542458324272e+18,NaN,21057,NaN,1555424583,157021999,NaN,NaN,0.422494965292,-0.554348934187,-0.716045536554,0.0383933985196,NaN,NaN,-0.222433180779,0.0187537807214,-0.0772476203618,NaN,NaN,-4.6529973,8.35379895,0.32394285,NaN,2
1.55542458326448e+18,NaN,21058,NaN,1555424583,242039918,NaN,NaN,0.429371458145,-0.554335051113,-0.712432170872,0.0281638765867,NaN,NaN,0.154557937653,0.00653647595743,-0.279705813594,NaN,NaN,-4.50575055,9.8949816,-0.5300883,NaN,2
1.55542458330622e+18,NaN,21059,NaN,1555424583,263690948,NaN,NaN,0.43005759357,-0.553313254203,-0.71282438869,0.0278621575682,NaN,NaN,-0.0496455848307,-0.0126621458146,-0.173240729222,NaN,NaN,-4.3388709,10.14039285,0.26504415,NaN,2
1.55542458337049e+18,NaN,21060,NaN,1555424583,305692911,NaN,NaN,0.433679942279,-0.551961277421,-0.711836000039,0.0234513313223,NaN,NaN,0.0882354260773,0.0135177929654,-0.312867069382,NaN,NaN,-4.27015575,8.56976085,0.196329,NaN,2
1.55542458341278e+18,NaN,21061,NaN,1555424583,369811058,NaN,NaN,0.438818720499,-0.549229351248,-0.710959824774,0.0179270138299,NaN,NaN,0.0446021947773,0.0239897684774,-0.269233838082,NaN,NaN,-4.38795315,7.8138942,0.3337593,NaN,5
1.55542458345515e+18,NaN,21062,NaN,1555424583,412187099,NaN,NaN,0.440058103165,-0.551422676383,-0.708558084388,0.0150777603503,NaN,NaN,0.199936498205,-0.00917148731057,-0.13658881493,NaN,NaN,-4.19162415,9.4826907,-0.4711896,NaN,2
1.55542458349777e+18,NaN,21063,NaN,1555424583,454519033,NaN,NaN,0.441268936596,-0.545351253137,-0.712454207487,0.0168148306944,NaN,NaN,-0.321916948143,-0.00219017030257,-0.16276875371,NaN,NaN,-3.66153585,8.56976085,0.44174025,NaN,2
1.55542458358292e+18,NaN,21064,NaN,1555424583,497157096,NaN,NaN,0.448713219134,-0.536704301852,-0.714439718359,0.0134472368524,NaN,NaN,-0.252103778063,0.113001560329,-0.483909336078,NaN,NaN,-2.18906835,5.56592715,-2.50319475,NaN,5
1.55542458360447e+18,NaN,21065,NaN,1555424583,582189083,NaN,NaN,0.4420923356,-0.533172984211,-0.720893392918,0.0243649698949,NaN,NaN,-0.227669168535,-0.0283701090826,0.22993032799,NaN,NaN,-6.19417995,7.6371981,3.1019982,NaN,5
1.55542458364692e+18,NaN,21066,NaN,1555424583,603682994,NaN,NaN,0.437336436181,-0.533820852872,-0.722900604134,0.0344507644383,NaN,NaN,-0.463288617555,0.0728589875334,0.933298016546,NaN,NaN,-3.5142891,2.24796705,-0.61843635,NaN,6
1.55542458371029e+18,NaN,21067,NaN,1555424583,646279096,NaN,NaN,0.414712094055,-0.546527201067,-0.724726341893,0.0639814575128,NaN,NaN,-0.229414497787,-0.0772393281386,1.78676402077,NaN,NaN,-3.44557395,8.53049505,1.63934715,NaN,4
1.55542458377402e+18,NaN,21068,NaN,1555424583,709628105,NaN,NaN,0.368057960572,-0.579988476663,-0.716443252209,0.121884252314,NaN,NaN,0.0585648287933,-0.0318607675866,2.5931061352,NaN,NaN,-3.17071335,0.0981645,1.2172398,NaN,4
1.55542458379557e+18,NaN,21069,NaN,1555424583,773526906,NaN,NaN,0.331968602763,-0.626060518231,-0.688356609822,0.154952418522,NaN,NaN,1.02896789291,-0.0667673526266,2.03983676231,NaN,NaN,0.6086199,19.60345065,1.6884294,NaN,3
1.55542458385935e+18,NaN,21070,NaN,1555424583,794629096,NaN,NaN,0.335956153236,-0.618765046112,-0.693054416901,0.154721866675,NaN,NaN,-0.684945432559,0.191541376669,-0.550231847654,NaN,NaN,-2.22833415,6.54757215,2.79768825,NaN,5
1.55542458390187e+18,NaN,21071,NaN,1555424583,858448982,NaN,NaN,0.343671324916,-0.622428872566,-0.687199645518,0.14909381686,NaN,NaN,0.271494997537,0.0920576093054,-0.22385527753,NaN,NaN,-1.52154975,10.70974695,-1.85530905,NaN,2
1.55542458394418e+18,NaN,21072,NaN,1555424583,901179075,NaN,NaN,0.347019062117,-0.608321158996,-0.699596694039,0.141730743787,NaN,NaN,-0.670982798543,-0.215120339047,-0.647970285766,NaN,NaN,-1.65898005,12.63377115,0.5104554,NaN,5
1.55542458400831e+18,NaN,21073,NaN,1555424583,943547964,NaN,NaN,0.357519986484,-0.588238930965,-0.712872103914,0.134043958549,NaN,NaN,-0.807118480199,0.0501697072574,-0.962129551126,NaN,NaN,-4.0640103,9.31581105,2.3363151,NaN,5
1.55542458405012e+18,NaN,21074,NaN,1555424584,7777929,NaN,NaN,0.355909489921,-0.598204380586,-0.704267459986,0.139596915573,NaN,NaN,0.329090862853,0.121728206589,0.294507510314,NaN,NaN,-3.2197956,10.0716777,1.56081555,NaN,5
1.55542458411416e+18,NaN,21075,NaN,1555424584,49436092,NaN,NaN,0.365635053289,-0.599676504912,-0.699932204394,0.129591691538,NaN,NaN,0.404140020689,0.0955482678094,-0.576411786434,NaN,NaN,-3.05291595,9.47287425,-0.2552277,NaN,5
1.55542458415661e+18,NaN,21076,NaN,1555424584,113563060,NaN,NaN,0.387567291775,-0.597674348389,-0.695965168185,0.0906060279307,NaN,NaN,0.568200970377,-0.206393692787,-1.26930749948,NaN,NaN,-1.3154043,7.2838059,1.374303,NaN,5
1.55542458419921e+18,NaN,21077,NaN,1555424584,155930042,NaN,NaN,0.388656328557,-0.589687890231,-0.702940120819,0.0841999817753,NaN,NaN,-0.306208984875,-0.243045607079,-0.464710714306,NaN,NaN,-2.50319475,9.3256275,1.06999305,NaN,5
1.55542458428398e+18,NaN,21078,NaN,1555424584,198596000,NaN,NaN,0.395289305857,-0.585539122287,-0.703312025202,0.0790094687582,NaN,NaN,-0.0129936705387,0.0728589875334,-0.45947472655,NaN,NaN,-2.9645679,8.1869193,0.28467705,NaN,5
1.55542458430538e+18,NaN,21079,NaN,1555424584,283418893,NaN,NaN,0.400889502326,-0.588699986593,-0.698670139664,0.0676754656552,NaN,NaN,0.252296375765,-0.0266247798306,-0.239563240798,NaN,NaN,-3.46520685,8.3047167,1.16815755,NaN,2
1.55542458441112e+18,NaN,21080,NaN,1555424584,304965972,NaN,NaN,0.402214320959,-0.588107959272,-0.698498815759,0.0667238536109,NaN,NaN,0.0480928532813,0.0170084514694,-0.20640198501,NaN,NaN,-3.6909852,8.88388725,0.18651255,NaN,2
1.55542458441211e+18,NaN,21081,NaN,1555424584,410623073,NaN,NaN,0.40759290727,-0.583520477187,-0.699747759718,0.0610323472946,NaN,NaN,-0.00950301203472,0.00304581745343,-0.181967375482,NaN,NaN,-3.9658458,9.0507669,1.16815755,NaN,2
1.55542458447522e+18,NaN,21082,NaN,1555424584,411665916,NaN,NaN,0.40722231087,-0.58388193596,-0.699567694808,0.062104064036,NaN,NaN,0.00969560973728,-0.0213887920746,-0.166259412214,NaN,NaN,-2.9253021,10.21892445,-0.392658,NaN,2
1.55542458451789e+18,NaN,21083,NaN,1555424584,474582910,NaN,NaN,0.410846485124,-0.583467952358,-0.698444040579,0.0542792447597,NaN,NaN,0.149321949897,-0.0493140601066,-0.263997850326,NaN,NaN,-4.23088995,9.84589935,1.56081555,NaN,2
1.55542458456019e+18,NaN,21084,NaN,1555424584,517163038,NaN,NaN,0.414486919722,-0.580139644885,-0.699307671096,0.0510623830053,NaN,NaN,-0.0548815725867,0.00304581745343,-0.30239509387,NaN,NaN,-3.8480484,8.6973747,-0.34357575,NaN,2
