rosbagTimestamp,header,seq,stamp,secs,nsecs,frame_id,orientation,x,y,z,w,orientation_covariance,angular_velocity,x_1,y_1,z_1,angular_velocity_covariance,linear_acceleration,x_2,y_2,z_2,linear_acceleration_covariance,Label
1.56926569449127e+18,NaN,61916,NaN,1569265694,447568893,NaN,NaN,0.110859990399,0.7187090991,0.658125291858,0.195034339585,NaN,NaN,-0.155834119782,0.0605746788452,-0.0287490805952,NaN,NaN,-1.28595495,11.65212615,0.3730251,NaN,5
1.56926569453509e+18,NaN,61917,NaN,1569265694,489928960,NaN,NaN,0.111725287239,0.718841797486,0.655624941382,0.202336024021,NaN,NaN,0.018698805418,-0.0371637592668,-0.227716615323,NaN,NaN,-1.6491636,9.08021625,-0.7264173,NaN,1
1.5692656945989e+18,NaN,61918,NaN,1569265694,533754110,NaN,NaN,0.115995217449,0.72461034772,0.647333700212,0.206019499263,NaN,NaN,0.434087167394,0.00123348427722,-0.0880902751632,NaN,NaN,-1.61971425,9.53177295,-0.5693541,NaN,1
1.56926569464034e+18,NaN,61919,NaN,1569265694,597707033,NaN,NaN,0.116670589035,0.72750945331,0.643658522829,0.206933987029,NaN,NaN,0.112946585026,0.132133178177,-0.0566743486272,NaN,NaN,-1.12889175,9.81645,-1.1976069,NaN,1
1.56926569468201e+18,NaN,61920,NaN,1569265694,639092922,NaN,NaN,0.114841511887,0.723924503903,0.646162149772,0.212648103678,NaN,NaN,-0.305932435454,0.0815186298692,-0.217244639811,NaN,NaN,-1.63934715,10.16002575,-1.48228395,NaN,1
1.56926569474556e+18,NaN,61921,NaN,1569265694,681056022,NaN,NaN,0.117965805316,0.72537965335,0.641731066131,0.219293561337,NaN,NaN,0.181014425854,-0.0860329783228,-0.154412786739,NaN,NaN,-2.20870125,9.5219565,0.392658,NaN,1
1.56926569478804e+18,NaN,61922,NaN,1569265694,744868993,NaN,NaN,0.115021178479,0.721899850407,0.643541807807,0.226902349237,NaN,NaN,-0.195976692578,0.0274134230572,-0.201536676543,NaN,NaN,-1.9436571,8.9329695,-1.1190753,NaN,1
1.56926569483118e+18,NaN,61923,NaN,1569265694,787379026,NaN,NaN,0.116600901048,0.725176717156,0.637977323539,0.231317732611,NaN,NaN,0.243846278926,0.0431213863252,-0.187574042527,NaN,NaN,-1.2172398,8.96241885,-0.46137315,NaN,1
1.56926569489516e+18,NaN,61924,NaN,1569265694,829993009,NaN,NaN,0.118307989904,0.72372324613,0.637971921257,0.234988744887,NaN,NaN,-0.122672863994,0.0361400693172,-0.0671463241392,NaN,NaN,-1.58044845,9.1881972,-2.05163805,NaN,1
1.56926569493739e+18,NaN,61925,NaN,1569265694,894186973,NaN,NaN,0.127275378759,0.730254921559,0.628132132405,0.236598291922,NaN,NaN,0.40441657011,-0.0458904055268,0.0637533697608,NaN,NaN,-2.159619,10.23855735,0.4711896,NaN,1
1.56926569498596e+18,NaN,61926,NaN,1569265694,936376094,NaN,NaN,0.128429869177,0.72862871769,0.628376165838,0.240310954115,NaN,NaN,-0.131399510254,0.0483573740812,-0.0741276411472,NaN,NaN,-2.0614545,9.227463,-1.7473281,NaN,1
1.56926569504388e+18,NaN,61927,NaN,1569265694,985193014,NaN,NaN,0.13133570549,0.726186893223,0.630305057995,0.241078954784,NaN,NaN,-0.12790885175,0.0884999468772,0.0794613330288,NaN,NaN,-1.75714455,9.47287425,-0.57917055,NaN,1
1.56926569508557e+18,NaN,61928,NaN,1569265695,42872905,NaN,NaN,0.135637406229,0.728273269557,0.626409373454,0.242552748344,NaN,NaN,0.144362511562,0.0361400693172,0.0113934922008,NaN,NaN,-1.50191685,10.14039285,-0.83439825,NaN,1
1.56926569514958e+18,NaN,61929,NaN,1569265695,84825992,NaN,NaN,0.138018243852,0.726747635196,0.626075428702,0.246613861486,NaN,NaN,-0.08427562045,-0.00749316198278,-0.0636556656352,NaN,NaN,-1.38411945,9.11948205,-1.22705625,NaN,1
1.56926569519213e+18,NaN,61930,NaN,1569265695,148807048,NaN,NaN,0.142142814037,0.729106791484,0.620671556833,0.250929323852,NaN,NaN,0.161815804082,-0.0354184300148,-0.0566743486272,NaN,NaN,-2.03200515,10.19929155,-0.5497212,NaN,1
1.56926569523493e+18,NaN,61931,NaN,1569265695,191359996,NaN,NaN,0.145659156392,0.728789130428,0.618017243377,0.25632889111,NaN,NaN,0.044878744198,-0.0912689660788,-0.0968169214232,NaN,NaN,-1.5313662,9.2078301,-0.9620121,NaN,1
1.56926569529887e+18,NaN,61932,NaN,1569265695,234004974,NaN,NaN,0.147793948655,0.725626197318,0.619071670401,0.261483914254,NaN,NaN,-0.18026872931,-0.0546170517868,-0.0776182996512,NaN,NaN,-1.3546701,9.4434249,-0.93256275,NaN,1
1.56926569534347e+18,NaN,61933,NaN,1569265695,297679901,NaN,NaN,0.151988656549,0.727308602418,0.614108790465,0.266067733111,NaN,NaN,0.139126523806,-0.0528717225348,-0.0776182996512,NaN,NaN,-0.69696795,9.8557158,-0.4711896,NaN,1
1.56926569538324e+18,NaN,61934,NaN,1569265695,340663909,NaN,NaN,0.156266401708,0.726951808917,0.612150484338,0.269060706411,NaN,NaN,0.053605390458,-0.0371637592668,-0.0374757268552,NaN,NaN,0.22577835,9.620121,-0.6871515,NaN,1
1.56926569544795e+18,NaN,61935,NaN,1569265695,382479906,NaN,NaN,0.161649791754,0.724794713145,0.61203931216,0.271937215169,NaN,NaN,-0.04936903541,-0.0720703443068,0.0934239670448,NaN,NaN,-1.54118265,8.1672864,-0.46137315,NaN,5
1.56926569548983e+18,NaN,61936,NaN,1569265695,446589946,NaN,NaN,0.15784893008,0.718602859939,0.619213275651,0.274351169521,NaN,NaN,-0.353056325258,0.140859824437,-0.0531836901232,NaN,NaN,-7.09729335,10.67048115,-2.8271376,NaN,1
1.56926569553567e+18,NaN,61937,NaN,1569265695,488796949,NaN,NaN,0.150584281903,0.715457440049,0.619088772601,0.286660281802,NaN,NaN,-0.31989506947,-0.0389090885188,-0.602962404503,NaN,NaN,-14.0571564,10.8962595,1.54118265,NaN,5
1.56926569559721e+18,NaN,61938,NaN,1569265695,531874895,NaN,NaN,0.137068940834,0.717801865397,0.609919017482,0.306547516064,NaN,NaN,0.00124551289803,-0.103486270843,-1.17368506991,NaN,NaN,-8.4028812,7.94150805,-3.141264,NaN,5
1.56926569563838e+18,NaN,61939,NaN,1569265695,595400094,NaN,NaN,0.122235687035,0.71587544315,0.602901964846,0.330287764675,NaN,NaN,-0.166306095294,-0.166318123915,-0.859525804547,NaN,NaN,7.3034388,11.4067149,-0.4122909,NaN,5
1.56926569568302e+18,NaN,61940,NaN,1569265695,637523889,NaN,NaN,0.118207383883,0.709194119563,0.604377490339,0.343217954578,NaN,NaN,-0.45079476337,-0.220423330727,-0.454609418083,NaN,NaN,16.40328795,11.4852465,-0.69696795,NaN,5
1.56926569576609e+18,NaN,61941,NaN,1569265695,681329965,NaN,NaN,0.119793850889,0.70796847584,0.60003590177,0.352685393932,NaN,NaN,0.02044413467,-0.202970038207,-0.294039126899,NaN,NaN,0.97182855,7.66664745,2.05163805,NaN,5
1.56926569578734e+18,NaN,61942,NaN,1569265695,765069961,NaN,NaN,0.0851377812022,0.715401295857,0.578960363685,0.38178192909,NaN,NaN,0.04662407345,0.100717251641,-1.2068463257,NaN,NaN,-19.60345065,7.1660085,-0.46137315,NaN,5
1.56926569582981e+18,NaN,61943,NaN,1569265695,786417007,NaN,NaN,0.0824312315616,0.717181411496,0.571513507437,0.390164357528,NaN,NaN,0.249082266682,-0.0546170517868,-0.932829633131,NaN,NaN,-19.11262815,3.8087826,0.40247445,NaN,4
1.56926569590043e+18,NaN,61944,NaN,1569265695,828775882,NaN,NaN,0.09719511811,0.703518704502,0.589421568984,0.384963317015,NaN,NaN,-0.749246065462,-0.206460696711,1.07778966517,NaN,NaN,-6.66536955,4.6137315,1.9240242,NaN,4
1.56926569593666e+18,NaN,61945,NaN,1569265695,899286031,NaN,NaN,0.0891582750292,0.716243239448,0.575534376646,0.384456246193,NaN,NaN,0.350311363298,0.355535322433,-0.353380321467,NaN,NaN,-3.6320865,10.5625002,-0.40247445,NaN,5
1.56926569600584e+18,NaN,61946,NaN,1569265695,935756921,NaN,NaN,0.0729999865479,0.695201043345,0.60044434009,0.388372380262,NaN,NaN,-2.12631084529,0.250815567313,-0.135214164967,NaN,NaN,-2.71915665,6.92059725,-2.83695405,NaN,5
1.56926569604262e+18,NaN,61947,NaN,1569265696,2207040,NaN,NaN,0.0600233702448,0.654451751231,0.636571006409,0.403568400813,NaN,NaN,-1.73186643434,-0.346087036871,-0.0723823118952,NaN,NaN,-1.42338525,10.0324119,2.4148467,NaN,1
1.56926569610587e+18,NaN,61948,NaN,1569265696,41690111,NaN,NaN,0.0763720452416,0.653677110595,0.634389849882,0.40549113943,NaN,NaN,0.324131424518,-0.358304341635,0.304608806537,NaN,NaN,2.14980255,8.3047167,3.11181465,NaN,5
1.56926569614834e+18,NaN,61949,NaN,1569265696,104955911,NaN,NaN,0.12205526054,0.63780757067,0.64535494492,0.402269823921,NaN,NaN,-0.052859693914,-0.923791019283,1.20345337132,NaN,NaN,-2.14980255,6.74390115,-4.34868735,NaN,4
1.5692656961917e+18,NaN,61950,NaN,1569265696,147563934,NaN,NaN,0.124416744784,0.58121412827,0.69128237072,0.410900589739,NaN,NaN,-3.16827240873,-0.956952275071,1.04811906789,NaN,NaN,1.2368727,12.30001185,6.6555531,NaN,4
1.56926569623422e+18,NaN,61951,NaN,1569265696,190068960,NaN,NaN,0.108782594579,0.501161838065,0.754603450109,0.409361444531,NaN,NaN,-4.7111434675,-0.447316133487,1.40242090604,NaN,NaN,-1.71787875,6.94023015,2.60135925,NaN,4
1.56926569629701e+18,NaN,61952,NaN,1569265696,233210086,NaN,NaN,0.130192582056,0.499462207546,0.761076890649,0.392873212794,NaN,NaN,0.236864961918,-0.199479379703,1.29770115092,NaN,NaN,-4.8885921,8.2065522,13.92954255,NaN,4
1.56926569634293e+18,NaN,61953,NaN,1569265696,296276092,NaN,NaN,-0.00489776006202,0.262462871029,0.877901070065,0.400473425406,NaN,NaN,-9.77434362755,0.812811586457,0.248758270473,NaN,NaN,-5.3401488,8.82498855,5.104554,NaN,5
1.56926569640425e+18,NaN,61954,NaN,1569265696,338656902,NaN,NaN,0.0350845629469,0.30729575374,0.839397580471,0.446934105966,NaN,NaN,3.21963265359,-1.29554614996,-1.91021401425,NaN,NaN,-3.42594105,-1.40375235,9.59067165,NaN,4
1.56926569644614e+18,NaN,61955,NaN,1569265696,403012990,NaN,NaN,0.0110613068337,0.2530646181,0.843424998322,0.473782881459,NaN,NaN,-1.86276612824,-0.304199134823,-0.695464854859,NaN,NaN,-2.05163805,6.05674965,9.1881972,NaN,5
1.5692656965525e+18,NaN,61956,NaN,1569265696,444885969,NaN,NaN,0.0200788425345,0.265638299784,0.833403104952,0.484223500491,NaN,NaN,0.776171700786,-0.108722258599,-0.349889662963,NaN,NaN,-4.78061115,6.72426825,10.3269054,NaN,5
1.56926569655411e+18,NaN,61957,NaN,1569265696,551259040,NaN,NaN,-0.0134029135952,0.253556996588,0.810288586696,0.528168171759,NaN,NaN,-0.412397519826,0.224635628533,-0.981698852187,NaN,NaN,-3.34740945,3.4553904,9.620121,NaN,4
1.56926569662298e+18,NaN,61958,NaN,1569265696,553397893,NaN,NaN,-0.01293220102,0.255560492456,0.806438350087,0.533084215093,NaN,NaN,0.948959296734,0.0972265931372,-0.965990888919,NaN,NaN,-4.8689592,3.77933325,6.3414267,NaN,4
1.56926569663728e+18,NaN,61959,NaN,1569265696,621467113,NaN,NaN,0.015558630641,0.276165915541,0.791381477817,0.545165729549,NaN,NaN,1.01179114981,-0.391465597423,-0.182338054771,NaN,NaN,-3.6909852,4.89840855,8.638476,NaN,5
1.56926569668027e+18,NaN,61960,NaN,1569265696,636497020,NaN,NaN,0.0197472240914,0.275541750486,0.790501573952,0.546620574493,NaN,NaN,-0.030170413638,-0.222168659979,0.370931318113,NaN,NaN,-1.42338525,5.95858515,6.97949595,NaN,5
1.56926569674477e+18,NaN,61961,NaN,1569265696,679260969,NaN,NaN,0.0145729657439,0.27543767944,0.804224227755,0.526445728357,NaN,NaN,-0.37225494703,0.633042673501,1.16854678628,NaN,NaN,0.91292985,5.104554,7.9513245,NaN,4
1.56926569682966e+18,NaN,61962,NaN,1569265696,743485927,NaN,NaN,0.0170611666394,0.29223196785,0.834323719949,0.467133090124,NaN,NaN,0.187995742862,0.866916793269,2.09531661909,NaN,NaN,1.4332017,4.515567,7.6175652,NaN,4
1.56926569687204e+18,NaN,61963,NaN,1569265696,827800035,NaN,NaN,0.0246741114694,0.311051396275,0.865052635157,0.39283858709,NaN,NaN,0.259554242194,0.690638538817,1.94521830342,NaN,NaN,1.20742335,4.0247445,7.98077385,NaN,4
1.56926569689224e+18,NaN,61964,NaN,1569265696,870244979,NaN,NaN,0.0352718209088,0.318081657973,0.8777658991,0.35652066404,NaN,NaN,0.329367412274,0.441056455781,2.03423009527,NaN,NaN,0.79513245,4.2407064,8.37343185,NaN,4
1.56926569695582e+18,NaN,61965,NaN,1569265696,891290903,NaN,NaN,0.0409503306557,0.314463029735,0.884414052586,0.342414744042,NaN,NaN,-0.274516508918,0.207182336013,1.93998231566,NaN,NaN,0.1374303,4.1818077,7.7746284,NaN,4
1.56926569699943e+18,NaN,61966,NaN,1569265696,955009937,NaN,NaN,0.0657482302033,0.312813802492,0.899863849134,0.296765476796,NaN,NaN,0.11643724353,-0.136647526631,1.803846634,NaN,NaN,-0.2159619,5.46776265,7.84334355,NaN,4
1.56926569708307e+18,NaN,61967,NaN,1569265696,997550010,NaN,NaN,0.0788635633449,0.31639369565,0.903167638693,0.279219956571,NaN,NaN,0.355547351054,-0.106976929347,1.15458415226,NaN,NaN,-0.79513245,5.497212,8.94278595,NaN,4
1.56926569708493e+18,NaN,61968,NaN,1569265697,82453966,NaN,NaN,0.0948559648342,0.31660037955,0.907864973434,0.25796847795,NaN,NaN,0.119927902034,-0.103486270843,0.688581241977,NaN,NaN,0.0785316,5.97821805,8.5010457,NaN,5
1.56926569714709e+18,NaN,61969,NaN,1569265697,84302902,NaN,NaN,0.0963826581525,0.315681349151,0.906942875068,0.261744704568,NaN,NaN,-0.278007167422,-0.283255183799,0.657165315441,NaN,NaN,-0.38284155,5.9095029,8.07893835,NaN,5
1.5692656972147e+18,NaN,61970,NaN,1569265697,146277904,NaN,NaN,0.104819337809,0.30097383732,0.908329445366,0.270860248747,NaN,NaN,-0.400180215062,-0.370521646399,-0.0165317758312,NaN,NaN,0.53990475,5.70335745,7.43105265,NaN,5
1.56926569723192e+18,NaN,61971,NaN,1569265697,211004018,NaN,NaN,0.115930901379,0.299063447301,0.904437438398,0.281272111341,NaN,NaN,0.048369402702,-0.351323024627,-0.122996860203,NaN,NaN,1.1387082,5.5168449,7.43105265,NaN,5
1.56926569732453e+18,NaN,61972,NaN,1569265697,231187105,NaN,NaN,0.120342682402,0.299528205004,0.90238089412,0.285498187607,NaN,NaN,0.215921010894,-0.255329915767,-0.0287490805952,NaN,NaN,1.36448655,5.5168449,7.85316,NaN,5
1.5692656973387e+18,NaN,61973,NaN,1569265697,322765111,NaN,NaN,0.127525699334,0.305133858553,0.898955343025,0.287245218623,NaN,NaN,0.181014425854,-0.0668343565508,0.0375734309808,NaN,NaN,1.4724675,6.1254648,8.245818,NaN,5
1.56926569738099e+18,NaN,61974,NaN,1569265697,337744951,NaN,NaN,0.131428766257,0.306226571558,0.897243866089,0.289663962269,NaN,NaN,0.36950998507,-0.211696684467,0.156255820117,NaN,NaN,0.99146145,5.2616172,7.21509075,NaN,5
1.56926569744448e+18,NaN,61975,NaN,1569265697,380124092,NaN,NaN,0.145000321931,0.302262893676,0.897106564166,0.28777050279,NaN,NaN,0.05535071971,-0.485713377031,0.421545866421,NaN,NaN,1.40375235,5.66409165,7.7746284,NaN,5
1.56926569748728e+18,NaN,61976,NaN,1569265697,443775892,NaN,NaN,0.156295042667,0.298152758747,0.897573105687,0.284674045245,NaN,NaN,0.018698805418,-0.253584586515,0.297627489529,NaN,NaN,1.3546701,5.48739555,7.9905903,NaN,5
1.56926569752963e+18,NaN,61977,NaN,1569265697,486522912,NaN,NaN,0.162866854965,0.302322811678,0.894894076568,0.285026133566,NaN,NaN,0.33460340003,-0.140138185135,0.126585222833,NaN,NaN,1.3546701,5.0849211,7.25435655,NaN,5
1.56926569759843e+18,NaN,61978,NaN,1569265697,528716087,NaN,NaN,0.17468684793,0.318006089312,0.885550748635,0.290097404181,NaN,NaN,0.950704625986,-0.328633744351,-0.184083384023,NaN,NaN,1.4528346,5.3401488,6.68500245,NaN,5
1.56926569763608e+18,NaN,61979,NaN,1569265697,592648029,NaN,NaN,0.193076354713,0.365539994534,0.855145051525,0.312776237107,NaN,NaN,1.68374291183,-0.394956255927,-0.920612328367,NaN,NaN,1.56081555,6.99912885,6.72426825,NaN,5
1.56926569769937e+18,NaN,61980,NaN,1569265697,635240077,NaN,NaN,0.209797439904,0.40509280472,0.821375477377,0.342384548334,NaN,NaN,2.11134857857,-0.749258094083,-1.71648246728,NaN,NaN,3.36704235,9.1489314,3.7891497,NaN,4
1.5692656977463e+18,NaN,61981,NaN,1569265697,698570966,NaN,NaN,0.249279911747,0.506031242022,0.740561181005,0.365186315305,NaN,NaN,3.96837890269,-0.684680911759,-1.5995454074,NaN,NaN,3.03328305,10.5821331,4.38795315,NaN,4
1.56926569779176e+18,NaN,61982,NaN,1569265697,741822004,NaN,NaN,0.282602122015,0.583998338795,0.679215584214,0.343144533802,NaN,NaN,4.92132867429,0.132133178177,-0.417957503791,NaN,NaN,2.20870125,10.21892445,0.392658,NaN,5
1.56926569784804e+18,NaN,61983,NaN,1569265697,790647983,NaN,NaN,0.301399941274,0.643414174775,0.616639735242,0.33901579907,NaN,NaN,3.46746940737,-0.195988721199,-0.995661486203,NaN,NaN,-1.766961,11.4067149,-1.60008135,NaN,5
1.56926569789162e+18,NaN,61984,NaN,1569265697,847351074,NaN,NaN,0.361338326832,0.675776006019,0.549013592922,0.333684698537,NaN,NaN,3.02066511886,-1.43342716087,0.316826111301,NaN,NaN,-2.07127095,6.76353405,-2.11053675,NaN,5
1.56926569793726e+18,NaN,61985,NaN,1569265697,890435934,NaN,NaN,0.398839532081,0.650290644826,0.552686447768,0.335539558554,NaN,NaN,-0.236119265374,-1.2466769309,1.61535107479,NaN,NaN,-0.6871515,9.227463,-2.26759995,NaN,4
1.56926569799732e+18,NaN,61986,NaN,1569265697,935100078,NaN,NaN,0.423737195222,0.627729394225,0.550254183656,0.351600526706,NaN,NaN,-0.419378836834,-1.38804860031,0.686835912725,NaN,NaN,-0.06871515,10.63121535,-2.81732115,NaN,5
1.56926569803968e+18,NaN,61987,NaN,1569265697,996133089,NaN,NaN,0.445753570015,0.60786594667,0.544264346093,0.368210628946,NaN,NaN,-0.194231363326,-1.00407616487,0.365695330357,NaN,NaN,-0.2944935,9.33544395,-0.3337593,NaN,5
1.56926569812532e+18,NaN,61988,NaN,1569265698,38897991,NaN,NaN,0.435781186035,0.594739684528,0.560290938824,0.377430164953,NaN,NaN,-1.1332185009,0.167039763217,0.0340827724768,NaN,NaN,-0.0392658,10.2483738,-0.10798095,NaN,1
1.56926569814632e+18,NaN,61989,NaN,1569265698,123914957,NaN,NaN,0.398235619824,0.580599738877,0.58750572429,0.398935280773,NaN,NaN,-1.12449185464,0.385205919717,-0.426684150051,NaN,NaN,0.26504415,10.29745605,-0.14724675,NaN,5
1.56926569823227e+18,NaN,61990,NaN,1569265698,145363092,NaN,NaN,0.395996280533,0.583874042122,0.584224536679,0.401197880705,NaN,NaN,0.19497705987,0.153077129201,-0.499987978635,NaN,NaN,0.196329,9.82626645,0.1570632,NaN,5
1.56926569823332e+18,NaN,61991,NaN,1569265698,230508089,NaN,NaN,0.375684633233,0.586009425922,0.591811968366,0.406463532414,NaN,NaN,-0.314659081714,0.339827359165,-0.321964394931,NaN,NaN,1.56081555,9.3059946,0.42210735,NaN,5
1.56926569833804e+18,NaN,61992,NaN,1569265698,232804059,NaN,NaN,0.376551876693,0.585162715034,0.591826075626,0.406860144646,NaN,NaN,-0.030170413638,0.695874526573,-0.332436370443,NaN,NaN,1.766961,9.9342474,0.97182855,NaN,5
1.56926569835954e+18,NaN,61993,NaN,1569265698,336643934,NaN,NaN,0.357178609569,0.60504265925,0.594509634642,0.391030837239,NaN,NaN,0.16879712109,0.617334710233,-0.177102067015,NaN,NaN,1.1583411,9.39434265,1.24668915,NaN,1
1.56926569840213e+18,NaN,61994,NaN,1569265698,357912063,NaN,NaN,0.354008937406,0.601109509453,0.600587021461,0.390692026452,NaN,NaN,-0.627073017822,0.465491065309,0.152765161613,NaN,NaN,0.4711896,9.13911495,1.28595495,NaN,1
1.56926569846483e+18,NaN,61995,NaN,1569265698,399601936,NaN,NaN,0.343098597935,0.589218953308,0.616836883117,0.39321322051,NaN,NaN,-1.0424613798,0.407895199993,0.0969146255488,NaN,NaN,0.7067844,9.41397555,1.50191685,NaN,1
1.56926569848592e+18,NaN,61996,NaN,1569265698,463875055,NaN,NaN,0.332909772336,0.577750119202,0.631061609889,0.396405256989,NaN,NaN,-0.63405433483,0.222890299281,0.0340827724768,NaN,NaN,0.9620121,9.90479805,1.6687965,NaN,1
1.56926569854974e+18,NaN,61997,NaN,1569265698,485161066,NaN,NaN,0.338160134097,0.579312655045,0.625240017901,0.398897845854,NaN,NaN,0.538806922514,-0.356559012383,-0.114270213943,NaN,NaN,-0.2159619,10.012779,1.4528346,NaN,1
1.56926569859244e+18,NaN,61998,NaN,1569265698,548862934,NaN,NaN,0.349577390925,0.582596269531,0.610355757063,0.407238363005,NaN,NaN,0.39568992385,-0.426372182463,-0.180592725519,NaN,NaN,0.10798095,10.35635475,1.374303,NaN,1
1.56926569865584e+18,NaN,61999,NaN,1569265698,591411113,NaN,NaN,0.352027396326,0.583214110661,0.608366340631,0.407220344469,NaN,NaN,0.130399877546,0.00996013053722,0.00790283369685,NaN,NaN,0.3141264,9.39434265,1.30558785,NaN,1
1.5692656987194e+18,NaN,62000,NaN,1569265698,654900074,NaN,NaN,0.341569999253,0.583524490691,0.614021433658,0.407193790942,NaN,NaN,-0.234373936122,0.336336700661,-0.122996860203,NaN,NaN,-0.196329,10.39562055,0.9620121,NaN,1
1.56926569876182e+18,NaN,62001,NaN,1569265698,718622922,NaN,NaN,0.329640832959,0.576968555542,0.61701549886,0.421587572549,NaN,NaN,-0.501409311678,-0.0179651374948,-0.383050918751,NaN,NaN,-0.67733505,10.57231665,0.65770215,NaN,5
1.56926569880479e+18,NaN,62002,NaN,1569265698,761137962,NaN,NaN,0.303047021303,0.531852216592,0.654610366277,0.443600034883,NaN,NaN,-3.22586827405,-0.0319277715108,0.0777160037768,NaN,NaN,0.36320865,9.96369675,2.07127095,NaN,1
1.56926569886933e+18,NaN,62003,NaN,1569265698,803992033,NaN,NaN,0.283981538554,0.481852289449,0.697862252455,0.447393711971,NaN,NaN,-3.06355265361,0.165294433965,1.04462840938,NaN,NaN,-0.0981645,7.98077385,3.17071335,NaN,4
1.56926569888914e+18,NaN,62004,NaN,1569265698,868221044,NaN,NaN,0.253374045241,0.399533722218,0.762332668016,0.441614426037,NaN,NaN,-3.16827240873,0.264778201329,1.28548384616,NaN,NaN,3.4357575,7.6371981,3.92658,NaN,4
1.56926569893278e+18,NaN,62005,NaN,1569265698,888422966,NaN,NaN,0.255958622418,0.391552440038,0.767172665559,0.438882639814,NaN,NaN,-0.550278530734,-0.0266917837548,0.669382620205,NaN,NaN,4.27015575,6.56720505,5.7131739,NaN,5
1.56926569899563e+18,NaN,62006,NaN,1569265698,931539058,NaN,NaN,0.252733668703,0.372816166593,0.779323960869,0.435646602933,NaN,NaN,-0.86967378385,0.0378853985692,0.543718914061,NaN,NaN,2.7289731,7.1071098,7.52921715,NaN,5
1.56926569903821e+18,NaN,62007,NaN,1569265698,994906902,NaN,NaN,0.253162651996,0.346400346074,0.787085657404,0.44318352833,NaN,NaN,-0.785897979754,-0.347832366123,0.161491807873,NaN,NaN,2.6504415,8.0102232,7.3819704,NaN,5
1.56926569910209e+18,NaN,62008,NaN,1569265699,37431001,NaN,NaN,0.266942211245,0.331574309842,0.787198565072,0.446227242621,NaN,NaN,-0.246591240886,-0.810344617903,0.327298086813,NaN,NaN,1.5902649,6.21381285,7.70591325,NaN,5
1.56926569914501e+18,NaN,62009,NaN,1569265699,101262092,NaN,NaN,0.288138622316,0.321813036826,0.782090364008,0.449162739088,NaN,NaN,0.128654548294,-0.707370192035,0.177199771141,NaN,NaN,1.6098978,5.5168449,7.58811585,NaN,5
1.56926569918704e+18,NaN,62010,NaN,1569265699,144346952,NaN,NaN,0.282200895082,0.295416638347,0.792672762775,0.452505862676,NaN,NaN,-1.22572095126,-0.209951355215,0.376167305869,NaN,NaN,2.11053675,5.0652882,7.50958425,NaN,5
1.56926569922991e+18,NaN,62011,NaN,1569265699,186274051,NaN,NaN,0.274412261743,0.27735144906,0.799819011708,0.456139926799,NaN,NaN,-0.990101502238,-0.0144744789908,0.164982466377,NaN,NaN,2.2970493,6.33161025,6.5770215,NaN,5
1.56926569929435e+18,NaN,62012,NaN,1569265699,228986978,NaN,NaN,0.266407043999,0.269758755966,0.806838592961,0.45306620421,NaN,NaN,-0.525843921206,0.297939457117,0.287155514017,NaN,NaN,1.9436571,7.58811585,6.37087605,NaN,5
1.56926569933719e+18,NaN,62013,NaN,1569265699,292969942,NaN,NaN,0.2636945757,0.292232192899,0.803266614475,0.447021545621,NaN,NaN,0.592912129326,0.441056455781,-0.0898356044152,NaN,NaN,2.355948,8.1280206,5.93895225,NaN,5
1.56926569937853e+18,NaN,62014,NaN,1569265699,336096048,NaN,NaN,0.259379015265,0.312434079127,0.807057404864,0.428679154957,NaN,NaN,0.82329559059,0.934984634097,0.487868377997,NaN,NaN,2.28723285,7.7157297,5.8113384,NaN,5
1.56926569944363e+18,NaN,62015,NaN,1569265699,377629995,NaN,NaN,0.242768667983,0.358618345245,0.798989833075,0.417218771082,NaN,NaN,1.72912147238,1.74132674852,-0.489516003123,NaN,NaN,0.9620121,7.37215395,2.5326441,NaN,5
1.56926569948453e+18,NaN,62016,NaN,1569265699,441647052,NaN,NaN,0.244602765491,0.468434845801,0.745223983581,0.406668780027,NaN,NaN,3.46572407812,1.16711342461,-1.21208231345,NaN,NaN,-0.48100605,8.3047167,3.40630815,NaN,5
1.56926569954871e+18,NaN,62017,NaN,1569265699,483757972,NaN,NaN,0.257074203703,0.492150971849,0.721201630858,0.41420825963,NaN,NaN,1.50571932812,-0.332124402855,-0.662303599071,NaN,NaN,-1.26632205,9.7379184,3.1608969,NaN,5
1.56926569959121e+18,NaN,62018,NaN,1569265699,547636032,NaN,NaN,0.211358353307,0.423919790036,0.758227098682,0.448008175067,NaN,NaN,-2.99373948353,-0.00749316198278,-0.403994869775,NaN,NaN,0.59880345,12.5061573,5.6542752,NaN,5
1.56926569963403e+18,NaN,62019,NaN,1569265699,589987039,NaN,NaN,0.233120452974,0.497737712315,0.714655479332,0.43264254299,NaN,NaN,4.11498655986,0.793612964685,-0.672775574583,NaN,NaN,1.58044845,9.04095045,3.01365015,NaN,5
1.56926569969764e+18,NaN,62020,NaN,1569265699,632755041,NaN,NaN,0.225111896034,0.565689551541,0.657818992354,0.443389376102,NaN,NaN,3.30864444544,0.894842061301,-2.40414219257,NaN,NaN,0.73623375,3.17071335,0.6478857,NaN,4
1.56926569973985e+18,NaN,62021,NaN,1569265699,696221113,NaN,NaN,0.287027167812,0.587985819118,0.611670449184,0.444687916464,NaN,NaN,2.14625516361,-1.24493160165,0.250503599725,NaN,NaN,0.8442147,9.68883615,2.13016965,NaN,5
1.56926569978279e+18,NaN,62022,NaN,1569265699,739027023,NaN,NaN,0.289557257194,0.596449342589,0.592846286107,0.457097426793,NaN,NaN,0.612110751098,-0.391465597423,-0.782731317459,NaN,NaN,-1.42338525,8.4225141,0.3141264,NaN,5
1.5692656998459e+18,NaN,62023,NaN,1569265699,781505107,NaN,NaN,0.326016588826,0.605079923844,0.564436421456,0.457168454408,NaN,NaN,1.76577338667,-1.14370250503,0.309844794293,NaN,NaN,-2.11053675,9.04095045,-1.12889175,NaN,5
1.56926569988831e+18,NaN,62024,NaN,1569265699,844814062,NaN,NaN,0.333304359873,0.605715587142,0.544850727764,0.474504494854,NaN,NaN,0.268280888454,-0.609631753923,-0.454609418083,NaN,NaN,-2.355948,9.98332965,-1.7865939,NaN,5
1.56926569993056e+18,NaN,62025,NaN,1569265699,887506008,NaN,NaN,0.3392679926,0.610964410844,0.527250188119,0.483349725363,NaN,NaN,0.617346738854,-0.489204035535,-0.526167917415,NaN,NaN,-2.4148467,9.86553225,0.48100605,NaN,5
1.56926569999499e+18,NaN,62026,NaN,1569265699,929802894,NaN,NaN,0.330767332383,0.610448122972,0.523201006541,0.494172811618,NaN,NaN,-0.269280521162,-0.101740941591,-0.611689050763,NaN,NaN,-1.83567615,9.02131755,0.8442147,NaN,5
1.56926570003776e+18,NaN,62027,NaN,1569265699,994133949,NaN,NaN,0.325420543927,0.629801326388,0.523489201672,0.472663532127,NaN,NaN,0.41314321637,0.842482183741,0.0567720527528,NaN,NaN,-2.5719099,9.37470975,-1.44301815,NaN,1
1.56926570007935e+18,NaN,62028,NaN,1569265700,36643981,NaN,NaN,0.304404680383,0.630751484839,0.534172159795,0.473445306909,NaN,NaN,-0.888872405622,0.744743745629,-0.431920137807,NaN,NaN,-1.24668915,8.6777418,-6.95986305,NaN,5
1.5692657001439e+18,NaN,62029,NaN,1569265700,78608036,NaN,NaN,0.304204601125,0.63503626102,0.524330160316,0.478817701037,NaN,NaN,0.277007534714,-0.120939563363,-0.416212174539,NaN,NaN,-3.50447265,10.1109435,-0.83439825,NaN,5
1.56926570018599e+18,NaN,62030,NaN,1569265700,143148899,NaN,NaN,0.297552682479,0.634144258697,0.518187398422,0.49071914618,NaN,NaN,-0.15408879053,-0.152355489899,-0.428429479303,NaN,NaN,-1.63934715,9.1881972,-1.8651255,NaN,5
1.56926570022814e+18,NaN,62031,NaN,1569265700,185322999,NaN,NaN,0.297579958913,0.637782807213,0.508795392392,0.495788773127,NaN,NaN,0.266535559202,-0.120939563363,-0.410976186783,NaN,NaN,-2.69952375,10.19929155,-0.20614545,NaN,5
1.56926570029255e+18,NaN,62032,NaN,1569265700,227463960,NaN,NaN,0.29240944599,0.645171303474,0.49621780014,0.502014541516,NaN,NaN,0.320640766014,0.0134507890412,-0.697210184111,NaN,NaN,-4.25052285,9.8753487,-0.00981645,NaN,5
1.56926570033633e+18,NaN,62033,NaN,1569265700,291512012,NaN,NaN,0.265668450775,0.641546509834,0.496515669373,0.520874783465,NaN,NaN,-0.723066126682,0.0151961182932,-0.758296707931,NaN,NaN,-5.95858515,8.0298561,-2.95475145,NaN,5
1.56926570037751e+18,NaN,62034,NaN,1569265700,334429979,NaN,NaN,0.260929597903,0.642591745192,0.489105293267,0.528930624985,NaN,NaN,-0.030170413638,-0.129666209623,-0.540130551431,NaN,NaN,-1.65898005,7.85316,-1.96329,NaN,5
1.56926570044089e+18,NaN,62035,NaN,1569265700,376446008,NaN,NaN,0.251801227834,0.63131947968,0.493993253423,0.542219993923,NaN,NaN,-0.890617734874,-0.349577695375,-0.430174808555,NaN,NaN,1.16815755,8.4225141,-1.4528346,NaN,5
1.56926570048312e+18,NaN,62036,NaN,1569265700,439997911,NaN,NaN,0.247593784505,0.623618411435,0.492480682471,0.554310537684,NaN,NaN,-0.283243155178,-0.265801891279,-0.231207273827,NaN,NaN,4.4959341,6.3806925,0.30430995,NaN,5
1.56926570054748e+18,NaN,62037,NaN,1569265700,482341051,NaN,NaN,0.25068003681,0.618023832878,0.498233265975,0.554048439955,NaN,NaN,-0.253572557894,-0.0668343565508,0.322062099057,NaN,NaN,-2.38539735,2.3952138,-2.01237225,NaN,2
1.56926570058961e+18,NaN,62038,NaN,1569265700,546530008,NaN,NaN,0.289953227087,0.609029584149,0.520470911501,0.523564821215,NaN,NaN,0.32587675377,0.0501027033332,1.69214556188,NaN,NaN,3.54373845,16.6094334,4.0640103,NaN,4
1.5692657006321e+18,NaN,62039,NaN,1569265700,588910102,NaN,NaN,0.325259408145,0.588556284227,0.554403410447,0.490351584269,NaN,NaN,-0.175032741554,0.126897190421,2.96274525733,NaN,NaN,-4.2996051,-1.34485365,-4.60391505,NaN,4
1.569265700697e+18,NaN,62040,NaN,1569265700,631463050,NaN,NaN,0.38094287863,0.559937500223,0.594270515447,0.43381456123,NaN,NaN,0.29097016873,0.137369165933,4.39566057322,NaN,NaN,5.2419843,19.60345065,-0.22577835,NaN,4
1.56926570074137e+18,NaN,62041,NaN,1569265700,695472955,NaN,NaN,0.38190565628,0.562624247998,0.590793313598,0.434241045819,NaN,NaN,0.092002634002,0.0169414475452,-0.0549290193752,NaN,NaN,-1.0405437,9.4434249,-0.79513245,NaN,1
1.56926570078084e+18,NaN,62042,NaN,1569265700,738480091,NaN,NaN,0.382644935541,0.559952047453,0.589329683959,0.439006926441,NaN,NaN,-0.12790885175,-0.155846148403,-0.0863449459112,NaN,NaN,-0.52027185,10.5821331,-0.06871515,NaN,1
1.56926570084504e+18,NaN,62043,NaN,1569265700,779942989,NaN,NaN,0.381748253961,0.562642223615,0.585987954584,0.440817553967,NaN,NaN,0.092002634002,0.0431213863252,-0.180592725519,NaN,NaN,-0.85403115,9.55140585,-0.02944935,NaN,1
1.56926570088715e+18,NaN,62044,NaN,1569265700,844053030,NaN,NaN,0.37839341092,0.564583310008,0.581826681903,0.446701046404,NaN,NaN,-0.030170413638,-0.0197104667468,-0.241679249339,NaN,NaN,-0.7264173,9.7379184,-0.4908225,NaN,1
1.56926570092965e+18,NaN,62045,NaN,1569265700,886435985,NaN,NaN,0.379363265798,0.565678874258,0.581053986861,0.445496563549,NaN,NaN,0.067568024474,0.0832639591212,0.0358281017288,NaN,NaN,-0.9031134,9.49250715,-0.1374303,NaN,1
1.5692657009943e+18,NaN,62046,NaN,1569265700,928831100,NaN,NaN,0.381737409844,0.5643282129,0.577881649055,0.449291684473,NaN,NaN,0.022189463922,-0.185516745687,-0.0584196778792,NaN,NaN,-2.24796705,10.92570885,0.55953765,NaN,5
1.56926570103666e+18,NaN,62047,NaN,1569265700,993081092,NaN,NaN,0.368741664242,0.572878904249,0.559630871924,0.47186081985,NaN,NaN,0.02044413467,-0.218678001475,-0.988680169195,NaN,NaN,-6.7537176,10.63121535,-0.91292985,NaN,5
1.569265701079e+18,NaN,62048,NaN,1569265701,35164117,NaN,NaN,0.355911514449,0.581196638182,0.546515844162,0.486680484228,NaN,NaN,-0.01446245037,-0.0493810640308,-1.1230705216,NaN,NaN,-3.6517194,8.35379895,-0.73623375,NaN,5
1.56926570114279e+18,NaN,62049,NaN,1569265701,78295946,NaN,NaN,0.35022995158,0.58084291332,0.539257218874,0.499161439771,NaN,NaN,-0.166306095294,-0.260565903523,-0.602962404503,NaN,NaN,-2.52282765,8.4225141,0.4319238,NaN,5
1.5692657011853e+18,NaN,62050,NaN,1569265701,141401052,NaN,NaN,0.337266542163,0.570357780626,0.540473398702,0.518489910135,NaN,NaN,-0.656743615106,-0.241367281751,-0.510459954147,NaN,NaN,2.9645679,10.1502093,-0.4711896,NaN,5
1.56926570122768e+18,NaN,62051,NaN,1569265701,183963060,NaN,NaN,0.338619506573,0.56845461649,0.541252710639,0.518885037349,NaN,NaN,-0.051114364662,0.00646947203322,-0.0619103363832,NaN,NaN,3.64190295,8.4028812,1.3350372,NaN,1
1.56926570129165e+18,NaN,62052,NaN,1569265701,226875066,NaN,NaN,0.350340585043,0.565432321213,0.54438523375,0.51106993834,NaN,NaN,0.222902327902,-0.0458904055268,0.610041425637,NaN,NaN,0.2748606,11.2103859,0.40247445,NaN,5
1.56926570134151e+18,NaN,62053,NaN,1569265701,290396928,NaN,NaN,0.349637124735,0.573170205277,0.537044788243,0.510698239874,NaN,NaN,0.24733693743,0.104207910145,-0.205027335047,NaN,NaN,-1.5509991,12.1527651,0.89329695,NaN,5
1.56926570139751e+18,NaN,62054,NaN,1569265701,339956998,NaN,NaN,0.33494414202,0.552217164271,0.55925620599,0.519712537151,NaN,NaN,-1.41072585197,0.0483573740812,0.226068990197,NaN,NaN,-1.22705625,6.3021609,-2.79768825,NaN,5
1.56926570144033e+18,NaN,62055,NaN,1569265701,396270990,NaN,NaN,0.384849634387,0.57032374819,0.532890820551,0.492594107288,NaN,NaN,2.12705654183,-0.393210926675,0.796791655601,NaN,NaN,-0.10798095,10.23855735,1.0994424,NaN,5
1.56926570148221e+18,NaN,62056,NaN,1569265701,439369916,NaN,NaN,0.438905520905,0.613566539373,0.479361022905,0.448454072565,NaN,NaN,4.48150570278,-0.0930142953308,0.648438669181,NaN,NaN,-6.27271155,7.76481195,-2.97438435,NaN,5
1.56926570154639e+18,NaN,62057,NaN,1569265701,481323957,NaN,NaN,0.436056624233,0.620636713455,0.471159276409,0.450192877141,NaN,NaN,0.297951485738,0.0378853985692,-0.452864088831,NaN,NaN,0.1570632,14.97008625,-1.81604325,NaN,4
1.56926570158819e+18,NaN,62058,NaN,1569265701,545236110,NaN,NaN,0.43815731504,0.634561438887,0.441759179961,0.45847439893,NaN,NaN,0.688905238186,-0.372266975651,-0.690228867103,NaN,NaN,-4.03456095,4.2407064,-1.3350372,NaN,5
1.56926570163187e+18,NaN,62059,NaN,1569265701,587486982,NaN,NaN,0.425192122709,0.613376811047,0.461275281193,0.479797521271,NaN,NaN,-1.76153703162,-0.387974938919,0.0218654677128,NaN,NaN,-4.66281375,9.88516515,-4.50575055,NaN,1
1.56926570169968e+18,NaN,62060,NaN,1569265701,630470037,NaN,NaN,0.424807868253,0.617823594027,0.449731162524,0.485359828569,NaN,NaN,0.364273997314,-0.223913989231,-0.407485528279,NaN,NaN,-5.1830856,8.78572275,1.766961,NaN,5
1.5692657017593e+18,NaN,62061,NaN,1569265701,694242954,NaN,NaN,0.433797345752,0.635580518531,0.426001884447,0.475793717623,NaN,NaN,0.969903247758,0.0343947400652,-0.292293797647,NaN,NaN,-3.5928207,6.2039964,-2.5915428,NaN,5
1.56926570178005e+18,NaN,62062,NaN,1569265701,757914066,NaN,NaN,0.41855915505,0.639803404127,0.422903167141,0.48642856517,NaN,NaN,-0.290224472186,0.0291587523092,-0.547111868439,NaN,NaN,-3.1608969,9.3059946,-3.72043455,NaN,5
1.569265701929e+18,NaN,62063,NaN,1569265701,779122114,NaN,NaN,0.413613054937,0.639156535719,0.42076190607,0.493317932001,NaN,NaN,-0.440322787858,-0.248348598759,-0.548857197691,NaN,NaN,-5.38923105,9.1292985,-2.11053675,NaN,5
1.56926570193052e+18,NaN,62064,NaN,1569265701,927956104,NaN,NaN,0.295816112998,0.579736072012,0.476576419351,0.590993934501,NaN,NaN,-2.1769253936,-0.246603269507,-0.876979097067,NaN,NaN,-4.6726302,10.70974695,-5.19290205,NaN,5
1.56926570196479e+18,NaN,62065,NaN,1569265701,929811954,NaN,NaN,0.295093440109,0.578565479101,0.475708388316,0.593197587051,NaN,NaN,-1.7405930806,-0.871431141723,-1.56463882236,NaN,NaN,-4.11309255,12.20184735,0,NaN,4
1.56926570201369e+18,NaN,62066,NaN,1569265701,963462114,NaN,NaN,0.239169698293,0.551161369502,0.493755078238,0.628669168085,NaN,NaN,-4.04442769324,-0.202970038207,-1.80549425913,NaN,NaN,-2.2185177,7.47031845,2.05163805,NaN,4
1.5692657020345e+18,NaN,62067,NaN,1569265702,12814998,NaN,NaN,0.272908973988,0.56044732665,0.503968299717,0.597859045969,NaN,NaN,1.02400845457,0.432329809521,1.36227833325,NaN,NaN,5.0849211,7.2838059,-0.7656831,NaN,4
1.56926570210012e+18,NaN,62068,NaN,1569265702,33689022,NaN,NaN,0.264354758096,0.54963381047,0.54691647451,0.573499438683,NaN,NaN,-2.74241207125,2.4185144983,3.39907757033,NaN,NaN,2.1792519,7.47031845,2.66025795,NaN,4
1.56926570214415e+18,NaN,62069,NaN,1569265702,98371982,NaN,NaN,0.260568141551,0.488030303714,0.650127327597,0.520831185872,NaN,NaN,-2.47188603719,0.781395659921,3.21058201112,NaN,NaN,1.12889175,7.5586665,1.06999305,NaN,4
1.56926570218319e+18,NaN,62070,NaN,1569265702,142728090,NaN,NaN,0.279944809887,0.466295874264,0.668679350364,0.5070177388,NaN,NaN,-0.429850812346,-0.461278767503,1.53332059994,NaN,NaN,0.32394285,9.61030455,4.8885921,NaN,4
1.56926570235363e+18,NaN,62071,NaN,1569265702,182501077,NaN,NaN,0.288282551523,0.448822818672,0.663614554032,0.524468275116,NaN,NaN,-0.53806122597,-1.13672118803,-0.224225956819,NaN,NaN,-1.4724675,8.98205175,3.15108045,NaN,1
1.56926570235585e+18,NaN,62072,NaN,1569265702,352334022,NaN,NaN,0.39045474413,0.406623481183,0.614765614409,0.551602825118,NaN,NaN,0.470739081686,-1.37234063705,0.173709112637,NaN,NaN,-2.6897073,11.6030439,4.07382675,NaN,5
1.56926570238886e+18,NaN,62073,NaN,1569265702,355004072,NaN,NaN,0.391401185398,0.40580210557,0.614212773125,0.552152544606,NaN,NaN,0.032661439434,-0.749258094083,0.185926417401,NaN,NaN,-2.50319475,11.5441452,3.9854787,NaN,5
1.56926570242174e+18,NaN,62074,NaN,1569265702,387753963,NaN,NaN,0.395679378069,0.406910470112,0.615464762779,0.546868196974,NaN,NaN,0.28224352247,0.0658106666012,0.330788745317,NaN,NaN,-2.36576445,11.06313915,4.3781367,NaN,5
1.5692657024568e+18,NaN,62075,NaN,1569265702,420969009,NaN,NaN,0.388025886328,0.413690250092,0.621400040127,0.540516677494,NaN,NaN,0.00299084215003,0.811066257205,0.171963783385,NaN,NaN,-2.3166822,9.11948205,3.3179601,NaN,1
1.56926570248891e+18,NaN,62076,NaN,1569265702,455189943,NaN,NaN,0.389272192281,0.418528436686,0.626860252241,0.529478358541,NaN,NaN,0.37823663133,0.521341601373,0.552445560321,NaN,NaN,-1.0209108,7.72554615,4.21125705,NaN,5
1.5692657025879e+18,NaN,62077,NaN,1569265702,487783908,NaN,NaN,0.383537623499,0.421824386248,0.634693789527,0.521657811274,NaN,NaN,0.00124551289803,0.753470391889,0.365695330357,NaN,NaN,-0.2355948,7.9316916,5.3401488,NaN,5
1.56926570258893e+18,NaN,62078,NaN,1569265702,586148977,NaN,NaN,0.36278604674,0.433546618957,0.651221386874,0.506294695567,NaN,NaN,-0.077294303442,0.674930575549,0.112622588817,NaN,NaN,0.2552277,7.9513245,4.2603393,NaN,5
1.56926570263001e+18,NaN,62079,NaN,1569265702,588283061,NaN,NaN,0.362920099111,0.43227131225,0.651178103085,0.507343662944,NaN,NaN,-0.298951118446,-0.0458904055268,0.00964816294885,NaN,NaN,0.7460502,8.02003965,4.6333644,NaN,5
1.56926570271519e+18,NaN,62080,NaN,1569265702,629153013,NaN,NaN,0.357392542892,0.415497053683,0.657257333467,0.517344726724,NaN,NaN,-0.944722941686,-0.279764525295,-0.000823812563152,NaN,NaN,1.8651255,8.245818,4.93767435,NaN,1
1.56926570273755e+18,NaN,62081,NaN,1569265702,713922977,NaN,NaN,0.358495227558,0.370614145232,0.667861692459,0.536737446912,NaN,NaN,-0.937741624678,-0.644538338963,0.213851685433,NaN,NaN,2.01237225,8.4225141,5.66409165,NaN,5
1.56926570280283e+18,NaN,62082,NaN,1569265702,735661983,NaN,NaN,0.361316468908,0.357622312842,0.666781805248,0.544939184537,NaN,NaN,-0.850475162078,-1.05120005468,-0.0706369826432,NaN,NaN,2.4737454,8.19673575,5.46776265,NaN,1
1.56926570284862e+18,NaN,62083,NaN,1569265702,800463914,NaN,NaN,0.367595384071,0.315850300866,0.661212202331,0.572634826518,NaN,NaN,-0.969157551214,-1.21002501661,-0.114270213943,NaN,NaN,0.22577835,7.4801349,7.4212362,NaN,5
1.56926570292758e+18,NaN,62084,NaN,1569265702,847889900,NaN,NaN,0.362520848097,0.285120354907,0.653240652105,0.600467874536,NaN,NaN,-1.30077010909,-1.09483328598,-0.587254441235,NaN,NaN,2.7093402,8.3832483,6.39050895,NaN,5
1.56926570294851e+18,NaN,62085,NaN,1569265702,926552057,NaN,NaN,0.37076102577,0.250271848264,0.632967226813,0.631864505663,NaN,NaN,-0.578203798766,-1.10355993224,-0.468572052099,NaN,NaN,1.8258597,6.6555531,7.1463756,NaN,5
1.56926570301707e+18,NaN,62086,NaN,1569265702,947741031,NaN,NaN,0.378621260756,0.242277613469,0.629773022828,0.633508830746,NaN,NaN,0.104219938766,-1.20129837035,0.107386601061,NaN,NaN,1.56081555,6.4199583,7.96114095,NaN,5
1.56926570303448e+18,NaN,62087,NaN,1569265703,11889934,NaN,NaN,0.401760367817,0.227519541172,0.6262090416,0.628240162243,NaN,NaN,0.28224352247,-0.798127313139,0.360459342601,NaN,NaN,1.4921004,6.9500466,8.0298561,NaN,5
1.56926570309735e+18,NaN,62088,NaN,1569265703,33440113,NaN,NaN,0.400426842055,0.223340564451,0.63026593705,0.626531870719,NaN,NaN,-0.272771179666,-0.169808782419,0.437253829689,NaN,NaN,0.2748606,6.9107808,8.049489,NaN,5
1.56926570314093e+18,NaN,62089,NaN,1569265703,96465110,NaN,NaN,0.389266002534,0.21110275094,0.64570874664,0.622067377644,NaN,NaN,-0.518862604198,0.147841141445,0.461688439217,NaN,NaN,0.7067844,7.6371981,7.21509075,NaN,5
1.56926570318235e+18,NaN,62090,NaN,1569265703,139031887,NaN,NaN,0.37851553135,0.204019369351,0.656553419528,0.619709364752,NaN,NaN,-0.604383737546,0.238598262549,0.414564549413,NaN,NaN,-0.3730251,6.9304137,6.31197735,NaN,5
1.56926570324651e+18,NaN,62091,NaN,1569265703,181078910,NaN,NaN,0.364005108748,0.198334365667,0.664639904497,0.621624933181,NaN,NaN,-0.749246065462,0.332846042157,0.123094564329,NaN,NaN,0.71660085,7.64701455,6.27271155,NaN,5
1.56926570328828e+18,NaN,62092,NaN,1569265703,245081901,NaN,NaN,0.351614179529,0.198307914589,0.674353087503,0.618295522497,NaN,NaN,-0.291969801438,0.332846042157,0.177199771141,NaN,NaN,0.0981645,7.1267427,5.4383133,NaN,5
1.56926570333942e+18,NaN,62093,NaN,1569265703,287439107,NaN,NaN,0.357666947888,0.205937735163,0.67926078768,0.60685153534,NaN,NaN,0.507390995978,0.158313116957,0.423291195673,NaN,NaN,0.9423792,7.41141975,4.711896,NaN,5
1.56926570339477e+18,NaN,62094,NaN,1569265703,332731962,NaN,NaN,0.360072634794,0.210542644987,0.690467319634,0.590994393232,NaN,NaN,0.311914119754,0.327610054401,0.706034534497,NaN,NaN,1.5313662,7.09729335,4.9474908,NaN,5
1.56926570343771e+18,NaN,62095,NaN,1569265703,393970966,NaN,NaN,0.362392487105,0.232542802974,0.701350953596,0.568068983456,NaN,NaN,0.723811823226,0.647005307517,0.458197780713,NaN,NaN,3.2394285,7.5979323,6.05674965,NaN,5
1.56926570348041e+18,NaN,62096,NaN,1569265703,436450958,NaN,NaN,0.347717861501,0.248990376802,0.709790007638,0.559726921017,NaN,NaN,0.193231730618,1.16013210761,0.0253561262168,NaN,NaN,3.36704235,7.58811585,6.39050895,NaN,5
1.56926570356449e+18,NaN,62097,NaN,1569265703,478717088,NaN,NaN,0.328037148051,0.265895581278,0.714645330776,0.55764972927,NaN,NaN,0.018698805418,1.2404172532,-0.351634992215,NaN,NaN,3.4553904,6.7537176,5.6739081,NaN,5
1.56926570358554e+18,NaN,62098,NaN,1569265703,563769102,NaN,NaN,0.31915309967,0.297870221453,0.726645212369,0.53047277544,NaN,NaN,0.551024227278,0.849463500749,0.308099465041,NaN,NaN,2.5719099,7.5194007,5.3990475,NaN,5
1.56926570362897e+18,NaN,62099,NaN,1569265703,584914922,NaN,NaN,0.32429208178,0.306221574593,0.724495975783,0.525517434556,NaN,NaN,1.02051779607,0.201946348257,0.130075881337,NaN,NaN,2.0025558,7.05802755,4.64318085,NaN,5
1.56926570369241e+18,NaN,62100,NaN,1569265703,627928972,NaN,NaN,0.334719326422,0.3296647448,0.717147867653,0.514765057552,NaN,NaN,1.30151580564,0.292703469361,-0.00955045882315,NaN,NaN,1.73751165,8.76608985,5.21253495,NaN,1
1.56926570373453e+18,NaN,62101,NaN,1569265703,691483020,NaN,NaN,0.32920933023,0.370633044702,0.698029867496,0.516726878678,NaN,NaN,1.0083004913,0.598136088461,-0.840327182775,NaN,NaN,1.6098978,8.56976085,4.4566683,NaN,5
1.56926570377939e+18,NaN,62102,NaN,1569265703,733645915,NaN,NaN,0.36384529313,0.417896397937,0.670594773515,0.493236102686,NaN,NaN,3.26501121414,0.0361400693172,0.00266684594085,NaN,NaN,0.392658,8.09857125,2.93511855,NaN,5
1.56926570384143e+18,NaN,62103,NaN,1569265703,778253078,NaN,NaN,0.363758631377,0.439581894084,0.659541409025,0.489338886942,NaN,NaN,0.934996662718,0.418367175505,-0.461590735091,NaN,NaN,0.34357575,9.620121,4.122909,NaN,5
1.56926570388359e+18,NaN,62104,NaN,1569265703,840068101,NaN,NaN,0.38334768708,0.509116322223,0.620725819128,0.456666813688,NaN,NaN,2.74141243854,0.737762428621,-0.456354747335,NaN,NaN,0.67733505,9.64957035,1.7865939,NaN,5
1.56926570392655e+18,NaN,62105,NaN,1569265703,882765054,NaN,NaN,0.377031653726,0.508131130425,0.610708273055,0.476114788264,NaN,NaN,-0.274516508918,-0.422881523959,-0.901413706595,NaN,NaN,0.69696795,14.0178906,0.02944935,NaN,4
1.56926570398961e+18,NaN,62106,NaN,1569265703,925631999,NaN,NaN,0.411894554908,0.534461281774,0.559791692281,0.480964941732,NaN,NaN,2.70301519499,-1.3740859663,-0.897923048091,NaN,NaN,-0.5104554,8.4814128,2.73878955,NaN,5
1.5692657040327e+18,NaN,62107,NaN,1569265703,988818883,NaN,NaN,0.421495839047,0.519517018532,0.527077545767,0.524053991369,NaN,NaN,-0.11045555923,-1.53814691599,-0.917121669863,NaN,NaN,-0.12761385,9.7968171,2.1203532,NaN,5
1.56926570409624e+18,NaN,62108,NaN,1569265704,31953096,NaN,NaN,0.4342979409,0.528523175686,0.507646092519,0.523778575396,NaN,NaN,1.02924444233,-0.445570804235,-0.318473736427,NaN,NaN,-1.48228395,8.72682405,1.5902649,NaN,5
1.56926570413996e+18,NaN,62109,NaN,1569265704,95422983,NaN,NaN,0.455369335569,0.512391935678,0.47899275866,0.548324000593,NaN,NaN,0.21243035239,-1.41073788059,-0.274840505127,NaN,NaN,-2.34613155,9.04095045,-0.52027185,NaN,5
1.56926570418088e+18,NaN,62110,NaN,1569265704,138593912,NaN,NaN,0.470874149758,0.51795463652,0.45347413742,0.551689891414,NaN,NaN,1.06589635662,-0.831288568927,-0.465081393595,NaN,NaN,-1.71787875,9.5808552,0.69696795,NaN,5
1.56926570424508e+18,NaN,62111,NaN,1569265704,179934978,NaN,NaN,0.472293589692,0.525450901719,0.448852284942,0.547148737841,NaN,NaN,0.43059650889,0.168785092469,-0.136959494219,NaN,NaN,-2.38539735,9.6593868,0.32394285,NaN,1
1.56926570428693e+18,NaN,62112,NaN,1569265704,244342088,NaN,NaN,0.448185859875,0.538730874171,0.44533757006,0.557290704135,NaN,NaN,-0.298951118446,0.345063346921,-0.796693951475,NaN,NaN,-1.4921004,9.3452604,1.1976069,NaN,5
1.56926570432995e+18,NaN,62113,NaN,1569265704,286298036,NaN,NaN,0.457457344334,0.54996708129,0.434429567312,0.547302419744,NaN,NaN,0.976884564766,0.121661202665,-0.0496930316192,NaN,NaN,-3.6124536,10.2287409,-0.36320865,NaN,1
1.56926570439346e+18,NaN,62114,NaN,1569265704,328918933,NaN,NaN,0.445528118098,0.553172563355,0.427160901282,0.559498324886,NaN,NaN,-0.358292313014,-0.157591477655,-0.805420597735,NaN,NaN,-2.6111757,9.45324135,-1.96329,NaN,5
1.56926570443633e+18,NaN,62115,NaN,1569265704,392554044,NaN,NaN,0.450024321069,0.567487877822,0.427347265809,0.541119148966,NaN,NaN,0.510881654482,0.512614955113,0.124839893581,NaN,NaN,-1.9829229,9.1881972,-1.32522075,NaN,1
1.56926570447908e+18,NaN,62116,NaN,1569265704,435105085,NaN,NaN,0.445213649827,0.571095938944,0.429905243474,0.539273322318,NaN,NaN,-0.094747595962,0.296194127865,-0.0898356044152,NaN,NaN,-2.52282765,8.35379895,-0.981645,NaN,1
1.56926570454465e+18,NaN,62117,NaN,1569265704,477708101,NaN,NaN,0.439679859969,0.581702534675,0.433067433889,0.529864491729,NaN,NaN,0.187995742862,0.713327819093,-0.0898356044152,NaN,NaN,-2.54246055,8.19673575,-0.28467705,NaN,1
1.56926570458494e+18,NaN,62118,NaN,1569265704,542489051,NaN,NaN,0.431433496135,0.581635219339,0.441757487937,0.529543135059,NaN,NaN,-0.290224472186,0.243834250305,-0.000823812563152,NaN,NaN,-2.18906835,7.60774875,-0.42210735,NaN,5
1.56926570463363e+18,NaN,62119,NaN,1569265704,583838939,NaN,NaN,0.42697500048,0.576448327307,0.444414121123,0.536559189518,NaN,NaN,-0.469993385142,-0.168063453167,-0.0828542874072,NaN,NaN,-3.26887785,10.1698422,-1.20742335,NaN,1
1.56926570469164e+18,NaN,62120,NaN,1569265704,632829904,NaN,NaN,0.430320242049,0.57367714022,0.453523372705,0.52918387965,NaN,NaN,-0.089511608206,0.222890299281,0.458197780713,NaN,NaN,-2.0810874,9.7771842,-1.42338525,NaN,5
1.56926570473336e+18,NaN,62121,NaN,1569265704,690020084,NaN,NaN,0.431867549781,0.567883280845,0.451924376589,0.535502900672,NaN,NaN,-0.134890168758,-0.272783208287,-0.0112957880752,NaN,NaN,-2.3952138,10.55268375,-0.59880345,NaN,1
1.56926570477631e+18,NaN,62122,NaN,1569265704,732619047,NaN,NaN,0.434520397697,0.572412582233,0.44780258151,0.531985627324,NaN,NaN,0.332858070778,0.0815186298692,-0.0479477023672,NaN,NaN,-2.355948,9.94406385,-0.67733505,NaN,1
1.56926570484467e+18,NaN,62123,NaN,1569265704,775496959,NaN,NaN,0.436339014096,0.570683650667,0.436694698494,0.541503625054,NaN,NaN,0.104219938766,-0.550290559355,-0.403994869775,NaN,NaN,-1.6491636,8.78572275,-0.52027185,NaN,5
1.56926570488215e+18,NaN,62124,NaN,1569265704,839031934,NaN,NaN,0.447003799746,0.577553030359,0.424833870342,0.534917080252,NaN,NaN,0.571968178302,-0.0703250150548,-0.0235130928392,NaN,NaN,-1.9240242,10.25819025,-1.14852465,NaN,1
1.5692657049458e+18,NaN,62125,NaN,1569265704,881323099,NaN,NaN,0.439375811456,0.576027262594,0.428061839206,0.540281917956,NaN,NaN,-0.438577458606,0.0431213863252,-0.199791347291,NaN,NaN,-2.552277,9.53177295,-0.9620121,NaN,1
1.56926570498884e+18,NaN,62126,NaN,1569265704,945137977,NaN,NaN,0.436141566754,0.581303058576,0.423433924968,0.540898325959,NaN,NaN,0.083275987742,0.0640653373492,-0.206772664299,NaN,NaN,-3.3179601,9.5415894,-0.95219565,NaN,1
1.56926570505235e+18,NaN,62127,NaN,1569265704,988226890,NaN,NaN,0.431425783914,0.582853198619,0.421790055765,0.544285853841,NaN,NaN,-0.131399510254,0.0117054597892,-0.260877871111,NaN,NaN,-2.85658695,9.21764655,-1.2172398,NaN,1
1.56926570509519e+18,NaN,62128,NaN,1569265705,51230907,NaN,NaN,0.425681739945,0.587161669998,0.416770244775,0.548031744184,NaN,NaN,-0.00224514560597,0.0204321060492,-0.302765773159,NaN,NaN,-3.2001627,10.67048115,-0.59880345,NaN,5
1.56926570513767e+18,NaN,62129,NaN,1569265705,94221115,NaN,NaN,0.420427248039,0.590802240835,0.408333155038,0.554488661586,NaN,NaN,0.04662407345,-0.136647526631,-0.554093185447,NaN,NaN,-3.141264,9.2470959,-0.0588987,NaN,5
1.56926570518019e+18,NaN,62130,NaN,1569265705,136097908,NaN,NaN,0.414059911992,0.595143799641,0.401598690164,0.559532607709,NaN,NaN,-0.00922646261397,-0.0319277715108,-0.557583843951,NaN,NaN,-2.75842245,9.43360845,-0.9620121,NaN,5
1.56926570524395e+18,NaN,62131,NaN,1569265705,178814888,NaN,NaN,0.410407507487,0.600967270104,0.391265205068,0.563307693331,NaN,NaN,0.23861029117,-0.0703250150548,-0.557583843951,NaN,NaN,-3.6909852,9.7575513,0.00981645,NaN,5
1.56926570528599e+18,NaN,62132,NaN,1569265705,243213891,NaN,NaN,0.382073117115,0.602791759317,0.388988301784,0.582537834954,NaN,NaN,-0.731792772942,-0.0249464545028,-0.843817841279,NaN,NaN,-2.6504415,8.66792535,-3.58300425,NaN,5
1.56926570532963e+18,NaN,62133,NaN,1569265705,285232067,NaN,NaN,0.370887656624,0.607401502791,0.376581501592,0.593036367544,NaN,NaN,-0.04936903541,-0.173299440923,-0.952028254903,NaN,NaN,-4.3977696,9.9931461,0.79513245,NaN,5
1.56926570539273e+18,NaN,62134,NaN,1569265705,328473091,NaN,NaN,0.365754753846,0.614184064053,0.360888857309,0.598966299697,NaN,NaN,0.327622083022,-0.140138185135,-0.768768683443,NaN,NaN,-5.2616172,6.50830635,0.99146145,NaN,5
1.56926570544177e+18,NaN,62135,NaN,1569265705,391643047,NaN,NaN,0.362006592312,0.620530532612,0.347693949547,0.602496475232,NaN,NaN,0.214175681642,-0.0528717225348,-0.437156125563,NaN,NaN,-1.96329,6.80279985,-1.5313662,NaN,5
1.569265705481e+18,NaN,62136,NaN,1569265705,440540075,NaN,NaN,0.352326868375,0.610199282496,0.364233803972,0.608979761163,NaN,NaN,-0.908071027394,-0.0249464545028,0.222578331693,NaN,NaN,1.06999305,4.27015575,1.60008135,NaN,5
1.56926570554156e+18,NaN,62137,NaN,1569265705,479446887,NaN,NaN,0.344264114042,0.606697876176,0.374374880643,0.610936457882,NaN,NaN,-0.681178224634,0.181002397233,0.0916786377928,NaN,NaN,0.9227463,-2.9645679,-2.6700744,NaN,2
1.5692657055834e+18,NaN,62138,NaN,1569265705,540783882,NaN,NaN,0.421141910751,0.561654837197,0.462533202341,0.541522272482,NaN,NaN,0.00997215915803,0.551012198657,4.67840391205,NaN,NaN,-12.94789755,11.59322745,-1.2565056,NaN,4
1.56926570562757e+18,NaN,62139,NaN,1569265705,582600116,NaN,NaN,0.487338873797,0.489305466949,0.548772627156,0.471094030724,NaN,NaN,-0.794624626014,0.318883408141,7.10615690158,NaN,NaN,-12.4472586,19.60345065,8.6188431,NaN,4
1.5692657056896e+18,NaN,62140,NaN,1569265705,625395059,NaN,NaN,0.484198028529,0.50507644725,0.543887000676,0.463289307126,NaN,NaN,0.626073385114,0.516105613617,-0.308001760915,NaN,NaN,-0.6871515,10.1894751,0.18651255,NaN,5
1.56926570573219e+18,NaN,62141,NaN,1569265705,688860893,NaN,NaN,0.488312566065,0.495560249497,0.544677304324,0.468292121539,NaN,NaN,-0.192486034074,-0.264056562027,0.138802527597,NaN,NaN,0.20614545,11.5245123,-0.0196329,NaN,5
1.56926570579643e+18,NaN,62142,NaN,1569265705,731096029,NaN,NaN,0.472842082047,0.489978102942,0.55154498419,0.481809043604,NaN,NaN,-0.98312018523,0.137369165933,-0.410976186783,NaN,NaN,-1.177974,8.0298561,-1.42338525,NaN,5
1.56926570583855e+18,NaN,62143,NaN,1569265705,795222997,NaN,NaN,0.493896353799,0.497855079015,0.537902418939,0.467832982701,NaN,NaN,0.877400797402,-0.220423330727,0.255739587481,NaN,NaN,-0.6478857,10.98460755,1.14852465,NaN,5
1.5692657058808e+18,NaN,62144,NaN,1569265705,837502956,NaN,NaN,0.491290538464,0.496004302884,0.539656023739,0.470515371033,NaN,NaN,-0.19772202183,0.0186867767972,-0.0130411173272,NaN,NaN,-0.77549955,9.6790197,0.6478857,NaN,1
1.5692657059465e+18,NaN,62145,NaN,1569265705,880050897,NaN,NaN,0.494771647408,0.498432571464,0.537859581916,0.466340067726,NaN,NaN,0.257808912942,0.0396307278212,0.123094564329,NaN,NaN,-0.67733505,10.33672185,-0.7460502,NaN,1
1.5692657059874e+18,NaN,62146,NaN,1569265705,944585084,NaN,NaN,0.499930998169,0.499538587835,0.528784171642,0.470018612562,NaN,NaN,0.179269096602,-0.257075245019,-0.126487518707,NaN,NaN,-1.6098978,7.656831,1.2565056,NaN,5
1.56926570603014e+18,NaN,62147,NaN,1569265705,986701011,NaN,NaN,0.501983460718,0.499044939628,0.526739884531,0.47065045144,NaN,NaN,0.06407736597,-0.112212917103,0.0148841507048,NaN,NaN,-2.9842008,11.14167075,-0.8442147,NaN,5
1.56926570610094e+18,NaN,62148,NaN,1569265706,29145956,NaN,NaN,0.496475703884,0.507504439675,0.516158769555,0.479094190921,NaN,NaN,0.137381194554,-0.113958246355,-0.774004671199,NaN,NaN,-7.1463756,10.2287409,0.7460502,NaN,5
1.56926570613768e+18,NaN,62149,NaN,1569265706,99492073,NaN,NaN,0.486359673745,0.513965335447,0.499232598096,0.500060711026,NaN,NaN,-0.094747595962,-0.300708476319,-0.775750000451,NaN,NaN,-7.47031845,9.62993745,-1.6884294,NaN,5
1.56926570617876e+18,NaN,62150,NaN,1569265706,135734081,NaN,NaN,0.473978422394,0.517667161709,0.489701226328,0.517259967256,NaN,NaN,-0.431596141598,-0.290236500807,-1.18764770392,NaN,NaN,-6.29234445,12.0938664,-0.81476535,NaN,4
1.56926570626409e+18,NaN,62151,NaN,1569265706,177781105,NaN,NaN,0.44179899304,0.524059706162,0.47598747762,0.551009070048,NaN,NaN,-1.06864131858,-0.222168659979,-2.06205765918,NaN,NaN,-5.76225615,14.45963085,-0.392658,NaN,4
1.56926570630649e+18,NaN,62152,NaN,1569265706,262480974,NaN,NaN,0.30614582078,0.503876115069,0.458282889066,0.665101789707,NaN,NaN,-3.01468343456,-0.328633744351,-3.02722473553,NaN,NaN,-0.65770215,14.1749538,-0.52027185,NaN,4
1.56926570634878e+18,NaN,62153,NaN,1569265706,305041074,NaN,NaN,0.235504354835,0.493793202477,0.451848891767,0.704654916289,NaN,NaN,-2.86458511889,0.231616945541,-2.59787373954,NaN,NaN,3.40630815,5.48739555,4.6922631,NaN,4
1.56926570639139e+18,NaN,62154,NaN,1569265706,347687959,NaN,NaN,0.227498195177,0.470248803345,0.530330817613,0.667727383019,NaN,NaN,-2.25895586844,1.18805737564,3.42351217986,NaN,NaN,3.05291595,7.66664745,0.32394285,NaN,4
1.5692657064403e+18,NaN,62155,NaN,1569265706,390067100,NaN,NaN,0.233790296561,0.461568221678,0.579994942258,0.629208026749,NaN,NaN,-0.735283431446,1.02050576745,2.80217496615,NaN,NaN,1.374303,5.6150094,4.319238,NaN,4
1.56926570648449e+18,NaN,62156,NaN,1569265706,439551115,NaN,NaN,0.23217841327,0.443167567502,0.623031185297,0.601271846732,NaN,NaN,-1.03198940429,0.556248186413,1.92951034015,NaN,NaN,0.1374303,4.3977696,4.58428215,NaN,4
1.56926570656147e+18,NaN,62157,NaN,1569265706,481017112,NaN,NaN,0.217938003539,0.419770424927,0.648259113549,0.596704230478,NaN,NaN,-1.66554392276,0.189729043493,0.870095484185,NaN,NaN,-2.1007203,8.1869193,3.72043455,NaN,5
1.56926570658251e+18,NaN,62158,NaN,1569265706,560616970,NaN,NaN,0.22899582447,0.399574813088,0.660126204329,0.593409028815,NaN,NaN,-0.290224472186,-0.367030987895,0.501831012013,NaN,NaN,-3.74006745,8.245818,4.7511618,NaN,5
1.56926570666734e+18,NaN,62159,NaN,1569265706,581593990,NaN,NaN,0.228217756465,0.390019222544,0.664713347439,0.594943549773,NaN,NaN,-0.87840043011,-0.332124402855,0.428527183429,NaN,NaN,-3.8873142,11.41653135,3.3768588,NaN,5
1.56926570668829e+18,NaN,62160,NaN,1569265706,666194915,NaN,NaN,0.238561278889,0.35206155242,0.648841752464,0.63098776516,NaN,NaN,-0.527589250458,-1.10006927373,-0.475553369107,NaN,NaN,-1.75714455,9.90479805,4.52538345,NaN,5
1.56926570673099e+18,NaN,62161,NaN,1569265706,687556028,NaN,NaN,0.243380449513,0.342600461912,0.646961993991,0.636263356342,NaN,NaN,-0.414142849078,-0.995349518615,-0.0304944098472,NaN,NaN,-0.75586665,8.70719115,5.78188905,NaN,1
1.56926570679527e+18,NaN,62162,NaN,1569265706,730164051,NaN,NaN,0.268287367208,0.327201075576,0.645335397689,0.636005950623,NaN,NaN,0.296206156486,-1.18384507783,0.519284304533,NaN,NaN,1.08962595,7.54885005,5.95858515,NaN,5
1.56926570683764e+18,NaN,62163,NaN,1569265706,794234991,NaN,NaN,0.313505648598,0.30647375037,0.651967721101,0.618648639596,NaN,NaN,0.577204166058,-1.08610663972,1.11793223797,NaN,NaN,0.71660085,7.3427046,8.35379895,NaN,4
1.56926570687968e+18,NaN,62164,NaN,1569265706,836711883,NaN,NaN,0.330330986487,0.306749548189,0.662685462908,0.598025192867,NaN,NaN,0.681923921178,-0.0581077102908,1.19123606655,NaN,NaN,0.3141264,6.9893124,6.871515,NaN,4
1.56926570698678e+18,NaN,62165,NaN,1569265706,879010915,NaN,NaN,0.36032318283,0.313320554927,0.666661453494,0.572328524714,NaN,NaN,1.42019819477,-0.342596378367,1.27152121214,NaN,NaN,-0.32394285,8.45196345,6.9500466,NaN,4
1.56926570698806e+18,NaN,62166,NaN,1569265706,985436916,NaN,NaN,0.367285739348,0.32138168236,0.681447539267,0.545384498443,NaN,NaN,0.29969681499,0.247324908809,0.494849695005,NaN,NaN,-0.2944935,7.05802755,8.0887548,NaN,5
1.56926570703148e+18,NaN,62167,NaN,1569265706,987428903,NaN,NaN,0.366022334311,0.321018080701,0.682190055157,0.545519725852,NaN,NaN,-0.716084809674,0.786631647677,0.149274503109,NaN,NaN,1.10925885,7.29362235,5.693541,NaN,5
1.56926570709267e+18,NaN,62168,NaN,1569265707,30311107,NaN,NaN,0.364043429477,0.328187647563,0.681660253069,0.543235261031,NaN,NaN,0.233374303414,0.275250176841,-0.0898356044152,NaN,NaN,1.10925885,6.1843635,5.09473755,NaN,5
1.56926570715647e+18,NaN,62169,NaN,1569265707,91598987,NaN,NaN,0.357227292072,0.34039740811,0.67332421307,0.55059310788,NaN,NaN,0.161815804082,0.201946348257,-0.538385222179,NaN,NaN,1.87494195,8.1280206,5.48739555,NaN,5
1.56926570717978e+18,NaN,62170,NaN,1569265707,155142068,NaN,NaN,0.361756942782,0.367110499949,0.653324719383,0.55455261808,NaN,NaN,0.830276907598,0.114679885657,-0.695464854859,NaN,NaN,1.73751165,7.88260935,5.19290205,NaN,5
1.56926570724087e+18,NaN,62171,NaN,1569265707,178312063,NaN,NaN,0.360220524431,0.365218886809,0.654862299371,0.554988024519,NaN,NaN,-0.164560766042,0.0797733006172,0.0113934922008,NaN,NaN,1.9829229,7.07766045,5.6542752,NaN,5
1.56926570728382e+18,NaN,62172,NaN,1569265707,240134954,NaN,NaN,0.354753481765,0.350795759603,0.668989022873,0.550950078951,NaN,NaN,-0.501409311678,0.0937359346332,0.418055207917,NaN,NaN,2.66025795,6.9696795,5.48739555,NaN,5
1.56926570732837e+18,NaN,62173,NaN,1569265707,282660007,NaN,NaN,0.357880205739,0.342535206385,0.673361249833,0.548795060064,NaN,NaN,-0.173287412302,-0.180280757931,0.346496708585,NaN,NaN,2.3166822,7.09729335,6.15491415,NaN,5
1.56926570741345e+18,NaN,62174,NaN,1569265707,326843023,NaN,NaN,0.355864555202,0.321108909932,0.679400090025,0.55557628098,NaN,NaN,-0.86967378385,-0.468260084511,0.236540965709,NaN,NaN,2.24796705,6.95986305,6.4003254,NaN,5
1.56926570743316e+18,NaN,62175,NaN,1569265707,411708116,NaN,NaN,0.361095138929,0.291722436778,0.675387162228,0.573027487665,NaN,NaN,-0.504899970182,-0.635811692703,-0.0601650071312,NaN,NaN,2.38539735,6.9500466,6.31197735,NaN,5
1.5692657074967e+18,NaN,62176,NaN,1569265707,431854963,NaN,NaN,0.364336323996,0.282634479172,0.67259604261,0.578784379251,NaN,NaN,-0.487446677662,-1.03025610365,-0.178847396267,NaN,NaN,2.0025558,6.54757215,6.3021609,NaN,5
1.56926570754753e+18,NaN,62177,NaN,1569265707,495835065,NaN,NaN,0.380261548283,0.252125157497,0.653802285269,0.603636174886,NaN,NaN,-0.456030751126,-1.35139668602,-0.395268223515,NaN,NaN,1.9829229,7.27398945,7.0874769,NaN,5
1.56926570758073e+18,NaN,62178,NaN,1569265707,546493053,NaN,NaN,0.39153366374,0.233898475871,0.630446187667,0.628116627387,NaN,NaN,-0.309423093958,-1.37583129555,-0.840327182775,NaN,NaN,2.03200515,7.01876175,7.90224225,NaN,5
1.56926570764505e+18,NaN,62179,NaN,1569265707,579895019,NaN,NaN,0.394427490243,0.226225526081,0.620656143705,0.638776109111,NaN,NaN,-0.314659081714,-0.859213836959,-0.611689050763,NaN,NaN,1.8847584,7.54885005,9.1292985,NaN,5
1.56926570768747e+18,NaN,62180,NaN,1569265707,643949031,NaN,NaN,0.395304263505,0.229503972422,0.599029621373,0.657438954288,NaN,NaN,-0.00224514560597,-0.398446914431,-0.863016463051,NaN,NaN,1.8651255,7.6960968,8.49122925,NaN,5
1.56926570773027e+18,NaN,62181,NaN,1569265707,686544895,NaN,NaN,0.388384551531,0.214572216197,0.59466503928,0.670439926635,NaN,NaN,-0.805096601526,-0.586942473647,-0.337672358199,NaN,NaN,0.52027185,6.2039964,6.86169855,NaN,5
