rosbagTimestamp,header,seq,stamp,secs,nsecs,frame_id,orientation,x,y,z,w,orientation_covariance,angular_velocity,x_1,y_1,z_1,angular_velocity_covariance,linear_acceleration,x_2,y_2,z_2,linear_acceleration_covariance,Label
1.56926169596008e+18,NaN,61699,NaN,1569261695,915632963,NaN,NaN,0.443907816675,0.601355313268,0.473750201702,0.465702033371,NaN,NaN,0.209405653278,-0.0521732153517,-0.116255050867,NaN,NaN,-0.50063895,7.4016033,1.12889175,NaN,3
1.56926169602311e+18,NaN,61700,NaN,1569261695,958066940,NaN,NaN,0.44220768655,0.600383971055,0.477302170836,0.464945251585,NaN,NaN,-0.150132172634,0.157266294888,0.0617685328367,NaN,NaN,-0.83439825,5.40886395,-2.1792519,NaN,3
1.56926169606587e+18,NaN,61701,NaN,1569261696,21821022,NaN,NaN,0.475476170577,0.588940639421,0.487368899893,0.435365237321,NaN,NaN,0.532291564898,0.0630185152803,1.37251080109,NaN,NaN,-1.9829229,14.14550445,-0.63806925,NaN,3
1.56926169610958e+18,NaN,61702,NaN,1569261696,63882112,NaN,NaN,0.476691126295,0.586262707919,0.491152101879,0.43339499332,NaN,NaN,-0.115225587594,0.0996704295723,0.194413555989,NaN,NaN,0.5693541,8.2850838,-1.95347355,NaN,2
1.56926169617159e+18,NaN,61703,NaN,1569261696,106761932,NaN,NaN,0.483369933346,0.571660913533,0.50341838106,0.431424664439,NaN,NaN,-0.492216706026,-0.0783531541317,0.794806818677,NaN,NaN,-2.9253021,13.36018845,1.2761385,NaN,3
1.56926169621696e+18,NaN,61704,NaN,1569261696,170167922,NaN,NaN,0.476055321443,0.573488687851,0.505107865365,0.435141471453,NaN,NaN,-0.160604148146,0.129341026856,-0.198285525711,NaN,NaN,-0.44174025,7.8138942,-1.6884294,NaN,2
1.56926169625589e+18,NaN,61705,NaN,1569261696,214845895,NaN,NaN,0.489034543766,0.569983301517,0.512688472316,0.416070644662,NaN,NaN,0.38568390773,0.335289878592,0.981557048641,NaN,NaN,-1.7080623,12.65340405,-0.75586665,NaN,3
1.56926169631953e+18,NaN,61706,NaN,1569261696,254720926,NaN,NaN,0.485131274871,0.570717545789,0.512819550909,0.41945826643,NaN,NaN,-0.0995176243262,0.0752358200443,-0.184322891695,NaN,NaN,-1.2565056,10.0716777,0.71660085,NaN,2
1.56926169636261e+18,NaN,61707,NaN,1569261696,318536043,NaN,NaN,0.485448649939,0.573627091011,0.506743170349,0.422496068664,NaN,NaN,0.13261116619,-0.0818438126357,-0.158142952915,NaN,NaN,-0.83439825,8.5795773,0.18651255,NaN,2
1.56926169640607e+18,NaN,61708,NaN,1569261696,361354112,NaN,NaN,0.483391326712,0.575906061701,0.49919727805,0.430658926465,NaN,NaN,0.0697793131178,-0.252886079332,-0.447867608747,NaN,NaN,-0.38284155,9.35507685,0.34357575,NaN,2
1.56926169646884e+18,NaN,61709,NaN,1569261696,404844999,NaN,NaN,0.481346496106,0.577629857989,0.493119772176,0.437586777835,NaN,NaN,0.0226554233138,-0.197035543268,-0.376309109415,NaN,NaN,-0.30430995,8.638476,-0.3337593,NaN,2
1.56926169651153e+18,NaN,61710,NaN,1569261696,467622995,NaN,NaN,0.481871866419,0.57755562747,0.489350716108,0.441321739977,NaN,NaN,0.0348727280778,-0.108023751416,-0.0988017583473,NaN,NaN,-0.7067844,10.0520448,-0.22577835,NaN,5
1.56926169655448e+18,NaN,61711,NaN,1569261696,509881973,NaN,NaN,0.481678885953,0.580718593792,0.485290929405,0.441864322488,NaN,NaN,0.183225714498,0.00367732071225,-0.170360257679,NaN,NaN,-0.785316,9.00168465,-0.6086199,NaN,2
1.56926169661873e+18,NaN,61712,NaN,1569261696,553136110,NaN,NaN,0.481082921336,0.582479320534,0.48339115397,0.442278256545,NaN,NaN,0.0889779348898,0.0385839057523,-0.0918204413393,NaN,NaN,-1.24668915,9.96369675,-0.48100605,NaN,5
1.56926169666576e+18,NaN,61713,NaN,1569261696,617578983,NaN,NaN,0.486699803738,0.582525806439,0.482351504351,0.437177323433,NaN,NaN,0.190207031506,0.0228759424843,0.180450921973,NaN,NaN,-1.83567615,10.2680067,-0.3337593,NaN,2
1.56926169670219e+18,NaN,61714,NaN,1569261696,665059089,NaN,NaN,0.488420479333,0.584982922111,0.478981779287,0.435679780708,NaN,NaN,0.212896311782,0.0158946254763,-0.0307339175193,NaN,NaN,-1.1190753,9.9538803,-0.7067844,NaN,5
1.56926169676602e+18,NaN,61715,NaN,1569261696,701248884,NaN,NaN,0.489238401357,0.585940583534,0.477360319344,0.435254574613,NaN,NaN,0.139592483198,0.0211306132323,-0.0132806249993,NaN,NaN,-1.12889175,9.27654525,-0.4515567,NaN,5
1.56926169680869e+18,NaN,61716,NaN,1569261696,764763116,NaN,NaN,0.487978703132,0.585760965062,0.479296653062,0.43478223913,NaN,NaN,-0.0384311005062,0.0839624663043,0.0181353015367,NaN,NaN,-1.03072725,9.9931461,-0.93256275,NaN,5
1.56926169687216e+18,NaN,61717,NaN,1569261696,807337045,NaN,NaN,0.488676427415,0.585879122421,0.47842242468,0.434802238683,NaN,NaN,0.0645433253618,0.00891330846825,0.0076633260247,NaN,NaN,-1.08962595,9.80663355,-0.5497212,NaN,5
1.56926169691464e+18,NaN,61718,NaN,1569261696,871031045,NaN,NaN,0.487633808702,0.586452917858,0.477731796515,0.435957078558,NaN,NaN,-0.00526984471818,0.0193852839803,-0.0499325392913,NaN,NaN,-1.01109435,9.6004881,-1.18779045,NaN,5
1.56926169695733e+18,NaN,61719,NaN,1569261696,913841962,NaN,NaN,0.486747339174,0.584762687337,0.478422907646,0.438453131754,NaN,NaN,-0.108244270586,-0.0259932765717,-0.0150259542513,NaN,NaN,-1.2172398,9.55140585,-0.4908225,NaN,5
1.56926169702053e+18,NaN,61720,NaN,1569261696,956285953,NaN,NaN,0.489990926487,0.586041248337,0.47419049755,0.437730418456,NaN,NaN,0.258274872334,-0.0818438126357,-0.0010633202353,NaN,NaN,-1.2172398,10.2680067,-0.3730251,NaN,5
1.56926169708456e+18,NaN,61721,NaN,1569261697,19722938,NaN,NaN,0.480654367835,0.585039215011,0.478914689332,0.444231038901,NaN,NaN,-0.326410427086,0.10665174658,-0.177341574687,NaN,NaN,-1.63934715,10.12075995,-1.0798095,NaN,2
1.56926169711291e+18,NaN,61722,NaN,1569261697,83400011,NaN,NaN,0.480232344725,0.59138257764,0.468872516219,0.44699228794,NaN,NaN,0.251293555326,-0.0783531541317,-0.269844025043,NaN,NaN,-1.9436571,9.5219565,-0.2748606,NaN,2
1.56926169717064e+18,NaN,61723,NaN,1569261697,111814975,NaN,NaN,0.476347814099,0.591861098807,0.469153555526,0.450208997088,NaN,NaN,-0.211218696454,0.0787264785483,-0.268098695791,NaN,NaN,-1.2957714,9.68883615,-0.95219565,NaN,2
1.56926169721201e+18,NaN,61724,NaN,1569261697,169069051,NaN,NaN,0.473170240221,0.59450702425,0.462458283176,0.456950389221,NaN,NaN,0.0435993743378,-0.127222373188,-0.318713244099,NaN,NaN,-1.60008135,9.4041591,-0.02944935,NaN,2
1.56926169725475e+18,NaN,61725,NaN,1569261697,211270093,NaN,NaN,0.471984606405,0.593897903517,0.463730572019,0.457678673405,NaN,NaN,-0.0855549903102,0.0542918690203,-0.0377152345273,NaN,NaN,-0.04908225,8.88388725,-1.0012779,NaN,2
1.56926169733998e+18,NaN,61726,NaN,1569261697,253684997,NaN,NaN,0.471136391828,0.591429406348,0.464902577909,0.460551137938,NaN,NaN,-0.143150855626,-0.0521732153517,-0.0220072712593,NaN,NaN,-0.588987,9.2078301,-0.1766961,NaN,5
1.56926169736187e+18,NaN,61727,NaN,1569261697,338634967,NaN,NaN,0.466703840682,0.590526175273,0.467927694887,0.463152279243,NaN,NaN,-0.130933550862,0.0542918690203,-0.0499325392913,NaN,NaN,-0.18651255,6.3217938,-0.392658,NaN,3
1.56926169740391e+18,NaN,61728,NaN,1569261697,360810041,NaN,NaN,0.474815878597,0.588604277056,0.468886241248,0.456333846248,NaN,NaN,0.486913004346,0.0473105520123,0.831458732969,NaN,NaN,-2.1399861,14.77375725,0.97182855,NaN,3
1.56926169746714e+18,NaN,61729,NaN,1569261697,402695894,NaN,NaN,0.477850351767,0.582982869566,0.475106153887,0.453942901308,NaN,NaN,-0.183293428422,0.0525465397683,0.396871749221,NaN,NaN,2.5915428,6.17454705,-1.6098978,NaN,3
1.56926169751124e+18,NaN,61730,NaN,1569261697,465852022,NaN,NaN,0.491216993588,0.559847944134,0.49444871421,0.448103351554,NaN,NaN,-0.42589419445,-0.11151440992,0.960613097617,NaN,NaN,-3.6713523,14.5087131,1.46265105,NaN,3
1.56926169755844e+18,NaN,61731,NaN,1569261697,509632110,NaN,NaN,0.486244793615,0.565544875113,0.490216722556,0.451012815606,NaN,NaN,0.0558166791018,0.0961797710683,-0.351874499887,NaN,NaN,-2.6897073,8.86425435,-1.5509991,NaN,2
1.56926169761644e+18,NaN,61732,NaN,1569261697,557647943,NaN,NaN,0.493790215399,0.557010305281,0.49961486876,0.443052734899,NaN,NaN,-0.0855549903102,0.0926891125643,0.693577722061,NaN,NaN,-1.8847584,11.387082,0.8245818,NaN,3
1.56926169765981e+18,NaN,61733,NaN,1569261697,614994049,NaN,NaN,0.488745982482,0.558843934273,0.49856072951,0.447501978458,NaN,NaN,-0.0977722950742,0.0350932472483,-0.227956122995,NaN,NaN,-0.00981645,8.92315305,-0.6871515,NaN,2
1.56926169770251e+18,NaN,61734,NaN,1569261697,657207012,NaN,NaN,0.491448895332,0.559821884499,0.495952942198,0.446215329228,NaN,NaN,0.198933677766,-0.0364652520837,0.0216259600407,NaN,NaN,-0.1570632,9.41397555,-0.24541125,NaN,5
1.56926169776785e+18,NaN,61735,NaN,1569261697,700583934,NaN,NaN,0.485854936022,0.560091042283,0.494500640648,0.453554982219,NaN,NaN,-0.214709354958,-0.0574092031077,-0.348383841383,NaN,NaN,-0.38284155,9.37470975,0.0196329,NaN,2
1.56926169783515e+18,NaN,61736,NaN,1569261697,766334056,NaN,NaN,0.487209193537,0.563263104582,0.490863523556,0.452122636009,NaN,NaN,0.162281763474,0.0141492962243,-0.0551685270473,NaN,NaN,-0.24541125,9.0900327,-0.20614545,NaN,5
1.56926169787125e+18,NaN,61737,NaN,1569261697,831588029,NaN,NaN,0.484241175237,0.56595703116,0.486456921961,0.456686748398,NaN,NaN,0.0156741063058,-0.0417012398397,-0.213993488979,NaN,NaN,-1.0798095,10.06186125,-0.5104554,NaN,2
1.56926169791322e+18,NaN,61738,NaN,1569261697,870104074,NaN,NaN,0.480001473226,0.566372577338,0.486295338919,0.460800968626,NaN,NaN,-0.165840135902,0.0281119302403,-0.236682769255,NaN,NaN,-0.8834805,9.49250715,-0.0785316,NaN,2
1.56926169795589e+18,NaN,61739,NaN,1569261697,912275075,NaN,NaN,0.480889711778,0.566055187657,0.485133596102,0.461488898638,NaN,NaN,0.0435993743378,-0.0399559105877,0.0024273382687,NaN,NaN,-1.22705625,10.012779,-0.2944935,NaN,5
1.56926169802003e+18,NaN,61740,NaN,1569261697,955163002,NaN,NaN,0.479856632183,0.5660204245,0.48411102098,0.463675544928,NaN,NaN,-0.0314497834982,-0.0277386058237,-0.0918204413393,NaN,NaN,-0.9423792,9.45324135,-0.34357575,NaN,5
1.56926169806206e+18,NaN,61741,NaN,1569261698,18651962,NaN,NaN,0.480958996119,0.567168256591,0.483569469326,0.461691651542,NaN,NaN,0.0819966178818,0.0473105520123,0.0251166185447,NaN,NaN,-0.73623375,9.8360829,-0.4319238,NaN,5
1.56926169810519e+18,NaN,61742,NaN,1569261698,60985088,NaN,NaN,0.482947136327,0.570832153573,0.479376281212,0.45946827635,NaN,NaN,0.321106725406,0.0298572594923,-0.0726218195673,NaN,NaN,-0.6675186,9.8753487,0.196329,NaN,5
1.56926169816908e+18,NaN,61743,NaN,1569261698,103832960,NaN,NaN,0.484871039515,0.572583670375,0.477244170386,0.457477887217,NaN,NaN,0.19369769001,0.0298572594923,0.0181353015367,NaN,NaN,-1.03072725,9.43360845,-0.65770215,NaN,5
1.56926169821156e+18,NaN,61744,NaN,1569261698,167922019,NaN,NaN,0.486002400936,0.573342125209,0.475681223303,0.456954973212,NaN,NaN,0.0715246423698,0.000186662208252,-0.0028086494873,NaN,NaN,-0.95219565,9.76736775,-0.6871515,NaN,5
1.56926169825335e+18,NaN,61745,NaN,1569261698,210491895,NaN,NaN,0.489274073325,0.577275125553,0.471514776036,0.452811358702,NaN,NaN,0.37695726147,0.0577825275243,0.000682009016702,NaN,NaN,-0.73623375,9.6986526,-0.85403115,NaN,5
1.56926169831662e+18,NaN,61746,NaN,1569261698,252499103,NaN,NaN,0.492750821174,0.578666490608,0.468346630865,0.450547615949,NaN,NaN,0.26351086009,-0.0277386058237,0.0512965573247,NaN,NaN,-0.981645,9.49250715,-0.71660085,NaN,5
1.56926169836052e+18,NaN,61747,NaN,1569261698,315709114,NaN,NaN,0.491716650327,0.581653030672,0.464336941942,0.451979747388,NaN,NaN,0.0767606301258,-0.0120306425557,-0.145925648151,NaN,NaN,-0.7067844,9.23727945,-1.65898005,NaN,2
1.5692616984047e+18,NaN,61748,NaN,1569261698,359220981,NaN,NaN,0.491112239762,0.582049485706,0.464312071345,0.452152036984,NaN,NaN,-0.00876050322218,0.0455652227603,-0.0237526005113,NaN,NaN,-1.0994424,9.4434249,-1.5117333,NaN,5
1.56926169846996e+18,NaN,61749,NaN,1569261698,402446031,NaN,NaN,0.493750691063,0.581466916578,0.462511107648,0.451873826752,NaN,NaN,0.125629849182,-0.0731171663757,0.0547872158287,NaN,NaN,-0.9423792,9.62993745,-0.34357575,NaN,5
1.56926169850993e+18,NaN,61750,NaN,1569261698,468914985,NaN,NaN,0.491737330461,0.581397879182,0.463155147036,0.453495549799,NaN,NaN,-0.0576297222782,0.0263666009883,-0.0464418807873,NaN,NaN,-1.03072725,10.0716777,-1.1387082,NaN,5
1.5692616985508e+18,NaN,61751,NaN,1569261698,508445024,NaN,NaN,0.492248537553,0.582081969701,0.462117065752,0.45312225212,NaN,NaN,0.0889779348898,0.0193852839803,-0.0150259542513,NaN,NaN,-0.95219565,9.5219565,-0.67733505,NaN,5
1.56926169861491e+18,NaN,61752,NaN,1569261698,549779891,NaN,NaN,0.486653775311,0.580470859001,0.466229435357,0.457003061733,NaN,NaN,-0.377024975394,0.10665174658,-0.116255050867,NaN,NaN,-0.91292985,9.6397539,-1.766961,NaN,5
1.56926169865754e+18,NaN,61753,NaN,1569261698,613656997,NaN,NaN,0.489781848529,0.579063500183,0.461813766226,0.459920915953,NaN,NaN,0.0750153008738,-0.167364945984,-0.0237526005113,NaN,NaN,-1.1387082,9.4041591,-0.44174025,NaN,5
1.56926169872066e+18,NaN,61754,NaN,1569261698,656069040,NaN,NaN,0.477524410079,0.570567997456,0.474016456033,0.470883210008,NaN,NaN,-1.04897673741,0.0909437833123,-0.107528404607,NaN,NaN,-1.42338525,10.7784621,-1.7276952,NaN,2
1.56926169876431e+18,NaN,61755,NaN,1569261698,719897031,NaN,NaN,0.481261492684,0.58195394146,0.455192364293,0.471716967225,NaN,NaN,0.579415454702,-0.16387428748,-0.376309109415,NaN,NaN,-2.13016965,8.96241885,0.6282528,NaN,2
1.56926169880648e+18,NaN,61756,NaN,1569261698,762429952,NaN,NaN,0.476592211447,0.580224853635,0.458855266467,0.47502718622,NaN,NaN,-0.326410427086,0.0787264785483,-0.0726218195673,NaN,NaN,-1.4724675,9.51214005,-1.56081555,NaN,5
1.56926169886907e+18,NaN,61757,NaN,1569261698,805171966,NaN,NaN,0.471580927649,0.579079251883,0.45776615575,0.482419729453,NaN,NaN,-0.244379952242,-0.116750397676,-0.292533305319,NaN,NaN,-1.42338525,9.8557158,0.10798095,NaN,2
1.56926169891261e+18,NaN,61758,NaN,1569261698,868407964,NaN,NaN,0.470094940026,0.578773104067,0.460202480757,0.48191920285,NaN,NaN,-0.0663563685382,0.0787264785483,0.0198806307887,NaN,NaN,0.6282528,7.4408691,-0.6675186,NaN,3
1.56926169895472e+18,NaN,61759,NaN,1569261698,911475896,NaN,NaN,0.476238727444,0.579000812291,0.458690496861,0.47703014783,NaN,NaN,0.328088042414,-0.00504932554775,0.185686909729,NaN,NaN,0.71660085,8.6973747,0.588987,NaN,2
1.56926169901854e+18,NaN,61760,NaN,1569261698,953681945,NaN,NaN,0.473964782412,0.573160934677,0.469948203369,0.475386804764,NaN,NaN,-0.462546108742,0.241042098984,0.351493188669,NaN,NaN,0.52027185,7.33288815,-3.11181465,NaN,3
1.56926169906761e+18,NaN,61761,NaN,1569261699,16932010,NaN,NaN,0.47184720492,0.579832639074,0.468011687456,0.47129543418,NaN,NaN,0.153555117214,0.192172879928,-0.121491038623,NaN,NaN,2.944935,6.7537176,-3.1608969,NaN,3
1.56926169910372e+18,NaN,61762,NaN,1569261699,66660881,NaN,NaN,0.475769976879,0.553297046335,0.493611681786,0.473130864795,NaN,NaN,-1.05944871293,-0.11151440992,1.04438890171,NaN,NaN,-1.12889175,12.83010015,0.981645,NaN,3
1.56926169916748e+18,NaN,61763,NaN,1569261699,102504014,NaN,NaN,0.4746756664,0.556378273144,0.49066793103,0.47367838283,NaN,NaN,0.144828470954,0.0455652227603,-0.205266842719,NaN,NaN,-0.75586665,9.51214005,-0.18651255,NaN,2
1.56926169920968e+18,NaN,61764,NaN,1569261699,166312932,NaN,NaN,0.489018546563,0.541314369198,0.508581401975,0.457366999666,NaN,NaN,-0.0890456488142,0.125850368352,0.990283694901,NaN,NaN,-2.42466315,12.2901954,1.14852465,NaN,3
1.56926169925258e+18,NaN,61765,NaN,1569261699,208833932,NaN,NaN,0.486585438928,0.543896053502,0.505511004423,0.46029373015,NaN,NaN,0.0366180573298,-0.00504932554775,-0.241918757011,NaN,NaN,-0.77549955,9.5612223,0.0392658,NaN,2
1.56926169931596e+18,NaN,61766,NaN,1569261699,251283884,NaN,NaN,0.481541751448,0.546943763856,0.500158067827,0.467773415212,NaN,NaN,-0.0715923562942,-0.10278776366,-0.494991498551,NaN,NaN,-0.00981645,7.70591325,-0.2552277,NaN,2
1.56926169936107e+18,NaN,61767,NaN,1569261699,314985036,NaN,NaN,0.486110916141,0.54592241735,0.496205487271,0.46844957663,NaN,NaN,0.116903202922,-0.142930336456,0.0251166185447,NaN,NaN,-0.3533922,10.3072725,-0.14724675,NaN,5
1.56926169940118e+18,NaN,61768,NaN,1569261699,358618021,NaN,NaN,0.482295191099,0.552004625123,0.492081867443,0.469614393113,NaN,NaN,0.14133781245,0.118869051344,-0.367582463155,NaN,NaN,0.3730251,8.8937037,-0.3337593,NaN,2
1.5692616994647e+18,NaN,61769,NaN,1569261699,399976968,NaN,NaN,0.48190111009,0.551571789145,0.492279395979,0.470319973857,NaN,NaN,-0.0314497834982,0.0106586377203,-0.0045539787393,NaN,NaN,-0.8834805,10.31708895,-0.30430995,NaN,5
1.56926169950729e+18,NaN,61770,NaN,1569261699,463876962,NaN,NaN,0.475857560022,0.554756826503,0.488950639438,0.476163541455,NaN,NaN,-0.0611203807822,0.00542264996425,-0.287297317563,NaN,NaN,-0.9031134,9.3452604,-0.02944935,NaN,2
1.56926169959236e+18,NaN,61771,NaN,1569261699,506217956,NaN,NaN,0.478247662655,0.555003580268,0.486778470234,0.475706758383,NaN,NaN,0.13261116619,-0.0626451908637,0.0268619477967,NaN,NaN,-1.0798095,10.405437,-0.44174025,NaN,5
1.56926169961301e+18,NaN,61772,NaN,1569261699,591092109,NaN,NaN,0.479042909341,0.55972849648,0.478950242086,0.477313908077,NaN,NaN,0.153555117214,-0.0539185446037,-0.149416306655,NaN,NaN,-0.77549955,9.68883615,-0.26504415,NaN,5
1.56926169965608e+18,NaN,61773,NaN,1569261699,612339973,NaN,NaN,0.479866557525,0.560604529685,0.477000458621,0.477410945352,NaN,NaN,0.198933677766,-0.0451918983437,-0.0813484658273,NaN,NaN,-1.0012779,9.98332965,-0.3141264,NaN,5
1.56926169971946e+18,NaN,61774,NaN,1569261699,654999971,NaN,NaN,0.478402227139,0.56074911391,0.477188957401,0.478521095932,NaN,NaN,-0.0489030760182,0.0333479179963,-0.0621498440553,NaN,NaN,-0.8049489,8.9918682,-0.3141264,NaN,5
1.56926169976534e+18,NaN,61775,NaN,1569261699,718579053,NaN,NaN,0.477961999076,0.561622514892,0.47391429947,0.481183660324,NaN,NaN,0.0383633865818,-0.0608998616117,-0.107528404607,NaN,NaN,-1.1583411,10.2876396,0.0981645,NaN,2
1.56926169980468e+18,NaN,61776,NaN,1569261699,761110067,NaN,NaN,0.475388791641,0.564214982719,0.472214206285,0.482369872028,NaN,NaN,0.0174194355578,0.0665091737843,-0.194794867207,NaN,NaN,-0.85403115,9.68883615,-0.8049489,NaN,2
1.56926169986859e+18,NaN,61777,NaN,1569261699,803791046,NaN,NaN,0.474232683026,0.568227305095,0.467279113747,0.483602442044,NaN,NaN,0.191952360758,0.000186662208252,-0.231446781499,NaN,NaN,-2.5326441,10.5232344,0.34357575,NaN,2
1.56926169991287e+18,NaN,61778,NaN,1569261699,867528915,NaN,NaN,0.459721198257,0.57882570935,0.460013943477,0.491939416875,NaN,NaN,-0.0681016977902,0.131086356108,-0.650325801979,NaN,NaN,-1.3154043,8.7759063,-1.2172398,NaN,2
1.56926169995398e+18,NaN,61779,NaN,1569261699,909573078,NaN,NaN,0.455649731748,0.584153584429,0.455037598401,0.494053332948,NaN,NaN,0.108176556662,0.0717451615403,-0.393762401935,NaN,NaN,3.2394285,5.3794146,0.14724675,NaN,3
1.56926170003832e+18,NaN,61780,NaN,1569261699,952613115,NaN,NaN,0.475157208371,0.573523385009,0.466212898376,0.477432809481,NaN,NaN,0.25478421383,0.0508012105163,1.33062289904,NaN,NaN,0.24541125,9.8360829,-1.67861295,NaN,3
1.56926170008086e+18,NaN,61781,NaN,1569261700,37409067,NaN,NaN,0.487282233215,0.581523077655,0.461392036341,0.459895992753,NaN,NaN,0.479931687338,0.148539648628,0.187432238981,NaN,NaN,1.18779045,9.7968171,-1.9436571,NaN,2
1.56926170010251e+18,NaN,61782,NaN,1569261700,80137014,NaN,NaN,0.490024993642,0.57004655097,0.472224595241,0.460354610037,NaN,NaN,-0.488726047522,-0.0417012398397,0.595839283949,NaN,NaN,-2.69952375,10.5036015,-1.0012779,NaN,2
1.5692617001669e+18,NaN,61783,NaN,1569261700,101259946,NaN,NaN,0.490158409631,0.572956104814,0.468820620809,0.460079624552,NaN,NaN,0.345541334934,0.0316025887443,-0.220974805987,NaN,NaN,-1.5313662,8.78572275,-0.91292985,NaN,2
1.5692617002094e+18,NaN,61784,NaN,1569261700,164802074,NaN,NaN,0.486051928668,0.567091368772,0.473760096769,0.466596477496,NaN,NaN,-0.32117443933,-0.0504278860997,-0.0132806249993,NaN,NaN,-0.5104554,10.8569937,-0.10798095,NaN,2
1.56926170025166e+18,NaN,61785,NaN,1569261700,208233118,NaN,NaN,0.47349597489,0.56057522022,0.479924542593,0.480863200563,NaN,NaN,-0.907605068002,-0.0870798003917,-0.425178328471,NaN,NaN,1.89457485,10.012779,-1.374303,NaN,2
1.56926170031482e+18,NaN,61786,NaN,1569261700,250302076,NaN,NaN,0.49990532644,0.558928824511,0.485093440465,0.449863965823,NaN,NaN,1.1466474616,0.326563232332,1.54180773853,NaN,NaN,0.73623375,9.3256275,-0.3533922,NaN,3
1.5692617003572e+18,NaN,61787,NaN,1569261700,313893079,NaN,NaN,0.538278183853,0.564060144995,0.483150933491,0.398318873622,NaN,NaN,1.45557073921,0.3859044269,1.36902014258,NaN,NaN,-0.48100605,10.3269054,-3.32777655,NaN,3
1.56926170042137e+18,NaN,61788,NaN,1569261700,356529951,NaN,NaN,0.581944100622,0.597685343147,0.430972538583,0.344058084232,NaN,NaN,4.39295987032,-0.209252848032,0.590603296193,NaN,NaN,-0.59880345,8.56976085,-1.8651255,NaN,3
1.56926170046444e+18,NaN,61789,NaN,1569261700,420124053,NaN,NaN,0.646422280963,0.653031050838,0.312544414376,0.240841587684,NaN,NaN,5.68973950456,-0.483269540596,0.332294566897,NaN,NaN,-0.5104554,7.85316,-4.7904276,NaN,3
1.56926170050606e+18,NaN,61790,NaN,1569261700,463284969,NaN,NaN,0.681885494155,0.685648511029,0.199261787263,0.158786121313,NaN,NaN,6.85736477415,-1.07668148628,-0.0097899664953,NaN,NaN,2.7289731,5.88987,-4.9671237,NaN,3
1.56926170057674e+18,NaN,61791,NaN,1569261700,504909038,NaN,NaN,0.702574409846,0.704242933356,0.0609148958809,0.0819784417223,NaN,NaN,7.53106186542,-2.09420844019,-0.208757501223,NaN,NaN,-0.7264173,3.6517194,-10.405437,NaN,3
1.56926170061398e+18,NaN,61792,NaN,1569261700,575536966,NaN,NaN,0.700487332312,0.707959975791,-0.0851936949125,0.0291925383644,NaN,NaN,4.10847120225,-1.83764504015,-0.114509721615,NaN,NaN,-3.8873142,3.6713523,-7.656831,NaN,3
1.56926170065457e+18,NaN,61793,NaN,1569261700,611552953,NaN,NaN,0.699619573166,0.710530612141,-0.0749700228643,0.00762874341398,NaN,NaN,0.495639650606,1.29173030869,0.295642652605,NaN,NaN,3.19034625,2.62099215,-13.2129417,NaN,3
1.56926170071876e+18,NaN,61794,NaN,1569261700,653543949,NaN,NaN,0.690720296596,0.712478675095,-0.114280833916,-0.0471115740071,NaN,NaN,3.20089999121,0.590107949384,-0.112764392363,NaN,NaN,-2.7289731,-1.5509991,-11.3281833,NaN,4
1.56926170076158e+18,NaN,61795,NaN,1569261700,717401981,NaN,NaN,0.680121089036,0.72439988098,-0.107127241302,-0.0346968421657,NaN,NaN,-0.427639523702,-0.135949019448,-0.156397623663,NaN,NaN,0.6086199,-2.05163805,-9.6397539,NaN,4
1.5692617008037e+18,NaN,61796,NaN,1569261700,760142087,NaN,NaN,0.675629789746,0.729890094405,-0.0935031586919,-0.0451884566263,NaN,NaN,-0.10300828283,0.878087275964,0.0460605695687,NaN,NaN,-1.63934715,-1.4528346,-8.9918682,NaN,4
1.56926170086716e+18,NaN,61797,NaN,1569261700,802472114,NaN,NaN,0.670677350459,0.730115421511,-0.108493092193,-0.0731615459061,NaN,NaN,1.44335343444,0.563928010604,0.192668226737,NaN,NaN,0.6871515,-2.9842008,-11.02387335,NaN,4
1.56926170091118e+18,NaN,61798,NaN,1569261700,866363048,NaN,NaN,0.661164674412,0.749202013879,-0.0325201000916,-0.0223619945172,NaN,NaN,-2.85539251323,0.41208436568,-0.315222585595,NaN,NaN,-0.0981645,-1.03072725,-9.66920325,NaN,4
1.56926170095253e+18,NaN,61799,NaN,1569261700,908888101,NaN,NaN,0.646814801006,0.762454088372,-0.0170326330804,-0.00206536554955,NaN,NaN,-1.17289511431,-0.247650091576,-0.470556889023,NaN,NaN,-0.1177974,-0.10798095,-8.7562734,NaN,4
1.56926170101565e+18,NaN,61800,NaN,1569261700,951214075,NaN,NaN,0.636651136601,0.770950815005,-0.015911650799,0.00754920376073,NaN,NaN,-0.349099707362,-0.322699249412,-0.236682769255,NaN,NaN,0.0981645,-0.93256275,-10.012779,NaN,4
1.56926170106113e+18,NaN,61801,NaN,1569261701,14890909,NaN,NaN,0.631021885927,0.775278947557,0.00904281058796,0.0259260589502,NaN,NaN,-0.96694626257,0.0647638445323,-0.135453672639,NaN,NaN,-1.10925885,0.8442147,-9.5612223,NaN,4
1.56926170110301e+18,NaN,61802,NaN,1569261701,57543039,NaN,NaN,0.623907067518,0.780464643483,0.00964152338964,0.0390122083516,NaN,NaN,-0.439856828466,-0.441381638548,-0.308241268587,NaN,NaN,-1.03072725,-0.5693541,-9.84589935,NaN,4
1.56926170116544e+18,NaN,61803,NaN,1569261701,100220918,NaN,NaN,0.618926282162,0.784426843856,0.0073763111653,0.0393747878848,NaN,NaN,0.0593073376058,-0.0626451908637,-0.184322891695,NaN,NaN,-1.12889175,0.10798095,-9.82626645,NaN,4
1.56926170120771e+18,NaN,61804,NaN,1569261701,163672924,NaN,NaN,0.609948251204,0.790393477142,-0.00138706639313,0.0569153598886,NaN,NaN,-0.143150855626,-0.587989295716,-0.240173427759,NaN,NaN,-1.81604325,-0.34357575,-9.86553225,NaN,4
1.56926170124948e+18,NaN,61805,NaN,1569261701,206336975,NaN,NaN,0.601418310224,0.795942615623,-0.0104522519835,0.0682797128726,NaN,NaN,-0.00352451546618,-0.657802465796,-0.301259951579,NaN,NaN,-2.8860363,-0.196329,-10.7588292,NaN,4
1.56926170131464e+18,NaN,61806,NaN,1569261701,248662948,NaN,NaN,0.594018931567,0.800585110136,-0.0215988287019,0.07575276211,NaN,NaN,0.205914994774,-0.587989295716,-0.226210793743,NaN,NaN,-4.38795315,-0.3533922,-10.6999305,NaN,4
1.56926170137736e+18,NaN,61807,NaN,1569261701,312619924,NaN,NaN,0.592766845403,0.801112624505,-0.0434939187872,0.0703868516053,NaN,NaN,0.666681917302,-0.265103384096,0.0914391301207,NaN,NaN,-4.93767435,-1.6098978,-10.2287409,NaN,4
1.56926170142143e+18,NaN,61808,NaN,1569261701,376377105,NaN,NaN,0.598316657742,0.794787962356,-0.06544875678,0.0777543066185,NaN,NaN,0.47295037033,-0.579262649456,0.424797017253,NaN,NaN,-4.32905445,-0.20614545,-10.2287409,NaN,4
1.56926170146303e+18,NaN,61809,NaN,1569261701,420033931,NaN,NaN,0.601482685069,0.789463257829,-0.094609163038,0.077559334505,NaN,NaN,1.18155404664,-0.741578269892,0.491119528829,NaN,NaN,-4.515567,-0.02944935,-9.3648933,NaN,4
1.56926170150562e+18,NaN,61810,NaN,1569261701,461641073,NaN,NaN,0.598244438721,0.793863411902,-0.070563856019,0.0830976353855,NaN,NaN,-1.02105146938,0.413829694932,0.176960263469,NaN,NaN,1.2565056,0.32394285,-9.61030455,NaN,4
1.56926170157202e+18,NaN,61811,NaN,1569261701,504508972,NaN,NaN,0.570958593447,0.810579635806,0.025258189157,0.127784828779,NaN,NaN,-4.97247689591,0.982807031084,-0.891181238755,NaN,NaN,7.45068555,1.8847584,-8.84462145,NaN,3
1.56926170161173e+18,NaN,61812,NaN,1569261701,570518016,NaN,NaN,0.487633002912,0.78322162037,0.321261759386,0.213468568675,NaN,NaN,-9.60458073072,3.05974884096,-0.645089814223,NaN,NaN,7.37215395,5.2616172,-5.2419843,NaN,3
1.56926170165283e+18,NaN,61813,NaN,1569261701,610882043,NaN,NaN,0.418472666048,0.702729733401,0.518055512262,0.250339840577,NaN,NaN,-10.7774419881,3.75788054176,0.635981856745,NaN,NaN,7.460502,8.5010457,1.18779045,NaN,3
1.56926170171694e+18,NaN,61814,NaN,1569261701,652116060,NaN,NaN,0.355691737851,0.58087045127,0.669847116114,0.295597272483,NaN,NaN,-10.1229435186,1.81881974279,1.04264357246,NaN,NaN,4.52538345,11.2889175,2.16943545,NaN,3
1.56926170176089e+18,NaN,61815,NaN,1569261701,716074943,NaN,NaN,0.300378478923,0.442103171036,0.757513797326,0.374820493597,NaN,NaN,-5.99000384983,-0.523412113392,-0.296023963823,NaN,NaN,4.34868735,10.84717725,3.4161246,NaN,2
1.56926170180186e+18,NaN,61816,NaN,1569261701,759161949,NaN,NaN,0.311546800183,0.4453993354,0.73178135879,0.411161849213,NaN,NaN,0.387429236982,-1.37164212986,-1.47586653818,NaN,NaN,-0.4319238,8.5010457,6.09601545,NaN,3
1.56926170186609e+18,NaN,61817,NaN,1569261701,801181077,NaN,NaN,0.327509616838,0.508700730523,0.672675307377,0.425991723497,NaN,NaN,3.63897763346,-0.436145650792,-2.21239548252,NaN,NaN,-1.6295307,8.8151721,5.6150094,NaN,3
1.56926170190875e+18,NaN,61818,NaN,1569261701,864989995,NaN,NaN,0.297639886793,0.527308390335,0.643153651089,0.468732056044,NaN,NaN,-0.00876050322218,-0.0574092031077,-1.91394418043,NaN,NaN,-3.141264,8.638476,0.59880345,NaN,3
1.56926170195059e+18,NaN,61819,NaN,1569261701,907466888,NaN,NaN,0.326082047614,0.582583795182,0.578423340507,0.468714261541,NaN,NaN,3.91997564303,-0.465816248076,-1.48284785518,NaN,NaN,-1.60008135,8.3636154,1.2761385,NaN,3
1.56926170201436e+18,NaN,61820,NaN,1569261701,949637889,NaN,NaN,0.338749345473,0.59893008616,0.548939079706,0.474549807297,NaN,NaN,1.38750289838,-0.533884088904,-0.693959033279,NaN,NaN,-2.56209345,8.94278595,-1.61971425,NaN,2
1.56926170205744e+18,NaN,61821,NaN,1569261702,13648986,NaN,NaN,0.366481513269,0.619727998318,0.500746676837,0.480501065732,NaN,NaN,1.59345175011,-0.750304916152,-0.517680778827,NaN,NaN,-2.355948,9.76736775,-0.83439825,NaN,2
1.56926170209967e+18,NaN,61822,NaN,1569261702,56469917,NaN,NaN,0.379266701213,0.631996051514,0.477507859632,0.478250984538,NaN,NaN,1.274056497,-0.300009969136,-0.294278634571,NaN,NaN,-3.2590614,9.7379184,-0.785316,NaN,2
1.5692617021646e+18,NaN,61823,NaN,1569261702,98809957,NaN,NaN,0.372427747721,0.631248502986,0.480367179923,0.481736725462,NaN,NaN,-0.352590365866,0.136322343864,-0.226210793743,NaN,NaN,-1.73751165,9.39434265,-1.50191685,NaN,2
1.56926170221325e+18,NaN,61824,NaN,1569261702,163127899,NaN,NaN,0.370283091806,0.615714890206,0.483497954494,0.500015333666,NaN,NaN,-0.549812571342,-0.490250857604,-0.0970564290953,NaN,NaN,-2.2185177,10.0324119,-0.5693541,NaN,5
1.56926170227083e+18,NaN,61825,NaN,1569261702,212084054,NaN,NaN,0.373024781147,0.613490448526,0.48119201289,0.502927657769,NaN,NaN,0.0331273988258,-0.160383628976,-0.0272432590153,NaN,NaN,-1.46265105,10.00296255,0.61843635,NaN,5
1.56926170231323e+18,NaN,61826,NaN,1569261702,268847942,NaN,NaN,0.373347775991,0.610038043623,0.489441507859,0.498910847627,NaN,NaN,-0.20772803795,0.162502282644,0.248518762801,NaN,NaN,-1.4724675,9.8360829,-1.34485365,NaN,2
1.56926170235564e+18,NaN,61827,NaN,1569261702,311980009,NaN,NaN,0.374291175751,0.609224807867,0.490701915437,0.497958712568,NaN,NaN,-0.0523937345222,0.0542918690203,0.0704951790967,NaN,NaN,-1.56081555,9.8949816,-1.2761385,NaN,5
1.56926170242054e+18,NaN,61828,NaN,1569261702,353955984,NaN,NaN,0.381355214347,0.610293808988,0.48507968764,0.496797105306,NaN,NaN,0.373466602966,-0.153402311968,0.0547872158287,NaN,NaN,-1.42338525,10.012779,0.0392658,NaN,5
1.56926170246162e+18,NaN,61829,NaN,1569261702,418929100,NaN,NaN,0.389511032306,0.613213229747,0.474797473811,0.496807859679,NaN,NaN,0.35950396895,-0.167364945984,-0.0569138562993,NaN,NaN,-1.36448655,10.2680067,-0.2159619,NaN,5
1.56926170250771e+18,NaN,61830,NaN,1569261702,460362911,NaN,NaN,0.389570182706,0.612634144487,0.473437247635,0.498770137745,NaN,NaN,-0.0331951127502,-0.0574092031077,-0.0813484658273,NaN,NaN,-1.6884294,8.8740708,-1.01109435,NaN,2
1.56926170256802e+18,NaN,61831,NaN,1569261702,506604909,NaN,NaN,0.387437932635,0.607562954667,0.476321953985,0.503861588756,NaN,NaN,-0.315938451574,-0.11151440992,-0.0377152345273,NaN,NaN,-1.4528346,10.1894751,-0.10798095,NaN,5
1.56926170261718e+18,NaN,61832,NaN,1569261702,566514968,NaN,NaN,0.350977044532,0.59162965348,0.502807026661,0.523425793476,NaN,NaN,-1.67031395113,0.295147305796,-0.426923657723,NaN,NaN,-1.10925885,10.4447028,0.5104554,NaN,2
1.56926170265235e+18,NaN,61833,NaN,1569261702,616264104,NaN,NaN,0.363213225059,0.592417506385,0.51809158184,0.498697066462,NaN,NaN,0.21987762879,0.619778546668,1.07231416974,NaN,NaN,-0.5693541,10.06186125,-0.9620121,NaN,3
1.56926170271628e+18,NaN,61834,NaN,1569261702,651072978,NaN,NaN,0.389847816035,0.593578907821,0.519498692866,0.47518824547,NaN,NaN,1.20947931467,0.136322343864,1.59591294534,NaN,NaN,-0.59880345,9.72810195,-0.71660085,NaN,3
1.56926170275886e+18,NaN,61835,NaN,1569261702,715002059,NaN,NaN,0.403325711486,0.594489158083,0.49846336319,0.485227046787,NaN,NaN,0.49913030911,-0.615914563748,-0.241918757011,NaN,NaN,-1.34485365,9.2667288,0.93256275,NaN,2
1.5692617028019e+18,NaN,61836,NaN,1569261702,757709980,NaN,NaN,0.387457904095,0.592042062122,0.495241969621,0.504081303718,NaN,NaN,-0.692929570006,-0.228451469804,-0.910379860527,NaN,NaN,-0.89329695,7.8138942,-0.2748606,NaN,3
1.5692617028649e+18,NaN,61837,NaN,1569261702,800525903,NaN,NaN,0.38657403598,0.590953060796,0.491160838169,0.509996103603,NaN,NaN,-0.0628657100342,-0.204016860276,-0.262862708035,NaN,NaN,-1.1387082,9.6004881,-0.53990475,NaN,2
1.56926170290922e+18,NaN,61838,NaN,1569261702,863795995,NaN,NaN,0.381969619313,0.593521543858,0.480004833154,0.520986321363,NaN,NaN,0.0278914110698,-0.204016860276,-0.488010181543,NaN,NaN,-1.2761385,9.88516515,-0.32394285,NaN,2
1.5692617029495e+18,NaN,61839,NaN,1569261702,907058954,NaN,NaN,0.381394377868,0.592159846879,0.481307020548,0.521755303037,NaN,NaN,-0.118716246098,0.0158946254763,0.000682009016702,NaN,NaN,-1.56081555,9.7575513,-0.59880345,NaN,5
1.56926170301346e+18,NaN,61840,NaN,1569261702,948643922,NaN,NaN,0.379765098611,0.594992666421,0.479854920123,0.521058012524,NaN,NaN,0.0523260205978,0.139813002368,-0.144180318899,NaN,NaN,-1.4528346,9.4826907,-0.59880345,NaN,5
1.56926170305715e+18,NaN,61841,NaN,1569261703,12362957,NaN,NaN,0.378010950564,0.592007574384,0.479275296614,0.526241335493,NaN,NaN,-0.141405526374,-0.10278776366,-0.0953110998433,NaN,NaN,-1.97310645,9.9538803,-0.52027185,NaN,5
1.5692617031202e+18,NaN,61842,NaN,1569261703,55442094,NaN,NaN,0.375166021004,0.593769593066,0.480389175816,0.525275515127,NaN,NaN,-0.0785736733022,0.18519156292,-0.0830937950793,NaN,NaN,-1.570632,9.33544395,-0.87366405,NaN,5
1.5692617031625e+18,NaN,61843,NaN,1569261703,119359016,NaN,NaN,0.367348055849,0.592118586192,0.481064579929,0.532003623754,NaN,NaN,-0.26008791551,-0.00155866704375,-0.229701452247,NaN,NaN,-1.8651255,9.7379184,-0.20614545,NaN,2
1.56926170320532e+18,NaN,61844,NaN,1569261703,161624908,NaN,NaN,0.365811953387,0.588886783133,0.48494111324,0.533128584959,NaN,NaN,-0.270559891022,0.0263666009883,0.0600232035847,NaN,NaN,-1.65898005,9.9342474,-0.40247445,NaN,5
1.56926170327018e+18,NaN,61845,NaN,1569261703,203723907,NaN,NaN,0.367086294342,0.589307505779,0.483987714771,0.53265392901,NaN,NaN,0.0645433253618,0.0193852839803,-0.0115352957473,NaN,NaN,-1.58044845,9.90479805,0.3337593,NaN,5
1.56926170331345e+18,NaN,61846,NaN,1569261703,268295049,NaN,NaN,0.369088813089,0.586358994386,0.485069425515,0.533539342679,NaN,NaN,-0.0541390637742,-0.0574092031077,0.0582778743327,NaN,NaN,-1.60008135,9.92443095,0.0196329,NaN,5
1.56926170335428e+18,NaN,61847,NaN,1569261703,311567068,NaN,NaN,0.37047545349,0.585181369393,0.485245021942,0.5337115063,NaN,NaN,-0.0297044542462,-0.0277386058237,0.0303526063007,NaN,NaN,-1.30558785,9.09984915,-0.40247445,NaN,5
1.56926170341753e+18,NaN,61848,NaN,1569261703,352864980,NaN,NaN,0.369271173022,0.584287109628,0.488418638035,0.53262989807,NaN,NaN,-0.13791486787,0.134577014612,0.0495512280727,NaN,NaN,-0.9423792,9.9538803,0.2944935,NaN,5
1.56926170346007e+18,NaN,61849,NaN,1569261703,416100025,NaN,NaN,0.365510924565,0.584862442258,0.491687427031,0.531583635714,NaN,NaN,-0.118716246098,0.152030307132,-0.0220072712593,NaN,NaN,-1.44301815,9.53177295,-0.0392658,NaN,5
1.56926170350352e+18,NaN,61850,NaN,1569261703,458847045,NaN,NaN,0.366575033292,0.583702191915,0.491720298777,0.532095521398,NaN,NaN,-0.0384311005062,-0.0294839350757,0.0181353015367,NaN,NaN,-1.6295307,9.43360845,-0.24541125,NaN,5
1.56926170356783e+18,NaN,61851,NaN,1569261703,501202106,NaN,NaN,0.368911340638,0.583655859958,0.490621987118,0.531545224456,NaN,NaN,0.0732699716218,-0.0207572888157,0.0216259600407,NaN,NaN,-1.3350372,10.012779,-0.0981645,NaN,5
1.56926170360915e+18,NaN,61852,NaN,1569261703,564825057,NaN,NaN,0.365765276366,0.580276739613,0.494440607457,0.53387559765,NaN,NaN,-0.223436001218,0.0193852839803,-0.0045539787393,NaN,NaN,-1.56081555,9.45324135,-0.2944935,NaN,5
1.5692617036513e+18,NaN,61853,NaN,1569261703,607846975,NaN,NaN,0.368320474222,0.580468799154,0.49372349619,0.532572164863,NaN,NaN,0.0837419471338,0.00716797921625,0.0547872158287,NaN,NaN,-1.44301815,9.59067165,-0.08834805,NaN,5
1.56926170371472e+18,NaN,61854,NaN,1569261703,650144100,NaN,NaN,0.370713156214,0.580072817742,0.493008231647,0.53200579457,NaN,NaN,0.0470900328418,-0.0277386058237,0.0443152403167,NaN,NaN,-1.4921004,10.06186125,-0.4711896,NaN,5
1.56926170375822e+18,NaN,61855,NaN,1569261703,713766098,NaN,NaN,0.35992050443,0.575561848728,0.497462679046,0.54010801858,NaN,NaN,-0.45207413323,0.0193852839803,-0.207012171971,NaN,NaN,-1.8847584,10.25819025,-0.4319238,NaN,2
1.56926170379961e+18,NaN,61856,NaN,1569261703,756109952,NaN,NaN,0.358954195827,0.579371074984,0.490897434656,0.542679234372,NaN,NaN,0.169263080482,-0.0259932765717,-0.318713244099,NaN,NaN,-2.81732115,10.23855735,-0.1177974,NaN,2
1.56926170386378e+18,NaN,61857,NaN,1569261703,798754930,NaN,NaN,0.352486005427,0.581643726001,0.484240511871,0.5504137704,NaN,NaN,-0.104753612082,-0.0853344711397,-0.564804668631,NaN,NaN,-2.91548565,10.209108,-0.6675186,NaN,2
1.56926170390644e+18,NaN,61858,NaN,1569261703,862754106,NaN,NaN,0.346890926378,0.588801663799,0.46830343987,0.560063544707,NaN,NaN,0.183225714498,-0.118495726928,-0.615419216939,NaN,NaN,-2.1399861,8.834805,0.3730251,NaN,2
1.5692617039747e+18,NaN,61859,NaN,1569261703,905150890,NaN,NaN,0.348845965661,0.591219089256,0.460969594955,0.562381999418,NaN,NaN,0.258274872334,-0.12896770244,-0.227956122995,NaN,NaN,-1.05036015,7.5979323,0.0785316,NaN,2
1.56926170401346e+18,NaN,61860,NaN,1569261703,968539953,NaN,NaN,0.358318981524,0.586983733635,0.468781599618,0.554347739048,NaN,NaN,0.0401087158338,0.0473105520123,0.478902224065,NaN,NaN,-1.1387082,7.8138942,-0.1177974,NaN,3
1.56926170405447e+18,NaN,61861,NaN,1569261704,11873006,NaN,NaN,0.36447971802,0.586580164512,0.470256963646,0.549487610319,NaN,NaN,0.177989726742,0.0473105520123,0.318331932881,NaN,NaN,1.58044845,4.70207955,-0.196329,NaN,3
1.56926170412846e+18,NaN,61862,NaN,1569261704,53719997,NaN,NaN,0.386708069275,0.576585074178,0.48378002032,0.532882175843,NaN,NaN,0.260020201586,-0.0277386058237,1.52784510452,NaN,NaN,0.3533922,16.79594595,-1.1976069,NaN,3
1.56926170416207e+18,NaN,61863,NaN,1569261704,117880105,NaN,NaN,0.37181072391,0.559415190028,0.504170800098,0.542792073524,NaN,NaN,-1.00185284761,0.0298572594923,0.128091044413,NaN,NaN,-1.2368727,7.9120587,-0.24541125,NaN,2
1.56926170420375e+18,NaN,61864,NaN,1569261704,160569906,NaN,NaN,0.394357448358,0.562243307533,0.50311318569,0.52463490967,NaN,NaN,0.977350524158,0.0298572594923,0.946650463601,NaN,NaN,-5.46776265,12.368727,1.3350372,NaN,3
1.56926170426779e+18,NaN,61865,NaN,1569261704,202887058,NaN,NaN,0.399496825272,0.563907614178,0.502789825793,0.519242602594,NaN,NaN,0.244312238318,0.0839624663043,0.234556128785,NaN,NaN,-2.44429605,10.6999305,-1.0994424,NaN,2
1.56926170431063e+18,NaN,61866,NaN,1569261704,266310930,NaN,NaN,0.403152058605,0.565951110991,0.496504438093,0.520241386824,NaN,NaN,0.181480385246,-0.10278776366,-0.0900751120873,NaN,NaN,-0.8442147,8.56976085,-0.14724675,NaN,2
1.56926170435533e+18,NaN,61867,NaN,1569261704,308832883,NaN,NaN,0.401161032596,0.570505862262,0.491891674203,0.521186596049,NaN,NaN,0.143083141702,0.0734904907923,-0.304750610083,NaN,NaN,-0.18651255,8.5599444,-0.4319238,NaN,2
1.56926170441682e+18,NaN,61868,NaN,1569261704,352662086,NaN,NaN,0.400894430785,0.571894288713,0.490771343351,0.520926162184,NaN,NaN,0.0418540450858,0.0542918690203,-0.0830937950793,NaN,NaN,-0.6871515,9.76736775,-0.2159619,NaN,5
1.56926170445952e+18,NaN,61869,NaN,1569261704,415729045,NaN,NaN,0.396680574865,0.574190533812,0.489675104135,0.522654804623,NaN,NaN,-0.0489030760182,0.0787264785483,-0.175596245435,NaN,NaN,-0.52027185,9.6790197,-0.2552277,NaN,2
1.56926170452158e+18,NaN,61870,NaN,1569261704,457662105,NaN,NaN,0.397476978003,0.574297464511,0.489297111652,0.522286138762,NaN,NaN,0.0209100940618,0.0176399547283,-0.0045539787393,NaN,NaN,-1.05036015,9.39434265,-0.2355948,NaN,5
1.56926170456808e+18,NaN,61871,NaN,1569261704,520909070,NaN,NaN,0.388888546059,0.579112296354,0.481587694532,0.530535521366,NaN,NaN,-0.0349404420022,-0.0120306425557,-0.491500840047,NaN,NaN,-1.1387082,9.9931461,0.34357575,NaN,2
1.56926170460749e+18,NaN,61872,NaN,1569261704,565766096,NaN,NaN,0.389218889717,0.578493560527,0.481546056428,0.531005886836,NaN,NaN,-0.0297044542462,-0.00853998405175,-0.0185166127553,NaN,NaN,-1.1976069,9.94406385,-0.18651255,NaN,5
1.5692617046514e+18,NaN,61873,NaN,1569261704,606280088,NaN,NaN,0.391894907989,0.579750262122,0.478963064645,0.530002261663,NaN,NaN,0.181480385246,-0.0207572888157,-0.0185166127553,NaN,NaN,-1.30558785,9.96369675,0.04908225,NaN,5
1.56926170471391e+18,NaN,61874,NaN,1569261704,650486946,NaN,NaN,0.393737864641,0.584623180516,0.471362495994,0.530097753364,NaN,NaN,0.336814688674,-0.0347199228317,-0.241918757011,NaN,NaN,-1.6491636,9.9538803,-0.1177974,NaN,2
1.56926170475747e+18,NaN,61875,NaN,1569261704,712711095,NaN,NaN,0.385293452049,0.589128270645,0.465811258902,0.536187194565,NaN,NaN,-0.0698470270422,0.0350932472483,-0.411215694455,NaN,NaN,-2.1203532,9.4041591,-0.91292985,NaN,2
1.56926170479835e+18,NaN,61876,NaN,1569261704,755373954,NaN,NaN,0.37981871844,0.59389780237,0.45766950249,0.541813406953,NaN,NaN,0.0837419471338,-0.0347199228317,-0.563059339379,NaN,NaN,-3.2394285,10.209108,0.16687965,NaN,2
1.56926170486345e+18,NaN,61877,NaN,1569261704,797102928,NaN,NaN,0.374319372579,0.596152596391,0.455010659576,0.54539195887,NaN,NaN,-0.0925363073182,0.0595278567763,-0.344893182879,NaN,NaN,0.71660085,6.95986305,-1.3350372,NaN,3
1.56926170490526e+18,NaN,61878,NaN,1569261704,861479043,NaN,NaN,0.388273473209,0.59312319863,0.460455289324,0.534256032051,NaN,NaN,0.216386970286,0.0403292350043,0.543479406389,NaN,NaN,2.6700744,5.7328068,-0.4711896,NaN,3
1.56926170497118e+18,NaN,61879,NaN,1569261704,903955936,NaN,NaN,0.412317920765,0.58951358229,0.46571674226,0.515340260885,NaN,NaN,0.719041794862,0.0385839057523,1.28000835073,NaN,NaN,-0.8245818,16.61924985,0.588987,NaN,3
1.56926170501168e+18,NaN,61880,NaN,1569261704,967825889,NaN,NaN,0.413408550622,0.573472201725,0.489147199635,0.510840504669,NaN,NaN,-0.595191131894,0.131086356108,0.670888441785,NaN,NaN,-0.2748606,6.8518821,-2.4344796,NaN,3
1.56926170505456e+18,NaN,61881,NaN,1569261705,10898113,NaN,NaN,0.409514082043,0.562606757101,0.508231809929,0.507417265028,NaN,NaN,-0.787177349614,0.319581915324,0.635981856745,NaN,NaN,-2.4148467,12.45707505,0.392658,NaN,3
1.56926170511771e+18,NaN,61882,NaN,1569261705,52763938,NaN,NaN,0.411548515381,0.559619814663,0.511710946924,0.50557431632,NaN,NaN,-0.0855549903102,0.0281119302403,0.243282775045,NaN,NaN,-2.69952375,12.3098283,-0.10798095,NaN,3
1.56926170516047e+18,NaN,61883,NaN,1569261705,116321086,NaN,NaN,0.420190247973,0.560253912727,0.506047052317,0.503460117212,NaN,NaN,0.268746847846,-0.14642099496,0.0879484716167,NaN,NaN,-1.30558785,9.51214005,-0.0196329,NaN,5
1.56926170520326e+18,NaN,61884,NaN,1569261705,159312963,NaN,NaN,0.415474472551,0.562072481076,0.502529600015,0.50884132083,NaN,NaN,-0.101262953578,-0.0294839350757,-0.393762401935,NaN,NaN,-0.10798095,8.6188431,-0.53990475,NaN,2
1.56926170526637e+18,NaN,61885,NaN,1569261705,202337980,NaN,NaN,0.412830806369,0.56448756776,0.496593413108,0.514120115552,NaN,NaN,0.0348727280778,-0.106278422164,-0.407725035951,NaN,NaN,-0.44174025,9.1685643,-0.0981645,NaN,2
1.56926170531241e+18,NaN,61886,NaN,1569261705,264897108,NaN,NaN,0.408905729968,0.563985227808,0.49532931162,0.519004469984,NaN,NaN,-0.134424209366,-0.0347199228317,-0.187813550199,NaN,NaN,-0.196329,9.1685643,-0.7067844,NaN,2
1.56926170535085e+18,NaN,61887,NaN,1569261705,308967113,NaN,NaN,0.407284451455,0.569252020936,0.490726569529,0.518901672979,NaN,NaN,0.177989726742,0.103161088076,-0.275080012799,NaN,NaN,-0.588987,9.9538803,-0.5300883,NaN,2
1.56926170543619e+18,NaN,61888,NaN,1569261705,349998950,NaN,NaN,0.409708203122,0.568182385242,0.492014612942,0.516942536504,NaN,NaN,0.0174194355578,0.0228759424843,0.156016312445,NaN,NaN,-1.32522075,9.7968171,-0.4515567,NaN,2
1.56926170545751e+18,NaN,61889,NaN,1569261705,435360908,NaN,NaN,0.41067887369,0.570221759235,0.488194113486,0.517548563477,NaN,NaN,0.0732699716218,-0.0172666303117,-0.0708764903153,NaN,NaN,-0.97182855,10.1109435,-0.24541125,NaN,5
1.56926170552141e+18,NaN,61890,NaN,1569261705,456398010,NaN,NaN,0.411505149147,0.570955863383,0.486799696891,0.517396336865,NaN,NaN,0.0942139226458,-0.00155866704375,-0.0865844535833,NaN,NaN,-0.91292985,8.74645695,-0.87366405,NaN,2
1.5692617055634e+18,NaN,61891,NaN,1569261705,520374059,NaN,NaN,0.417289930619,0.572447305082,0.482802388654,0.514854397104,NaN,NaN,0.214641641034,-0.0521732153517,0.0408245818127,NaN,NaN,-0.8049489,10.31708895,-0.18651255,NaN,5
1.56926170563102e+18,NaN,61892,NaN,1569261705,562645912,NaN,NaN,0.415649992427,0.573077399092,0.482051215041,0.516182142778,NaN,NaN,-0.0593750515302,0.0246212717363,-0.124981697127,NaN,NaN,-1.0209108,9.2078301,-0.9227463,NaN,5
1.56926170565093e+18,NaN,61893,NaN,1569261705,629199981,NaN,NaN,0.420147538387,0.576096732762,0.47531173453,0.515429292441,NaN,NaN,0.23733092131,-0.0731171663757,-0.0656405025593,NaN,NaN,-1.18779045,9.90479805,-0.06871515,NaN,5
1.56926170573644e+18,NaN,61894,NaN,1569261705,649431943,NaN,NaN,0.421024557857,0.576387609005,0.474639984168,0.515007311886,NaN,NaN,0.0540713498498,0.0106586377203,-0.0220072712593,NaN,NaN,-1.0209108,9.6397539,-1.177974,NaN,5
1.56926170575493e+18,NaN,61895,NaN,1569261705,732800006,NaN,NaN,0.418811347294,0.575918307132,0.472954317491,0.518873175693,NaN,NaN,-0.0558843930262,-0.0399559105877,-0.104037746103,NaN,NaN,-0.9031134,9.53177295,-0.53990475,NaN,5
1.56926170584008e+18,NaN,61896,NaN,1569261705,753652095,NaN,NaN,0.419599781607,0.575497185733,0.473452148695,0.518249047645,NaN,NaN,-0.0331951127502,0.0385839057523,0.0617685328367,NaN,NaN,-0.89329695,9.41397555,-0.95219565,NaN,5
1.56926170586147e+18,NaN,61897,NaN,1569261705,838871002,NaN,NaN,0.419640386764,0.576657682165,0.472032257621,0.518221392035,NaN,NaN,0.0226554233138,0.0106586377203,-0.0412058930313,NaN,NaN,-0.91292985,9.9538803,-0.83439825,NaN,5
1.56926170590727e+18,NaN,61898,NaN,1569261705,860100984,NaN,NaN,0.420636682236,0.576574488844,0.470953204706,0.5184879163,NaN,NaN,0.0697793131178,-0.0608998616117,-0.0377152345273,NaN,NaN,-1.3546701,9.57103875,-0.46137315,NaN,5
1.56926170596834e+18,NaN,61899,NaN,1569261705,903439998,NaN,NaN,0.420722743923,0.576098998518,0.471742945282,0.518228627373,NaN,NaN,-0.0454124175142,0.0281119302403,0.0128993137807,NaN,NaN,-1.0012779,9.62993745,-0.87366405,NaN,5
1.56926170603137e+18,NaN,61900,NaN,1569261705,966598987,NaN,NaN,0.423921615773,0.576116593964,0.469541766471,0.51760087266,NaN,NaN,0.0889779348898,-0.0521732153517,0.0181353015367,NaN,NaN,-1.12889175,9.4630578,-0.785316,NaN,5
1.56926170605279e+18,NaN,61901,NaN,1569261706,30060052,NaN,NaN,0.422059366254,0.571938693287,0.47214839744,0.521371185695,NaN,NaN,-0.188529416178,-0.0591545323597,-0.0062993079913,NaN,NaN,-1.0601766,9.94406385,0.16687965,NaN,5
1.56926170613736e+18,NaN,61902,NaN,1569261706,51424026,NaN,NaN,0.420649425555,0.573400915588,0.470007816671,0.522836593068,NaN,NaN,0.0435993743378,0.0141492962243,-0.303005280831,NaN,NaN,-2.552277,11.5245123,-0.8245818,NaN,2
1.56926170616703e+18,NaN,61903,NaN,1569261706,136490106,NaN,NaN,0.410542541325,0.582500459319,0.45734976682,0.531957918867,NaN,NaN,0.0401087158338,-0.0172666303117,-0.484519523039,NaN,NaN,-2.03200515,8.5599444,-1.22705625,NaN,2
1.56926170622355e+18,NaN,61904,NaN,1569261706,164875984,NaN,NaN,0.408668765179,0.583298007471,0.454323555862,0.535110625418,NaN,NaN,-0.0297044542462,-0.0975517759037,-0.346638512131,NaN,NaN,-1.54118265,9.08021625,-0.40247445,NaN,2
1.56926170626598e+18,NaN,61905,NaN,1569261706,222091913,NaN,NaN,0.40579783383,0.581403150467,0.456821691208,0.537226616176,NaN,NaN,-0.169330794406,0.0193852839803,-0.0185166127553,NaN,NaN,0.0588987,7.460502,-0.34357575,NaN,3
1.56926170632844e+18,NaN,61906,NaN,1569261706,264655113,NaN,NaN,0.408581815015,0.58391595349,0.4542848341,0.534535638854,NaN,NaN,0.239076250562,0.0508012105163,0.0216259600407,NaN,NaN,-1.48228395,5.3794146,-0.2552277,NaN,3
1.56926170634948e+18,NaN,61907,NaN,1569261706,327640056,NaN,NaN,0.436508609397,0.564287211585,0.478025231863,0.512378819299,NaN,NaN,0.0348727280778,-0.00155866704375,1.49642917798,NaN,NaN,-1.10925885,11.75029065,-2.09090385,NaN,3
1.56926170641352e+18,NaN,61908,NaN,1569261706,348579883,NaN,NaN,0.437567904992,0.562159614071,0.482009975923,0.51007575902,NaN,NaN,-0.274050549526,0.162502282644,0.374182468945,NaN,NaN,-0.00981645,8.6188431,-2.03200515,NaN,2
1.56926170645643e+18,NaN,61909,NaN,1569261706,412772893,NaN,NaN,0.433278834242,0.544655239275,0.500975055053,0.514435726154,NaN,NaN,-0.724345496542,-0.0172666303117,0.403853066229,NaN,NaN,-2.8271376,11.190753,0.53990475,NaN,2
1.56926170649854e+18,NaN,61910,NaN,1569261706,455075025,NaN,NaN,0.440425871533,0.546098013952,0.507495367463,0.500250400145,NaN,NaN,0.322852054658,0.389395085404,0.656925807769,NaN,NaN,-2.1007203,11.22020235,-0.52027185,NaN,3
1.56926170656504e+18,NaN,61911,NaN,1569261706,497556924,NaN,NaN,0.451044535227,0.548245521467,0.50260754753,0.493326796959,NaN,NaN,0.56894347919,-0.10278776366,0.279934689337,NaN,NaN,-0.91292985,9.8949816,-0.0588987,NaN,2
1.5692617066265e+18,NaN,61912,NaN,1569261706,563851118,NaN,NaN,0.439710314366,0.558832392882,0.496543017661,0.497801393849,NaN,NaN,0.0278914110698,0.188682221424,-0.496736827803,NaN,NaN,-0.0785316,8.245818,-0.3141264,NaN,2
1.56926170666857e+18,NaN,61913,NaN,1569261706,625097036,NaN,NaN,0.436833670097,0.555680408352,0.500071556231,0.500323962141,NaN,NaN,-0.200746720942,0.0176399547283,0.000682009016702,NaN,NaN,-0.6478857,9.4826907,0,NaN,5
1.5692617067123e+18,NaN,61914,NaN,1569261706,667356967,NaN,NaN,0.428676580353,0.555995892271,0.50074389061,0.506320563726,NaN,NaN,-0.32990108559,0.0839624663043,-0.367582463155,NaN,NaN,-0.5104554,10.76864565,0.196329,NaN,2
1.56926170675503e+18,NaN,61915,NaN,1569261706,710448026,NaN,NaN,0.428293144042,0.55579986755,0.500910837515,0.506694999835,NaN,NaN,-0.0209778079862,0.0263666009883,-0.0324792467713,NaN,NaN,-0.36320865,9.04095045,0.4515567,NaN,5
1.56926170682006e+18,NaN,61916,NaN,1569261706,752589941,NaN,NaN,0.426506035325,0.553595615454,0.496307456323,0.515076115909,NaN,NaN,-0.153622831138,-0.301755298388,-0.336166536619,NaN,NaN,-0.42210735,9.15874785,-0.0196329,NaN,2
1.56926170686056e+18,NaN,61917,NaN,1569261706,817387104,NaN,NaN,0.424764722911,0.559420126083,0.484522169421,0.521404181076,NaN,NaN,0.174499068238,-0.12896770244,-0.402489048195,NaN,NaN,0,8.2850838,-0.2159619,NaN,2
1.56926170691514e+18,NaN,61918,NaN,1569261706,858969926,NaN,NaN,0.424965549277,0.560633714241,0.479372336836,0.52468684285,NaN,NaN,0.0924685933938,-0.148166324212,-0.245409415515,NaN,NaN,-0.99146145,10.17965865,-0.26504415,NaN,2
1.56926170696549e+18,NaN,61919,NaN,1569261706,913747072,NaN,NaN,0.426375964247,0.565319257109,0.475819445552,0.521740864691,NaN,NaN,0.214641641034,0.0857077955563,-0.0796031365753,NaN,NaN,-0.77549955,9.6593868,-0.53990475,NaN,5
1.56926170700877e+18,NaN,61920,NaN,1569261706,964672088,NaN,NaN,0.42297650176,0.56323397952,0.4747740031,0.527681731021,NaN,NaN,-0.188529416178,-0.11151440992,-0.180832233191,NaN,NaN,-1.5313662,9.84589935,0.0588987,NaN,2
1.5692617070508e+18,NaN,61921,NaN,1569261707,7608890,NaN,NaN,0.423772538267,0.566093568845,0.471283399763,0.527111813784,NaN,NaN,0.171008409734,0.0176399547283,-0.130217684883,NaN,NaN,-1.01109435,9.45324135,-0.4319238,NaN,5
1.5692617071148e+18,NaN,61922,NaN,1569261707,49747943,NaN,NaN,0.421609589101,0.565911221429,0.46846676841,0.531534317551,NaN,NaN,-0.0733376855462,-0.11151440992,-0.233192110751,NaN,NaN,-1.7473281,10.2483738,0.1374303,NaN,2
1.56926170715744e+18,NaN,61923,NaN,1569261707,113795995,NaN,NaN,0.424644798142,0.566933282607,0.467766052244,0.528638221141,NaN,NaN,0.108176556662,0.0263666009883,0.0547872158287,NaN,NaN,-1.0012779,9.86553225,-0.3533922,NaN,5
1.56926170719966e+18,NaN,61924,NaN,1569261707,156054973,NaN,NaN,0.426069872672,0.568372166502,0.466185345014,0.527341225434,NaN,NaN,0.125629849182,0.0246212717363,-0.0220072712593,NaN,NaN,-1.18779045,9.9931461,-0.3730251,NaN,5
1.56926170726436e+18,NaN,61925,NaN,1569261707,198657989,NaN,NaN,0.42753540229,0.568763058946,0.465140805872,0.526655573672,NaN,NaN,0.0802512886298,-0.00679465479975,-0.0010633202353,NaN,NaN,-1.12889175,9.9538803,-0.22577835,NaN,5
1.56926170730571e+18,NaN,61926,NaN,1569261707,263197898,NaN,NaN,0.427254660382,0.56991644776,0.464718954709,0.526008546402,NaN,NaN,0.0156741063058,0.0385839057523,-0.0307339175193,NaN,NaN,-1.1583411,9.45324135,-0.75586665,NaN,5
1.56926170737183e+18,NaN,61927,NaN,1569261707,304888963,NaN,NaN,0.429601425216,0.57050521709,0.462593496144,0.525331961764,NaN,NaN,0.136101824694,-0.0451918983437,-0.0062993079913,NaN,NaN,-1.2368727,10.02259545,-0.392658,NaN,5
1.56926170741286e+18,NaN,61928,NaN,1569261707,370914936,NaN,NaN,0.434671375004,0.574520820484,0.456935126132,0.521724940069,NaN,NaN,0.282709481862,-0.00679465479975,-0.0097899664953,NaN,NaN,-1.63934715,9.61030455,-0.1570632,NaN,5
1.56926170749739e+18,NaN,61929,NaN,1569261707,411180019,NaN,NaN,0.437965101239,0.57541949476,0.45375522148,0.520754427851,NaN,NaN,0.214641641034,-0.0766078248797,-0.0115352957473,NaN,NaN,-1.01109435,9.7379184,-0.4319238,NaN,5
1.56926170751828e+18,NaN,61930,NaN,1569261707,496509075,NaN,NaN,0.441016927372,0.577563898963,0.449880255751,0.519164490188,NaN,NaN,0.127375178434,-0.0172666303117,-0.0167712835033,NaN,NaN,-1.54118265,9.4826907,-0.52027185,NaN,5
1.56926170756067e+18,NaN,61931,NaN,1569261707,517385005,NaN,NaN,0.443345213837,0.57769657773,0.448339993589,0.518365638903,NaN,NaN,0.198933677766,-0.0958064466517,0.0320979355527,NaN,NaN,-0.99146145,9.4434249,-1.30558785,NaN,5
1.56926170763043e+18,NaN,61932,NaN,1569261707,559849977,NaN,NaN,0.445223078784,0.577235376997,0.448457763722,0.517166669285,NaN,NaN,0.0523260205978,-0.00330399629575,0.0722405083487,NaN,NaN,-1.32522075,9.92443095,-0.75586665,NaN,5
1.56926170767364e+18,NaN,61933,NaN,1569261707,627260923,NaN,NaN,0.447805406872,0.57787823592,0.448079249709,0.514540618422,NaN,NaN,0.0819966178818,0.0228759424843,0.0547872158287,NaN,NaN,-1.26632205,9.5808552,-1.0405437,NaN,5
1.56926170773089e+18,NaN,61934,NaN,1569261707,672818899,NaN,NaN,0.448778511759,0.576128881891,0.448650259312,0.515156581684,NaN,NaN,-0.0454124175142,-0.0521732153517,0.0460605695687,NaN,NaN,-1.3154043,9.76736775,-0.8442147,NaN,5
1.56926170775212e+18,NaN,61935,NaN,1569261707,729898929,NaN,NaN,0.445129196115,0.573670212566,0.45235863727,0.51781671397,NaN,NaN,-0.228671988974,0.0263666009883,-0.0202619420073,NaN,NaN,-1.4332017,10.35635475,-0.9031134,NaN,5
1.56926170783729e+18,NaN,61936,NaN,1569261707,751184940,NaN,NaN,0.441842017924,0.572223898222,0.453010232059,0.521648513033,NaN,NaN,-0.41716754819,-0.0800984833837,-0.259372049531,NaN,NaN,-1.58044845,8.834805,-0.30430995,NaN,2
1.56926170785907e+18,NaN,61937,NaN,1569261707,836193084,NaN,NaN,0.443812461586,0.578072220586,0.443213591834,0.521943214096,NaN,NaN,0.214641641034,-0.0486825568477,-0.159888282167,NaN,NaN,-2.01237225,11.0925885,-0.588987,NaN,2
1.5692617079224e+18,NaN,61938,NaN,1569261707,857433080,NaN,NaN,0.438618438294,0.578512352571,0.442972996699,0.526034454867,NaN,NaN,-0.415422218938,0.0298572594923,-0.515935449575,NaN,NaN,-1.42338525,8.9526024,-0.77549955,NaN,2
1.56926170796499e+18,NaN,61939,NaN,1569261707,921386003,NaN,NaN,0.433714842036,0.576650755617,0.444407808836,0.530911519266,NaN,NaN,-0.19900139169,-0.0207572888157,-0.111019063111,NaN,NaN,-1.52154975,8.17710285,-0.04908225,NaN,2
1.56926170800668e+18,NaN,61940,NaN,1569261707,963978052,NaN,NaN,0.438757716674,0.576237186472,0.444148276669,0.52742267615,NaN,NaN,0.212896311782,-0.00853998405175,0.173469604965,NaN,NaN,-0.6086199,9.6397539,0.392658,NaN,2
1.56926170804949e+18,NaN,61941,NaN,1569261708,5925893,NaN,NaN,0.438009924385,0.577463743147,0.448218673278,0.52324272801,NaN,NaN,-0.0209778079862,0.26373137926,0.143799007681,NaN,NaN,0.57917055,7.5782994,-0.392658,NaN,3
1.56926170811361e+18,NaN,61942,NaN,1569261708,48664093,NaN,NaN,0.437552665071,0.568666782136,0.459177317883,0.523757526844,NaN,NaN,-0.506179340042,0.0228759424843,0.424797017253,NaN,NaN,0.81476535,6.2236293,-0.0785316,NaN,3
1.56926170816306e+18,NaN,61943,NaN,1569261708,112591028,NaN,NaN,0.466033897221,0.576672333147,0.45172396835,0.496192385311,NaN,NaN,1.09079692554,0.120614380596,0.670888441785,NaN,NaN,-3.19034625,14.95045335,0.52027185,NaN,3
1.56926170819994e+18,NaN,61944,NaN,1569261708,162359952,NaN,NaN,0.465279027019,0.570276677931,0.458499205717,0.498074709237,NaN,NaN,-0.34735437811,-0.0225026180677,0.194413555989,NaN,NaN,-0.85403115,8.5206786,-1.77677745,NaN,2
1.5692617082616e+18,NaN,61945,NaN,1569261708,198389053,NaN,NaN,0.461844814614,0.560611146793,0.468914113843,0.502527674009,NaN,NaN,-0.80113998363,-0.0417012398397,0.238046787289,NaN,NaN,1.42338525,9.7968171,-1.01109435,NaN,2
1.56926170830661e+18,NaN,61946,NaN,1569261708,260886907,NaN,NaN,0.447781727207,0.523202401549,0.505284033776,0.520037322702,NaN,NaN,-1.7331458042,-0.160383628976,0.564423357413,NaN,NaN,2.62099215,9.1685643,-1.32522075,NaN,2
1.56926170834705e+18,NaN,61947,NaN,1569261708,305120944,NaN,NaN,0.484247182926,0.533167209394,0.488098761365,0.492947250534,NaN,NaN,2.04200136788,-0.298264639884,0.876837293521,NaN,NaN,-3.19034625,13.546701,-1.7865939,NaN,3
1.56926170841088e+18,NaN,61948,NaN,1569261708,346340894,NaN,NaN,0.540315469844,0.584392373847,0.432572896723,0.423586396686,NaN,NaN,5.64785160251,0.408593707176,0.632491198241,NaN,NaN,-2.97438435,8.8544379,-2.9056692,NaN,3
1.56926170845369e+18,NaN,61949,NaN,1569261708,409732103,NaN,NaN,0.606899496426,0.65561584707,0.319854026954,0.315490512933,NaN,NaN,5.92012296582,0.127595697604,-0.0062993079913,NaN,NaN,-1.1583411,8.8740708,-3.8480484,NaN,2
1.56926170851718e+18,NaN,61950,NaN,1569261708,452572107,NaN,NaN,0.637673969176,0.687570628459,0.227187392955,0.262686939907,NaN,NaN,5.29878575211,-1.0138496332,-0.535134071347,NaN,NaN,-6.03711675,5.4579462,-10.47415215,NaN,3
1.56926170858099e+18,NaN,61951,NaN,1569261708,516305923,NaN,NaN,0.67331953221,0.723181105027,0.100316893006,0.116560790382,NaN,NaN,6.33725665705,0.661666448716,0.0600232035847,NaN,NaN,3.6909852,4.48611765,-5.300883,NaN,3
1.5692617086028e+18,NaN,61952,NaN,1569261708,579915046,NaN,NaN,0.704193099989,0.699172348842,-0.0647560265423,-0.105246195037,NaN,NaN,8.83482281666,1.4296113196,1.02868093844,NaN,NaN,2.2774164,3.2197956,-6.41014185,NaN,3
1.56926170866597e+18,NaN,61953,NaN,1569261708,601932048,NaN,NaN,0.703384636039,0.682017854012,-0.114253726605,-0.16446211281,NaN,NaN,7.11741883269,0.467934901744,0.304369298865,NaN,NaN,0.981645,-1.6098978,-14.40073215,NaN,4
1.56926170870902e+18,NaN,61954,NaN,1569261708,664953947,NaN,NaN,0.695898956574,0.704065841956,-0.111231781523,-0.0874266733308,NaN,NaN,-1.80470430353,-1.65962145644,-0.0830937950793,NaN,NaN,0.9227463,-0.81476535,-10.3072725,NaN,4
1.5692617087502e+18,NaN,61955,NaN,1569261708,707319974,NaN,NaN,0.677079223622,0.726688511936,-0.107201720312,-0.0446690353758,NaN,NaN,-1.55337689124,-1.41178470266,-0.700940350287,NaN,NaN,1.14852465,-2.11053675,-10.17965865,NaN,4
1.56926170881473e+18,NaN,61956,NaN,1569261708,749516010,NaN,NaN,0.670280911344,0.729887473773,-0.127395293585,-0.0419310706984,NaN,NaN,0.678899222066,-0.65256647804,0.161252300201,NaN,NaN,-2.1007203,-1.1583411,-9.423792,NaN,4
1.5692617088574e+18,NaN,61957,NaN,1569261708,813549041,NaN,NaN,0.667188556624,0.732135508437,-0.131323045044,-0.0398909142001,NaN,NaN,0.0785059593778,-0.0748624956277,0.190922897485,NaN,NaN,0.0196329,-2.355948,-11.23983525,NaN,4
1.56926170890031e+18,NaN,61958,NaN,1569261708,856177091,NaN,NaN,0.65568373765,0.744067998935,-0.123944258392,-0.0328552880593,NaN,NaN,-0.46952742575,0.00367732071225,-0.299514622327,NaN,NaN,-1.1583411,-2.1792519,-9.96369675,NaN,4
1.56926170896363e+18,NaN,61959,NaN,1569261708,898796081,NaN,NaN,0.639882966942,0.763719676906,-0.0852686460388,0.00336180399291,NaN,NaN,-2.50458133358,-0.12896770244,-0.580512631899,NaN,NaN,-0.69696795,-0.95219565,-8.9722353,NaN,4
1.56926170900653e+18,NaN,61960,NaN,1569261708,962057113,NaN,NaN,0.629563297431,0.770743530519,-0.0978649433606,0.00518821278933,NaN,NaN,0.308889420642,-0.29477398138,-0.102292416851,NaN,NaN,-0.77549955,0.16687965,-9.51214005,NaN,4
1.56926170904866e+18,NaN,61961,NaN,1569261709,5017995,NaN,NaN,0.621872152441,0.776913245835,-0.0978736983018,0.0100783750856,NaN,NaN,-0.0960269658222,-0.12896770244,-0.0254979297633,NaN,NaN,-2.3166822,-0.5300883,-10.0520448,NaN,4
1.56926170911279e+18,NaN,61962,NaN,1569261709,46989917,NaN,NaN,0.611119763578,0.784479788149,-0.102167229985,0.0261907171859,NaN,NaN,-0.284522525038,-0.685727733828,-0.147670977403,NaN,NaN,-4.17199125,-0.4319238,-10.39562055,NaN,4
