rosbagTimestamp,header,seq,stamp,secs,nsecs,frame_id,orientation,x,y,z,w,orientation_covariance,angular_velocity,x_1,y_1,z_1,angular_velocity_covariance,linear_acceleration,x_2,y_2,z_2,linear_acceleration_covariance,Label
1.56926770909056e+18,NaN,18994,NaN,1569267709,45480966,NaN,NaN,0.849831709735,0.478198902195,0.0438727340022,0.217225823232,NaN,NaN,2.49169098607,-0.528345745426,0.773131360554,NaN,NaN,-0.6871515,5.09473755,-7.9905903,NaN,5
1.56926770915928e+18,NaN,18995,NaN,1569267709,88044881,NaN,NaN,0.859889150485,0.468751185716,0.0257680286097,0.200496841545,NaN,NaN,1.20014733959,-0.530091074678,0.581145142834,NaN,NaN,-1.01109435,4.56464925,-8.94278595,NaN,5
1.56926770919588e+18,NaN,18996,NaN,1569267709,158345937,NaN,NaN,0.867690073405,0.455434873293,0.00424249767378,0.199185877804,NaN,NaN,0.395550554423,-0.633065500546,0.404866888382,NaN,NaN,-1.42338525,5.0849211,-8.6188431,NaN,3
1.56926770923746e+18,NaN,18997,NaN,1569267709,194691896,NaN,NaN,0.874273284461,0.446515192568,-0.00726263297266,0.190309382445,NaN,NaN,0.849336159943,-0.51438311141,0.666666276182,NaN,NaN,-1.3154043,4.23088995,-9.0900327,NaN,5
1.56926770930157e+18,NaN,18998,NaN,1569267709,236819982,NaN,NaN,0.877506044537,0.442008488456,-0.0158356700945,0.1853668511,NaN,NaN,0.470599712259,-0.364284795738,0.369960303342,NaN,NaN,-1.56081555,3.4946562,-8.78572275,NaN,5
1.5692677093446e+18,NaN,18999,NaN,1569267709,300661087,NaN,NaN,0.881663872192,0.435910692319,-0.0116522926739,0.180318908797,NaN,NaN,0.140732483631,0.106954102302,0.369960303342,NaN,NaN,-1.570632,3.62227005,-9.3648933,NaN,5
1.56926770939225e+18,NaN,19000,NaN,1569267709,343323945,NaN,NaN,0.882596633388,0.434009076081,-0.0129861986786,0.180251666444,NaN,NaN,0.0796459598108,-0.13041067597,0.284439169994,NaN,NaN,-1.93384065,3.15108045,-9.1881972,NaN,5
1.56926770945409e+18,NaN,19001,NaN,1569267709,389539003,NaN,NaN,0.874881973019,0.443931674703,-0.00572039001233,0.193580677287,NaN,NaN,-0.676081606305,0.0441222492303,-0.289774153914,NaN,NaN,-1.83567615,3.2786943,-8.7759063,NaN,5
1.56926770949343e+18,NaN,19002,NaN,1569267709,449031114,NaN,NaN,0.8637652845,0.459776885192,0.00963738579432,0.205965700859,NaN,NaN,-0.637684362761,0.32337492955,-0.418928518562,NaN,NaN,-1.5509991,4.0640103,-8.68755825,NaN,5
1.56926770953486e+18,NaN,19003,NaN,1569267709,492468118,NaN,NaN,0.853701213462,0.473435217176,0.0232870641185,0.215664197113,NaN,NaN,-0.723205496109,0.405405404394,-0.497468334902,NaN,NaN,-1.2172398,4.4959341,-8.76608985,NaN,5
1.56926770959928e+18,NaN,19004,NaN,1569267709,534198045,NaN,NaN,0.843432110552,0.487237956499,0.0339814297405,0.223755918511,NaN,NaN,-0.621976399493,0.333846905062,-0.581244138998,NaN,NaN,-0.7460502,4.908225,-8.70719115,NaN,5
1.56926770964181e+18,NaN,19005,NaN,1569267709,598027944,NaN,NaN,0.827884020633,0.505642820865,0.0517016396701,0.237192593778,NaN,NaN,-0.691789569573,0.360026843842,-0.555064200218,NaN,NaN,-0.392658,5.1830856,-8.58939375,NaN,5
1.56926770970555e+18,NaN,19006,NaN,1569267709,640511989,NaN,NaN,0.818462906329,0.516834123623,0.0621968271162,0.243171779448,NaN,NaN,-0.529473949137,0.34082822207,-0.483505700886,NaN,NaN,-0.18651255,5.3794146,-8.6777418,NaN,5
1.56926770974795e+18,NaN,19007,NaN,1569267709,704649925,NaN,NaN,0.804884848654,0.531668517529,0.0771853717769,0.25205433196,NaN,NaN,-0.522492632129,0.333846905062,-0.46081642061,NaN,NaN,-0.20614545,5.5757436,-8.3047167,NaN,3
1.56926770981168e+18,NaN,19008,NaN,1569267709,746958971,NaN,NaN,0.797130462565,0.538649859736,0.0877763027389,0.258330553622,NaN,NaN,-0.548672570909,0.295449661518,-0.305482117182,NaN,NaN,-0.26504415,5.6739081,-8.4814128,NaN,3
1.56926770987558e+18,NaN,19009,NaN,1569267709,810806035,NaN,NaN,0.788921190994,0.548089248568,0.100451821966,0.259057834214,NaN,NaN,-0.258947915077,0.368753490102,-0.246140922614,NaN,NaN,-0.2944935,5.6150094,-8.1672864,NaN,3
1.5692677098965e+18,NaN,19010,NaN,1569267709,874382972,NaN,NaN,0.778574339424,0.558115563878,0.11641935627,0.262250927231,NaN,NaN,-0.396828925985,0.426349355418,-0.288028824662,NaN,NaN,-0.196329,5.6346423,-7.9709574,NaN,3
1.5692677099395e+18,NaN,19011,NaN,1569267709,895505905,NaN,NaN,0.775154335,0.561506718843,0.121310670096,0.262925242122,NaN,NaN,-0.307817134133,0.365262831598,-0.270575532142,NaN,NaN,-0.16687965,6.07638255,-7.8335271,NaN,3
1.56926771000321e+18,NaN,19012,NaN,1569267709,938534021,NaN,NaN,0.769861192069,0.5666361528,0.128153644037,0.264223123148,NaN,NaN,-0.234513305549,0.267524393486,-0.226942300842,NaN,NaN,-0.14724675,6.27271155,-7.6764639,NaN,3
1.56926771004505e+18,NaN,19013,NaN,1569267710,2264976,NaN,NaN,0.764754070611,0.571345169544,0.135145775334,0.265427067445,NaN,NaN,-0.152482830705,0.18374858939,-0.143166496746,NaN,NaN,-0.0392658,6.66536955,-7.31325525,NaN,3
1.56926771008779e+18,NaN,19014,NaN,1569267710,44195890,NaN,NaN,0.762442518027,0.571328393321,0.143135578916,0.267913194408,NaN,NaN,-0.302581146377,0.206437869666,0.034857086958,NaN,NaN,-0.06871515,6.58683795,-7.11692625,NaN,3
1.56926771015161e+18,NaN,19015,NaN,1569267710,87035894,NaN,NaN,0.76160691423,0.57136484247,0.146707788707,0.268279611077,NaN,NaN,-0.0861603191292,0.0964821267903,0.029621099202,NaN,NaN,-0.1570632,6.5770215,-7.13655915,NaN,3
1.56926771019631e+18,NaN,19016,NaN,1569267710,150593042,NaN,NaN,0.76261963899,0.568993531276,0.146152499687,0.270734361374,NaN,NaN,-0.0285644538132,-0.100740078686,0.069763671998,NaN,NaN,-0.2748606,6.70463535,-7.1660085,NaN,3
1.56926771026582e+18,NaN,19017,NaN,1569267710,193497896,NaN,NaN,0.762685743116,0.566377450258,0.147851367889,0.275076378666,NaN,NaN,-0.185644086493,-0.116448041954,0.104670257038,NaN,NaN,-0.3141264,6.478857,-6.9696795,NaN,3
1.5692677103003e+18,NaN,19018,NaN,1569267710,262506008,NaN,NaN,0.756363335123,0.563358352292,0.156970192233,0.293090823697,NaN,NaN,-0.595796460713,-0.114702712702,-0.03321075387,NaN,NaN,0.00981645,6.46904055,-6.7340847,NaN,3
1.56926771034349e+18,NaN,19019,NaN,1569267710,299482107,NaN,NaN,0.747933739881,0.563450696339,0.162442724964,0.311015746626,NaN,NaN,-1.00594883493,-0.318906235186,-0.322935409702,NaN,NaN,0.8245818,7.19545785,-7.09729335,NaN,3
1.56926771038641e+18,NaN,19020,NaN,1569267710,342170953,NaN,NaN,0.729922092928,0.562269349049,0.179964223304,0.344499340648,NaN,NaN,-1.87861346093,-0.20022384605,-0.429400494074,NaN,NaN,0.1766961,8.33416605,-6.6162873,NaN,3
1.56926771044886e+18,NaN,19021,NaN,1569267710,384222030,NaN,NaN,0.693189047797,0.555627262863,0.221273115967,0.402250539996,NaN,NaN,-3.74960641908,0.0580848832463,-0.562045517226,NaN,NaN,-0.73623375,9.2863617,-5.2616172,NaN,3
1.5692677104919e+18,NaN,19022,NaN,1569267710,448019027,NaN,NaN,0.596654541424,0.532292674575,0.319605342215,0.508448907975,NaN,NaN,-5.47748237856,0.658478145934,-0.680727906362,NaN,NaN,-1.22705625,10.7195634,-2.64062505,NaN,3
1.56926771053426e+18,NaN,19023,NaN,1569267710,490597963,NaN,NaN,0.544061629301,0.521068485814,0.365173696574,0.546930295325,NaN,NaN,-3.65535863947,0.833011071134,-0.49572300565,NaN,NaN,-1.48228395,9.6986526,-1.42338525,NaN,3
1.56926771059782e+18,NaN,19024,NaN,1569267710,533061981,NaN,NaN,0.511113529431,0.513059520106,0.387849935875,0.570180073401,NaN,NaN,-2.14041284873,0.377480136362,-0.415437860058,NaN,NaN,-2.01237225,9.45324135,-0.40247445,NaN,3
1.56926771064032e+18,NaN,19025,NaN,1569267710,596712112,NaN,NaN,0.492911430593,0.506161933301,0.389285073053,0.591012310164,NaN,NaN,-0.772074715165,-0.212441150814,-0.403220555294,NaN,NaN,-2.38539735,8.76608985,-0.1766961,NaN,3
1.5692677107053e+18,NaN,19026,NaN,1569267710,639457941,NaN,NaN,0.484301484388,0.508683053604,0.384890527307,0.598792873359,NaN,NaN,-0.264183902833,-0.0536161888817,-0.51317629817,NaN,NaN,-2.67989085,8.98205175,0.30430995,NaN,3
1.56926771074747e+18,NaN,19027,NaN,1569267710,704044103,NaN,NaN,0.479406095919,0.511700940214,0.379528250907,0.60356461936,NaN,NaN,-0.0372911000732,-0.0379082256137,-0.270575532142,NaN,NaN,-2.944935,9.2470959,0.4908225,NaN,2
1.56926771079162e+18,NaN,19028,NaN,1569267710,745743989,NaN,NaN,0.481072576518,0.512815683677,0.374110943596,0.604673674455,NaN,NaN,0.200073678199,-0.140882651482,-0.14665715525,NaN,NaN,-3.0430995,9.02131755,1.1190753,NaN,2
1.56926771085717e+18,NaN,19029,NaN,1569267710,788327932,NaN,NaN,0.479015740984,0.513192612429,0.369177163971,0.609003681467,NaN,NaN,-0.0111111612932,-0.161826602506,-0.26883020289,NaN,NaN,-2.66025795,8.6777418,0.93256275,NaN,3
1.56926771089558e+18,NaN,19030,NaN,1569267710,852081060,NaN,NaN,0.482829430215,0.511120535721,0.355491064035,0.61583897463,NaN,NaN,0.182620385679,-0.399191380778,-0.247886251866,NaN,NaN,-2.73878955,9.1489314,1.05036015,NaN,2
1.56926771093732e+18,NaN,19031,NaN,1569267710,894718885,NaN,NaN,0.477917034265,0.512209543094,0.362864867401,0.614463815313,NaN,NaN,-0.255457256573,0.316393612542,0.08023564751,NaN,NaN,-2.4148467,10.2680067,0.83439825,NaN,2
1.56926771100181e+18,NaN,19032,NaN,1569267710,936557054,NaN,NaN,0.476744797496,0.513679300872,0.366201551081,0.612163701882,NaN,NaN,-0.0215831368052,0.20120188191,0.061037025738,NaN,NaN,-2.1792519,9.6004881,0.8834805,NaN,2
1.56926771104379e+18,NaN,19033,NaN,1569267711,319957,NaN,NaN,0.473603769797,0.516105881837,0.371895572093,0.609120572157,NaN,NaN,-0.0704523558612,0.222145832934,0.050565050226,NaN,NaN,-2.26759995,9.3845262,0.75586665,NaN,2
1.56926771108618e+18,NaN,19034,NaN,1569267711,43174028,NaN,NaN,0.473866409808,0.518861289606,0.373509894566,0.605577366209,NaN,NaN,0.104080569339,0.202947211162,0.043583733218,NaN,NaN,-2.30686575,9.4826907,0.588987,NaN,2
1.56926771115019e+18,NaN,19035,NaN,1569267711,85411071,NaN,NaN,0.472148680087,0.520637180475,0.376177276465,0.603741009764,NaN,NaN,-0.0355457708212,0.195965894154,0.01914912369,NaN,NaN,-2.3755809,9.53177295,0.4908225,NaN,2
1.56926771119357e+18,NaN,19036,NaN,1569267711,149435997,NaN,NaN,0.469781278278,0.52264539716,0.379391023074,0.601838675242,NaN,NaN,-0.0390364293252,0.152332662854,0.012167806682,NaN,NaN,-2.44429605,9.227463,0.61843635,NaN,2
1.56926771123512e+18,NaN,19037,NaN,1569267711,192142009,NaN,NaN,0.468162389407,0.523547679311,0.382154699469,0.600566058237,NaN,NaN,-0.0564897218452,0.161059309114,0.033111757706,NaN,NaN,-2.3166822,9.4434249,0.8049489,NaN,2
1.56926771130552e+18,NaN,19038,NaN,1569267711,234256982,NaN,NaN,0.469293672707,0.525694975989,0.382593135688,0.597520487934,NaN,NaN,0.132005837371,0.14011535809,0.038347745462,NaN,NaN,-2.2774164,9.6790197,0.38284155,NaN,2
1.56926771134141e+18,NaN,19039,NaN,1569267711,304817914,NaN,NaN,0.469826625573,0.527683462048,0.384963000386,0.593815286194,NaN,NaN,0.0517206917788,0.124407394822,0.06278235499,NaN,NaN,-2.77805535,9.84589935,0.69696795,NaN,2
1.56926771138383e+18,NaN,19040,NaN,1569267711,340445041,NaN,NaN,0.471025320192,0.529168903661,0.394533542484,0.585199712057,NaN,NaN,0.0237954237468,0.555503720066,0.50784131425,NaN,NaN,-2.8075047,10.0324119,0.4711896,NaN,3
1.56926771144787e+18,NaN,19041,NaN,1569267711,383037090,NaN,NaN,0.472341954378,0.532899608692,0.4093677409,0.570376312535,NaN,NaN,0.0779006305588,0.80334047385,0.642231666654,NaN,NaN,-2.6504415,9.72810195,0.6871515,NaN,5
1.5692677114899e+18,NaN,19042,NaN,1569267711,446830987,NaN,NaN,0.472908581579,0.535580186143,0.43351790941,0.549157135892,NaN,NaN,-0.0338004415692,0.780651193574,0.68237423945,NaN,NaN,-2.22833415,9.2863617,0.7656831,NaN,5
1.56926771155385e+18,NaN,19043,NaN,1569267711,488996028,NaN,NaN,0.474577182076,0.534795660689,0.446906942113,0.537628388994,NaN,NaN,-0.0407817585772,0.581683658846,0.650958312914,NaN,NaN,-1.6687965,9.31581105,0.588987,NaN,5
1.56926771159602e+18,NaN,19044,NaN,1569267711,552928924,NaN,NaN,0.478057961157,0.53957449382,0.461177687134,0.517334603795,NaN,NaN,0.191347031939,0.616590243886,0.513077302006,NaN,NaN,-1.2172398,8.56976085,0.1766961,NaN,3
1.56926771163869e+18,NaN,19045,NaN,1569267711,595271110,NaN,NaN,0.481285844376,0.534177714904,0.475631297777,0.506747445458,NaN,NaN,-0.178662769485,0.44554797719,0.780112677562,NaN,NaN,-0.2552277,8.29490025,-0.6675186,NaN,5
1.56926771170289e+18,NaN,19046,NaN,1569267711,638056039,NaN,NaN,0.525691574581,0.523575271517,0.477565919043,0.470582720081,NaN,NaN,1.58761043354,-0.245602406602,2.18335739617,NaN,NaN,0.6282528,8.86425435,-0.7067844,NaN,5
1.5692677117454e+18,NaN,19047,NaN,1569267711,701805114,NaN,NaN,0.594884630842,0.510758463811,0.463511956969,0.412788969547,NaN,NaN,2.02394274654,-0.484712514126,2.01056980022,NaN,NaN,2.38539735,14.6068776,-0.46137315,NaN,5
1.5692677117947e+18,NaN,19048,NaN,1569267711,744280099,NaN,NaN,0.606143411119,0.53240972077,0.431358878048,0.403806355467,NaN,NaN,1.73421809071,-0.482967184874,-0.77497568597,NaN,NaN,1.2957714,11.1122214,-1.96329,NaN,3
1.569267711851e+18,NaN,19049,NaN,1569267711,793634891,NaN,NaN,0.577825255998,0.533458482799,0.433961227856,0.439565323221,NaN,NaN,-1.37944929486,-0.172298578018,-1.22701596224,NaN,NaN,1.26632205,6.84206565,-1.32522075,NaN,5
1.56926771189882e+18,NaN,19050,NaN,1569267711,850213050,NaN,NaN,0.577178391042,0.531167493325,0.433998877391,0.443137871743,NaN,NaN,-0.131538879681,-0.0763054691577,-0.054154704894,NaN,NaN,1.89457485,9.031134,-2.8860363,NaN,2
1.56926771193651e+18,NaN,19051,NaN,1569267711,893649101,NaN,NaN,0.582100689745,0.530523991977,0.42725823266,0.444019688257,NaN,NaN,0.217526970719,-0.294471625658,-0.061136021902,NaN,NaN,1.8454926,9.1881972,-2.81732115,NaN,2
1.56926771200021e+18,NaN,19052,NaN,1569267711,935775995,NaN,NaN,0.586484292876,0.527749968135,0.420164510261,0.448305620823,NaN,NaN,0.0796459598108,-0.439333953574,-0.092551948438,NaN,NaN,1.81604325,9.39434265,-3.13144755,NaN,2
1.56926771211139e+18,NaN,19053,NaN,1569267711,999207973,NaN,NaN,0.593343301596,0.518274811406,0.416308000357,0.453897119568,NaN,NaN,-0.0756883436172,-0.38348341751,0.136086183574,NaN,NaN,1.58044845,9.09984915,-2.7878718,NaN,2
1.5692677121114e+18,NaN,19054,NaN,1569267712,105829954,NaN,NaN,0.602245224716,0.491202471319,0.419351053725,0.469217982622,NaN,NaN,-0.344469048425,-0.414899344046,0.284439169994,NaN,NaN,1.374303,9.1881972,-2.8860363,NaN,3
1.56926771214915e+18,NaN,19055,NaN,1569267712,107939004,NaN,NaN,0.602747287009,0.490091371889,0.41937841986,0.469710438631,NaN,NaN,-0.637684362761,-0.908827522362,0.26349521897,NaN,NaN,1.28595495,9.47287425,-2.2774164,NaN,3
1.56926771219378e+18,NaN,19056,NaN,1569267712,148148059,NaN,NaN,0.608138989884,0.471259415712,0.410832442505,0.489181189612,NaN,NaN,-0.644665679769,-1.29629061631,0.081980976762,NaN,NaN,0.8049489,9.80663355,-1.91420775,NaN,2
1.56926771224622e+18,NaN,19057,NaN,1569267712,192384958,NaN,NaN,0.609653287316,0.44415574551,0.397136910811,0.522810498236,NaN,NaN,-1.10717793155,-1.75531220958,-0.162365118518,NaN,NaN,0.97182855,10.08149415,-1.54118265,NaN,2
1.56926771229814e+18,NaN,19058,NaN,1569267712,242664098,NaN,NaN,0.623140160095,0.413755574272,0.365290341347,0.554135030615,NaN,NaN,-0.395083596733,-2.22655110762,-0.197271703558,NaN,NaN,1.0798095,10.0520448,-1.12889175,NaN,2
1.56926771234036e+18,NaN,19059,NaN,1569267712,296859025,NaN,NaN,0.640473487001,0.381748915158,0.322186152796,0.583316004556,NaN,NaN,-0.0756883436172,-2.40457469133,-0.296755470922,NaN,NaN,1.3546701,9.94406385,-0.52027185,NaN,2
1.56926771238296e+18,NaN,19060,NaN,1569267712,339381933,NaN,NaN,0.652144958651,0.362742186208,0.287148237869,0.600558863676,NaN,NaN,0.177384397923,-2.18117254707,-0.45208977435,NaN,NaN,0.44174025,9.5219565,0.06871515,NaN,3
1.56926771244859e+18,NaN,19061,NaN,1569267712,381759881,NaN,NaN,0.664443511131,0.343276848849,0.253160999157,0.613665490366,NaN,NaN,0.322246725839,-2.12706734026,-0.342134031474,NaN,NaN,0.3533922,9.8949816,0.79513245,NaN,3
1.56926771248923e+18,NaN,19062,NaN,1569267712,447560071,NaN,NaN,0.674865119554,0.311967769899,0.206939109808,0.635931903418,NaN,NaN,0.0377580577628,-1.93857178104,-0.300246129426,NaN,NaN,0.24541125,9.5023236,1.4528346,NaN,2
1.56926771257409e+18,NaN,19063,NaN,1569267712,487956047,NaN,NaN,0.676873188776,0.296142273384,0.18313321015,0.648540413214,NaN,NaN,-0.0756883436172,-1.69597101501,-0.322935409702,NaN,NaN,-0.36320865,9.5612223,1.10925885,NaN,2
1.56926771259768e+18,NaN,19064,NaN,1569267712,573106050,NaN,NaN,0.68116513746,0.266483986791,0.128974982418,0.669601220282,NaN,NaN,0.0133234482348,-1.58426994289,-0.411947201554,NaN,NaN,-1.2761385,10.02259545,0.6871515,NaN,3
1.56926771263798e+18,NaN,19065,NaN,1569267712,596271991,NaN,NaN,0.682427388581,0.261522675584,0.121858597306,0.671601989077,NaN,NaN,0.194837690443,-1.14270164213,-0.066372009658,NaN,NaN,-2.24796705,9.66920325,0.6871515,NaN,2
1.56926771270148e+18,NaN,19066,NaN,1569267712,636641979,NaN,NaN,0.679582068778,0.261361511055,0.125912799149,0.673798441186,NaN,NaN,-0.148992172201,-0.0972494201817,0.116887561802,NaN,NaN,-2.20870125,9.423792,0.6675186,NaN,2
1.56926771274532e+18,NaN,19067,NaN,1569267712,700345993,NaN,NaN,0.6732455795,0.277498019834,0.159485663131,0.666557995922,NaN,NaN,-0.145501513697,1.01627064259,0.35948832783,NaN,NaN,-2.0614545,9.41397555,0.85403115,NaN,3
1.56926771278694e+18,NaN,19068,NaN,1569267712,743962049,NaN,NaN,0.660426992217,0.28997786173,0.203430082919,0.662091556374,NaN,NaN,-0.665609630793,1.7213836604,0.858652493902,NaN,NaN,-2.0810874,9.59067165,0.99146145,NaN,5
1.5692677128512e+18,NaN,19069,NaN,1569267712,785446882,NaN,NaN,0.648560325443,0.299703813001,0.242919315907,0.656153438377,NaN,NaN,-0.611504423981,1.60270127127,0.86563381091,NaN,NaN,-1.46265105,9.7575513,0.5497212,NaN,5
1.56926771289297e+18,NaN,19070,NaN,1569267712,849761009,NaN,NaN,0.640718521578,0.309513679529,0.290104089809,0.63993802463,NaN,NaN,-0.190880074249,1.26934338413,0.837708542878,NaN,NaN,-1.52154975,9.62993745,0.0196329,NaN,5
1.56926771293526e+18,NaN,19071,NaN,1569267712,891419887,NaN,NaN,0.632295876942,0.320590983456,0.315771245292,0.630644008911,NaN,NaN,-0.190880074249,1.25363542087,0.465953412202,NaN,NaN,-0.5497212,9.61030455,0.22577835,NaN,3
1.56926771299912e+18,NaN,19072,NaN,1569267712,934494018,NaN,NaN,0.630512410151,0.341820601721,0.330102114982,0.613714404726,NaN,NaN,0.561356833363,1.20651153106,0.013913135934,NaN,NaN,0.20614545,9.9931461,0.48100605,NaN,2
1.56926771304248e+18,NaN,19073,NaN,1569267712,998039007,NaN,NaN,0.601053516343,0.373488501932,0.359783959115,0.608108964068,NaN,NaN,-0.424754194017,1.50845349166,-0.322935409702,NaN,NaN,0.3337593,10.39562055,1.54118265,NaN,3
1.56926771308356e+18,NaN,19074,NaN,1569267713,40728092,NaN,NaN,0.57086466022,0.403990207637,0.381229474072,0.604623469561,NaN,NaN,-0.606268436225,1.98143771895,-0.743559759434,NaN,NaN,1.08962595,10.9747911,1.36448655,NaN,3
1.56926771314785e+18,NaN,19075,NaN,1569267713,82899093,NaN,NaN,0.532398577483,0.437023126524,0.396430664609,0.606963977295,NaN,NaN,-0.838397226741,1.97794706045,-1.29682913232,NaN,NaN,1.26632205,10.209108,1.4921004,NaN,5
1.56926771319219e+18,NaN,19076,NaN,1569267713,146898031,NaN,NaN,0.463010023972,0.476342728321,0.42192212169,0.617009761759,NaN,NaN,-1.34977869758,1.89940724411,-1.25668655952,NaN,NaN,0.30430995,8.03967255,0.93256275,NaN,5
1.56926771323277e+18,NaN,19077,NaN,1569267713,190924882,NaN,NaN,0.445613920271,0.475258667983,0.44717409327,0.612856233448,NaN,NaN,-0.939626323357,0.95169346027,0.392649583618,NaN,NaN,0.0785316,9.3452604,2.85658695,NaN,3
1.56926771330345e+18,NaN,19078,NaN,1569267713,231877088,NaN,NaN,0.466787787294,0.484665419213,0.445826948434,0.590293931107,NaN,NaN,1.36246296003,0.335592234314,0.712044836734,NaN,NaN,0.53990475,11.0925885,1.34485365,NaN,5
1.56926771333873e+18,NaN,19079,NaN,1569267713,302350997,NaN,NaN,0.465654970938,0.499592658761,0.427289902045,0.592449122679,NaN,NaN,0.419985163951,0.00397967643427,-0.577753480494,NaN,NaN,0,9.70846905,2.42466315,NaN,3
1.56926771340401e+18,NaN,19080,NaN,1569267713,337838888,NaN,NaN,0.458565114395,0.501218523091,0.429151486134,0.595253752546,NaN,NaN,-0.309562463385,0.223891162186,-0.298500800174,NaN,NaN,-0.16687965,8.8740708,1.2957714,NaN,3
1.56926771346712e+18,NaN,19081,NaN,1569267713,402251005,NaN,NaN,0.445263688653,0.511156287106,0.434638739536,0.59291539347,NaN,NaN,-0.154228159957,0.496162525498,-0.23392361785,NaN,NaN,-0.93256275,9.4630578,1.73751165,NaN,2
1.56926771348813e+18,NaN,19082,NaN,1569267713,465540885,NaN,NaN,0.428831692999,0.518975074218,0.451726198109,0.585415829442,NaN,NaN,-0.374139645709,0.75970724255,0.050565050226,NaN,NaN,-2.09090385,9.0507669,1.03072725,NaN,2
1.56926771355124e+18,NaN,19083,NaN,1569267713,486638069,NaN,NaN,0.424954620484,0.525044063205,0.451666691262,0.582871771685,NaN,NaN,0.144223142135,0.702111377234,-0.296755470922,NaN,NaN,-2.5915428,8.6777418,0.99146145,NaN,3
1.56926771359445e+18,NaN,19084,NaN,1569267713,550364971,NaN,NaN,0.421208150493,0.553428024686,0.437386552508,0.570082554667,NaN,NaN,0.728908441555,0.621826231642,-0.509685639666,NaN,NaN,-3.09218175,9.2667288,0.0785316,NaN,3
1.56926771363627e+18,NaN,19085,NaN,1569267713,593688011,NaN,NaN,0.415852923003,0.567675047626,0.436972615159,0.560237735549,NaN,NaN,0.339700018359,0.77716053507,-0.209489008322,NaN,NaN,-3.2983272,9.2470959,0.28467705,NaN,2
1.56926771370058e+18,NaN,19086,NaN,1569267713,635533094,NaN,NaN,0.411396574893,0.581430835828,0.435834161647,0.550217797655,NaN,NaN,0.362389298635,0.763197901054,-0.204253020566,NaN,NaN,-3.05291595,8.86425435,-0.91292985,NaN,2
1.56926771374905e+18,NaN,19087,NaN,1569267713,699415922,NaN,NaN,0.424229460647,0.602061495984,0.430930986133,0.521392179614,NaN,NaN,0.948819927307,0.682912755462,0.287929828498,NaN,NaN,-3.4161246,9.37470975,-1.06999305,NaN,3
1.56926771378586e+18,NaN,19088,NaN,1569267713,748264074,NaN,NaN,0.415345646315,0.613018513313,0.442295328415,0.506034721027,NaN,NaN,-0.0495084048372,1.0232519596,0.09768894003,NaN,NaN,-2.3755809,9.27654525,-2.0614545,NaN,2
1.56926771384969e+18,NaN,19089,NaN,1569267713,784435033,NaN,NaN,0.418807652701,0.624926735252,0.436909168586,0.493129905818,NaN,NaN,0.838864184431,0.649751499674,-4.94980819757e-05,NaN,NaN,-2.6504415,9.90479805,-1.56081555,NaN,2
1.56926771393402e+18,NaN,19090,NaN,1569267713,848499059,NaN,NaN,0.403355292785,0.625616599153,0.449633001542,0.493698837927,NaN,NaN,-0.505039339609,0.42809468467,-0.134439850486,NaN,NaN,-2.2185177,9.72810195,-1.5313662,NaN,2
1.56926771395685e+18,NaN,19091,NaN,1569267713,933051109,NaN,NaN,0.402757070122,0.631937590398,0.444658870224,0.490632360776,NaN,NaN,0.158185776151,0.120916736318,-0.097787936194,NaN,NaN,-2.7682389,9.5415894,-0.69696795,NaN,2
1.56926771404259e+18,NaN,19092,NaN,1569267713,954437971,NaN,NaN,0.404265621743,0.634518206889,0.44044742518,0.489859181659,NaN,NaN,0.402531871431,0.0982274560423,-0.197271703558,NaN,NaN,-2.48356185,9.4826907,-1.4921004,NaN,2
1.5692677140456e+18,NaN,19093,NaN,1569267714,39274930,NaN,NaN,0.407387393078,0.639336259698,0.431033490603,0.489382048071,NaN,NaN,0.219272299971,-0.0204549330937,-0.106514582454,NaN,NaN,-2.7682389,8.9329695,-1.50191685,NaN,2
1.56926771410424e+18,NaN,19094,NaN,1569267714,44344902,NaN,NaN,0.40845964175,0.638727651592,0.430001305388,0.490190356411,NaN,NaN,0.0831366183148,-0.00823762832973,-0.150147813754,NaN,NaN,-2.36576445,9.5808552,-1.2957714,NaN,2
1.56926771414641e+18,NaN,19095,NaN,1569267714,103365898,NaN,NaN,0.40669719522,0.638021557319,0.427811946039,0.494472266789,NaN,NaN,-0.0687070266092,-0.0536161888817,-0.13793050899,NaN,NaN,-2.6700744,9.37470975,-1.48228395,NaN,2
1.5692677142104e+18,NaN,19096,NaN,1569267714,145502090,NaN,NaN,0.408344627148,0.638610441408,0.422631864969,0.496803458438,NaN,NaN,0.154695117647,-0.107721395694,-0.134439850486,NaN,NaN,-3.17071335,9.25691235,-0.79513245,NaN,2
1.56926771425255e+18,NaN,19097,NaN,1569267714,209532022,NaN,NaN,0.408337998997,0.639720418616,0.417247050332,0.499922757603,NaN,NaN,0.0744099720548,-0.0623428351417,-0.144911825998,NaN,NaN,-3.01365015,9.11948205,-0.99146145,NaN,2
1.56926771431659e+18,NaN,19098,NaN,1569267714,251889944,NaN,NaN,0.407862435071,0.636751786552,0.417985430761,0.503471524571,NaN,NaN,-0.171681452477,-0.0780507984097,-0.02448410761,NaN,NaN,-2.7682389,9.1685643,-0.89329695,NaN,2
1.56926771433814e+18,NaN,19099,NaN,1569267714,315462112,NaN,NaN,0.410066590324,0.636835434675,0.415791576944,0.503391880333,NaN,NaN,0.0674286550468,-0.00649229907773,-0.00179482733398,NaN,NaN,-2.552277,8.74645695,-1.26632205,NaN,3
1.56926771440125e+18,NaN,19100,NaN,1569267714,337366104,NaN,NaN,0.411504841943,0.637098526775,0.413316760209,0.503923097276,NaN,NaN,0.158185776151,-0.0291815793537,-0.097787936194,NaN,NaN,-2.6111757,9.23727945,-1.42338525,NaN,2
1.56926771446573e+18,NaN,19101,NaN,1569267714,400465965,NaN,NaN,0.411032698181,0.634516923458,0.414280989958,0.506765879111,NaN,NaN,-0.110594928657,-0.0326722378577,-0.012266802846,NaN,NaN,-2.64062505,9.72810195,-1.30558785,NaN,2
1.56926771448659e+18,NaN,19102,NaN,1569267714,464225053,NaN,NaN,0.411074373944,0.631476842873,0.414062625709,0.51069266491,NaN,NaN,-0.0983776238932,-0.0832867861657,-0.022738778358,NaN,NaN,-2.9056692,9.2863617,-1.22705625,NaN,2
1.56926771454996e+18,NaN,19103,NaN,1569267714,485810041,NaN,NaN,0.412267883513,0.630675355044,0.412547975926,0.511945266921,NaN,NaN,0.0360127285108,-0.0745601399057,-0.03321075387,NaN,NaN,-3.1019982,9.1881972,-1.03072725,NaN,2
1.56926771459453e+18,NaN,19104,NaN,1569267714,549221038,NaN,NaN,0.412962561804,0.629913906563,0.410268366692,0.514150036622,NaN,NaN,0.00808746047879,-0.0501255303777,-0.047173387886,NaN,NaN,-3.09218175,9.2667288,-1.05036015,NaN,2
1.56926771463531e+18,NaN,19105,NaN,1569267714,592389106,NaN,NaN,0.413652803126,0.628870058084,0.409635432602,0.515376193541,NaN,NaN,-0.0250737953092,-0.0187096038417,-0.00528548583798,NaN,NaN,-3.09218175,9.1096656,-1.0798095,NaN,2
1.56926771469856e+18,NaN,19106,NaN,1569267714,634298086,NaN,NaN,0.413365003469,0.627567395892,0.408953155867,0.517731449525,NaN,NaN,-0.0774336728692,-0.0448895426217,-0.054154704894,NaN,NaN,-2.944935,8.8151721,-1.10925885,NaN,2
1.56926771474249e+18,NaN,19107,NaN,1569267714,697917938,NaN,NaN,0.411516276018,0.623241630051,0.412653620346,0.521479831594,NaN,NaN,-0.222296000785,-0.0291815793537,0.02787576995,NaN,NaN,-3.1216311,9.1489314,-1.1583411,NaN,2
1.56926771478486e+18,NaN,19108,NaN,1569267714,740751981,NaN,NaN,0.412682018862,0.621284068342,0.412623626358,0.522916246356,NaN,NaN,-0.0442724170812,-0.0431442133697,0.038347745462,NaN,NaN,-3.1608969,9.2470959,-0.5300883,NaN,2
1.56926771484762e+18,NaN,19109,NaN,1569267714,783606052,NaN,NaN,0.412813088422,0.618468803703,0.414857443962,0.524380581318,NaN,NaN,-0.164700135469,-0.00474696982573,0.090707623022,NaN,NaN,-3.3179601,8.5010457,-0.9423792,NaN,3
1.56926771489062e+18,NaN,19110,NaN,1569267714,846884965,NaN,NaN,0.413193718905,0.612649913263,0.42180241307,0.52537011598,NaN,NaN,-0.224041330037,0.0161969811983,0.181464744126,NaN,NaN,-2.7289731,8.68755825,-0.3337593,NaN,3
1.56926771493234e+18,NaN,19111,NaN,1569267714,889527082,NaN,NaN,0.416802400162,0.609303190422,0.428289421814,0.521146383008,NaN,NaN,-0.105358940901,0.159313979862,0.413593534642,NaN,NaN,-2.83695405,7.7942613,-0.99146145,NaN,3
1.56926771503888e+18,NaN,19112,NaN,1569267714,931603908,NaN,NaN,0.430123755616,0.599501469634,0.438512047178,0.513126424229,NaN,NaN,-0.0442724170812,-0.0187096038417,0.975589553786,NaN,NaN,-1.77677745,9.86553225,-1.766961,NaN,5
1.5692677150405e+18,NaN,19113,NaN,1569267715,37868976,NaN,NaN,0.463549421235,0.572609442219,0.466404087957,0.48959941533,NaN,NaN,-0.0285644538132,-0.0169642745897,1.05762002863,NaN,NaN,-1.8258597,11.6030439,-1.42338525,NaN,5
1.56926771510253e+18,NaN,19114,NaN,1569267715,39657115,NaN,NaN,0.464343500925,0.571434962906,0.466279653872,0.490337109245,NaN,NaN,-0.669100289297,-0.0309269086057,0.51656796051,NaN,NaN,-1.32522075,11.4852465,-0.8245818,NaN,5
1.56926771516639e+18,NaN,19115,NaN,1569267715,101670980,NaN,NaN,0.467716479095,0.560802925232,0.475013874832,0.491022599227,NaN,NaN,-0.265929232085,-0.0536161888817,0.361233657082,NaN,NaN,-1.77677745,8.6188431,0.3730251,NaN,3
1.5692677151883e+18,NaN,19116,NaN,1569267715,165570974,NaN,NaN,0.479979163671,0.552767264965,0.480381789877,0.483013135619,NaN,NaN,0.0936085938268,-0.0448895426217,0.532275923778,NaN,NaN,-0.89329695,11.1711201,-0.14724675,NaN,5
1.56926771527275e+18,NaN,19117,NaN,1569267715,186904907,NaN,NaN,0.478532384842,0.552568368386,0.480002106525,0.485049412584,NaN,NaN,-0.129793550429,0.0563395539943,-0.167601106274,NaN,NaN,-1.1387082,10.27782315,-0.14724675,NaN,3
1.56926771529403e+18,NaN,19118,NaN,1569267715,271640062,NaN,NaN,0.484838820593,0.558719986,0.472024018451,0.479537924773,NaN,NaN,0.317010738083,0.0127063226943,-0.00877614434198,NaN,NaN,-1.46265105,8.9918682,0,NaN,2
1.56926771536022e+18,NaN,19119,NaN,1569267715,293037891,NaN,NaN,0.485115951321,0.558386000684,0.4716343843,0.480029786117,NaN,NaN,-0.0180924783012,0.0511035662383,-0.00528548583798,NaN,NaN,-1.14852465,10.16002575,-1.0601766,NaN,2
1.56926771540027e+18,NaN,19120,NaN,1569267715,359245061,NaN,NaN,0.479309893132,0.556584177779,0.472160122566,0.48738167595,NaN,NaN,-0.220550671533,-0.0204549330937,-0.165855777022,NaN,NaN,-1.30558785,9.94406385,-0.18651255,NaN,2
1.56926771546363e+18,NaN,19121,NaN,1569267715,399211883,NaN,NaN,0.478133102849,0.556333890464,0.47112150506,0.489822279761,NaN,NaN,-0.0442724170812,-0.00474696982573,-0.099533265446,NaN,NaN,-1.4724675,9.423792,0.2552277,NaN,2
1.56926771550733e+18,NaN,19122,NaN,1569267715,462905883,NaN,NaN,0.484401118198,0.55883669346,0.464563984032,0.487070232586,NaN,NaN,0.297812116311,-0.0640881643937,0.017403794438,NaN,NaN,-1.46265105,9.6004881,-0.1570632,NaN,2
1.56926771554906e+18,NaN,19123,NaN,1569267715,505609989,NaN,NaN,0.487336955483,0.561618192851,0.460359029879,0.484930160835,NaN,NaN,0.297812116311,0.0196876397023,-0.031465424618,NaN,NaN,-1.374303,9.84589935,-0.32394285,NaN,2
1.56926771561336e+18,NaN,19124,NaN,1569267715,547885894,NaN,NaN,0.488278974558,0.562821895941,0.458144422165,0.484684273411,NaN,NaN,0.114552544851,0.0214329689543,-0.043682729382,NaN,NaN,-1.40375235,9.66920325,-0.75586665,NaN,2
1.5692677156339e+18,NaN,19125,NaN,1569267715,611994981,NaN,NaN,0.486040877944,0.562209018738,0.457709418249,0.488044437181,NaN,NaN,-0.0844149898772,-0.00474696982573,-0.082079972926,NaN,NaN,-1.42338525,9.66920325,-0.67733505,NaN,2
1.56926771571923e+18,NaN,19126,NaN,1569267715,633239984,NaN,NaN,0.484567779334,0.561190328543,0.45740410954,0.490959227389,NaN,NaN,-0.220550671533,-0.0361628963617,-0.153638472258,NaN,NaN,-1.69824585,9.9342474,-0.5693541,NaN,2
1.56926771573993e+18,NaN,19127,NaN,1569267715,718180894,NaN,NaN,0.477534063084,0.5619878302,0.452925306532,0.5009885867,NaN,NaN,-0.121066904169,-0.0693241521497,-0.24265026411,NaN,NaN,-3.2197956,9.90479805,0.00981645,NaN,2
1.56926771578333e+18,NaN,19128,NaN,1569267715,739248991,NaN,NaN,0.475608380354,0.563963243474,0.448997785031,0.504126092941,NaN,NaN,0.0726646428028,-0.0448895426217,-0.418928518562,NaN,NaN,-3.66153585,9.64957035,-0.2748606,NaN,3
1.56926771585296e+18,NaN,19129,NaN,1569267715,782399892,NaN,NaN,0.470115616086,0.566898524715,0.443714917292,0.510621623476,NaN,NaN,-0.0704523558612,-0.0431442133697,-0.424164506318,NaN,NaN,-3.72043455,9.66920325,-0.3730251,NaN,3
1.56926771588908e+18,NaN,19130,NaN,1569267715,852299928,NaN,NaN,0.457377599446,0.57206568735,0.433348261842,0.525124618392,NaN,NaN,-0.161209476965,-0.10423073719,-0.589970785258,NaN,NaN,-3.9462129,9.9342474,-1.3154043,NaN,3
1.56926771593117e+18,NaN,19131,NaN,1569267715,888241052,NaN,NaN,0.450773204562,0.574042239058,0.424829237427,0.535536315158,NaN,NaN,-0.159464147713,-0.268291686878,-0.734833113174,NaN,NaN,-3.5142891,9.84589935,-0.9031134,NaN,3
1.56926771599639e+18,NaN,19132,NaN,1569267715,930464982,NaN,NaN,0.457941721621,0.578587924263,0.406958519212,0.538433057248,NaN,NaN,0.692256527263,-0.437588624322,-0.404965884546,NaN,NaN,-2.79768825,8.8151721,-0.5300883,NaN,3
1.56926771603755e+18,NaN,19133,NaN,1569267715,994529008,NaN,NaN,0.472566189058,0.590908508156,0.377227920776,0.53404815114,NaN,NaN,1.00641579262,-0.294471625658,-0.354351336238,NaN,NaN,-2.7878718,8.6188431,-0.6478857,NaN,3
1.5692677161246e+18,NaN,19134,NaN,1569267716,36698102,NaN,NaN,0.477570437106,0.59604132028,0.368899402335,0.529692791228,NaN,NaN,0.557866174859,0.0196876397023,-0.134439850486,NaN,NaN,-1.9240242,9.3648933,-0.79513245,NaN,2
1.5692677161649e+18,NaN,19135,NaN,1569267716,121736049,NaN,NaN,0.48218280894,0.599585728384,0.380751793865,0.512859400372,NaN,NaN,0.111061886347,0.396678758134,0.29840180401,NaN,NaN,-1.12889175,9.3452604,-1.22705625,NaN,3
1.56926771620772e+18,NaN,19136,NaN,1569267716,164210081,NaN,NaN,0.484475238775,0.602521916659,0.384280511768,0.50455878868,NaN,NaN,0.205309665955,0.391442770378,0.18495540263,NaN,NaN,-0.77549955,9.3845262,-1.0405437,NaN,2
1.56926771627816e+18,NaN,19137,NaN,1569267716,206862926,NaN,NaN,0.493474272054,0.603363298687,0.384324250465,0.49470268154,NaN,NaN,0.458382407495,0.18374858939,0.354252340074,NaN,NaN,-0.12761385,8.86425435,-1.20742335,NaN,3
1.56926771631403e+18,NaN,19138,NaN,1569267716,277291059,NaN,NaN,0.515252323268,0.607931269007,0.383521834782,0.466739346719,NaN,NaN,0.772541672855,0.325120258802,0.572418496574,NaN,NaN,-0.14724675,9.11948205,-1.4135688,NaN,3
1.56926771633637e+18,NaN,19139,NaN,1569267716,312944889,NaN,NaN,0.523478464115,0.611350279116,0.381940442455,0.454249526416,NaN,NaN,0.732399100059,0.356536185338,0.362978986334,NaN,NaN,-0.6478857,9.96369675,-1.61971425,NaN,3
1.5692677163992e+18,NaN,19140,NaN,1569267716,334214925,NaN,NaN,0.530137079365,0.612135737407,0.378958642227,0.447922832142,NaN,NaN,0.817920233407,0.106954102302,0.364724315586,NaN,NaN,-0.50063895,9.7968171,-2.36576445,NaN,3
1.56926771644123e+18,NaN,19141,NaN,1569267716,398056030,NaN,NaN,0.563701859092,0.618134155327,0.359893109473,0.413070611188,NaN,NaN,1.50208930019,0.0737928465143,0.684119568702,NaN,NaN,-1.4921004,9.82626645,-3.03328305,NaN,5
1.56926771648463e+18,NaN,19142,NaN,1569267716,440459966,NaN,NaN,0.585744632301,0.626503522046,0.338398239169,0.387147509771,NaN,NaN,1.91747766217,0.0231782982063,0.42057485165,NaN,NaN,-1.0209108,9.620121,-3.52410555,NaN,3
1.56926771654751e+18,NaN,19143,NaN,1569267716,483047962,NaN,NaN,0.610508273194,0.635511047792,0.310361364697,0.356484473434,NaN,NaN,2.26828884182,-0.0344175671097,0.471189399958,NaN,NaN,-2.4541125,7.90224225,-4.87877565,NaN,3
1.56926771661886e+18,NaN,19144,NaN,1569267716,546850919,NaN,NaN,0.64478316257,0.645180624514,0.268429884448,0.30974510836,NaN,NaN,2.21941962276,-0.0536161888817,0.488642692478,NaN,NaN,-2.18906835,7.09729335,-5.60519295,NaN,3
1.56926771665441e+18,NaN,19145,NaN,1569267716,617458105,NaN,NaN,0.672711263256,0.654235554789,0.21895431557,0.267384372826,NaN,NaN,2.01172544177,-0.221167797074,0.233824621686,NaN,NaN,-2.64062505,7.1856414,-6.64573665,NaN,3
1.56926771671816e+18,NaN,19146,NaN,1569267716,653276920,NaN,NaN,0.680613053716,0.655130237848,0.203817457883,0.256960476399,NaN,NaN,1.08844626747,-0.170553248766,0.172738097866,NaN,NaN,-3.75970035,6.44940765,-7.1463756,NaN,3
1.56926771675374e+18,NaN,19147,NaN,1569267716,716898918,NaN,NaN,0.683964229724,0.651301292006,0.204022459558,0.257632287352,NaN,NaN,-0.00587517353721,-0.0222002623457,0.144812829834,NaN,NaN,-2.38539735,6.6359202,-7.2052743,NaN,3
1.56926771680292e+18,NaN,19148,NaN,1569267716,753010034,NaN,NaN,0.685928056521,0.649497900217,0.20363529386,0.257269986562,NaN,NaN,0.0534660210308,0.0109609934423,0.12386887881,NaN,NaN,-1.87494195,6.4592241,-7.03839465,NaN,3
1.56926771684542e+18,NaN,19149,NaN,1569267716,801808118,NaN,NaN,0.685138708137,0.64791607466,0.204549018884,0.262582196052,NaN,NaN,-0.182153427989,-0.0902681031737,-0.02448410761,NaN,NaN,-1.46265105,6.4003254,-6.88133145,NaN,3
1.56926771688745e+18,NaN,19150,NaN,1569267716,844388961,NaN,NaN,0.684917640098,0.647397662913,0.202370616047,0.266101909236,NaN,NaN,-0.0390364293252,-0.146118639238,-0.064626680406,NaN,NaN,-1.42338525,6.60647085,-7.0285782,NaN,3
1.56926771697276e+18,NaN,19151,NaN,1569267716,886693954,NaN,NaN,0.684949659105,0.647249296895,0.199093814458,0.268838176614,NaN,NaN,0.0272860822508,-0.161826602506,-0.078589314422,NaN,NaN,-1.26632205,6.72426825,-7.09729335,NaN,3
1.5692677170005e+18,NaN,19152,NaN,1569267716,972007989,NaN,NaN,0.681889995382,0.647269792321,0.202272765966,0.27414152968,NaN,NaN,-0.143756184445,-0.00125631132173,-0.061136021902,NaN,NaN,-1.1583411,6.8911479,-7.0089453,NaN,3
1.56926771707928e+18,NaN,19153,NaN,1569267716,999650001,NaN,NaN,0.681373506913,0.646508128583,0.203057224811,0.276631789939,NaN,NaN,-0.154228159957,-0.0448895426217,-0.034956083122,NaN,NaN,-1.18779045,7.0482111,-7.11692625,NaN,3
1.56926771710063e+18,NaN,19154,NaN,1569267717,78069925,NaN,NaN,0.684260251288,0.643955515927,0.197117405725,0.279739039777,NaN,NaN,0.0587020087868,-0.175789236522,0.026130440698,NaN,NaN,-1.22705625,6.99912885,-7.33288815,NaN,3
1.56926771716463e+18,NaN,19155,NaN,1569267717,99361896,NaN,NaN,0.68534356274,0.643176566288,0.195532503869,0.27999133115,NaN,NaN,0.112807215599,-0.11295738345,0.050565050226,NaN,NaN,-1.44301815,6.94023015,-7.58811585,NaN,3
1.56926771720645e+18,NaN,19156,NaN,1569267717,163229942,NaN,NaN,0.686763177718,0.641712064089,0.197046131063,0.278809588729,NaN,NaN,0.00459680197479,0.0511035662383,0.073254330502,NaN,NaN,-1.34485365,6.56720505,-7.17582495,NaN,3
1.56926771724898e+18,NaN,19157,NaN,1569267717,205581903,NaN,NaN,0.686248746705,0.641694130141,0.198435514413,0.279131953756,NaN,NaN,-0.0460177463332,0.0668115295063,-0.010521473594,NaN,NaN,-1.3939359,6.6359202,-6.9696795,NaN,3
1.56926771729142e+18,NaN,19158,NaN,1569267717,248008966,NaN,NaN,0.687319381605,0.641479020904,0.195895081155,0.278786388818,NaN,NaN,0.116297874103,-0.0571068473857,-4.94980819757e-05,NaN,NaN,-1.50191685,6.80279985,-7.03839465,NaN,3
1.56926771733471e+18,NaN,19159,NaN,1569267717,290513992,NaN,NaN,0.689409614609,0.641028827973,0.192376279813,0.277106102345,NaN,NaN,0.200073678199,-0.0623428351417,0.038347745462,NaN,NaN,-1.5117333,6.8518821,-7.19545785,NaN,3
1.56926771739757e+18,NaN,19160,NaN,1569267717,333776950,NaN,NaN,0.690402675876,0.640622534324,0.190589636965,0.276807702098,NaN,NaN,0.0883726060708,-0.0379082256137,0.012167806682,NaN,NaN,-1.46265105,6.92059725,-7.25435655,NaN,3
1.56926771744691e+18,NaN,19161,NaN,1569267717,396851062,NaN,NaN,0.692977954706,0.639782273799,0.188517037446,0.273717962539,NaN,NaN,0.137241825127,0.0109609934423,0.064527684242,NaN,NaN,-1.38411945,6.50830635,-7.067844,NaN,3
1.56926771748255e+18,NaN,19162,NaN,1569267717,446003913,NaN,NaN,0.694015941806,0.64035333606,0.186173561169,0.271346425511,NaN,NaN,0.158185776151,0.0161969811983,-0.00528548583798,NaN,NaN,-1.4332017,6.4984899,-7.0482111,NaN,3
1.5692677175482e+18,NaN,19163,NaN,1569267717,481760978,NaN,NaN,0.693335722094,0.641062267009,0.185535405163,0.27184804527,NaN,NaN,0.0237954237468,0.00397967643427,-0.078589314422,NaN,NaN,-1.4528346,6.80279985,-7.19545785,NaN,3
1.56926771758934e+18,NaN,19164,NaN,1569267717,545542955,NaN,NaN,0.693449906055,0.641736423643,0.183690718173,0.271218197064,NaN,NaN,0.0691739842988,-0.00649229907773,-0.031465424618,NaN,NaN,-1.44301815,6.80279985,-7.2052743,NaN,3
1.5692677176312e+18,NaN,19165,NaN,1569267717,588269948,NaN,NaN,0.694093158238,0.641472448734,0.183528972658,0.270305200462,NaN,NaN,0.0587020087868,0.0388862614743,0.024385111446,NaN,NaN,-1.52154975,6.70463535,-7.23472365,NaN,3
1.56926771769513e+18,NaN,19166,NaN,1569267717,630474090,NaN,NaN,0.694877101207,0.641742053323,0.182137612515,0.268586748225,NaN,NaN,0.126769849615,0.0301596152143,0.00344116042202,NaN,NaN,-1.5509991,6.4592241,-7.21509075,NaN,3
1.5692677177376e+18,NaN,19167,NaN,1569267717,694147109,NaN,NaN,0.694502605107,0.643302442709,0.181714571651,0.266097563224,NaN,NaN,0.0779006305588,0.0737928465143,-0.036701412374,NaN,NaN,-1.48228395,6.21381285,-7.1071098,NaN,3
1.5692677178018e+18,NaN,19168,NaN,1569267717,736690044,NaN,NaN,0.693053165746,0.645087493337,0.181449530112,0.265735777439,NaN,NaN,0.0342673992588,0.0650662002543,-0.115241228714,NaN,NaN,-1.46265105,6.37087605,-7.067844,NaN,3
1.56926771784377e+18,NaN,19169,NaN,1569267717,800621986,NaN,NaN,0.690408739811,0.647872527597,0.182424157367,0.265176142943,NaN,NaN,-0.000639185781214,0.0877554805303,-0.11175057021,NaN,NaN,-1.374303,6.46904055,-7.03839465,NaN,3
1.56926771788687e+18,NaN,19170,NaN,1569267717,843049049,NaN,NaN,0.688488781497,0.650614307754,0.181327191783,0.264205733887,NaN,NaN,0.0848819475668,0.0720475172623,-0.167601106274,NaN,NaN,-1.4724675,6.62610375,-7.21509075,NaN,3
1.56926771794996e+18,NaN,19171,NaN,1569267717,885533094,NaN,NaN,0.68748724741,0.653258897358,0.177253382285,0.263050063941,NaN,NaN,0.193092361191,-0.0274362501017,-0.171091764778,NaN,NaN,-1.63934715,6.9107808,-7.5979323,NaN,3
1.569267717995e+18,NaN,19172,NaN,1569267717,949095964,NaN,NaN,0.686320471755,0.655613719449,0.173965804849,0.262432390652,NaN,NaN,0.0953539230788,-0.0169642745897,-0.110005240958,NaN,NaN,-1.4135688,6.50830635,-7.50958425,NaN,3
1.56926771803541e+18,NaN,19173,NaN,1569267717,994285106,NaN,NaN,0.684731705822,0.657907653393,0.173886051672,0.260890114191,NaN,NaN,0.0604473380388,0.103463443798,-0.12047721647,NaN,NaN,-1.42338525,6.282528,-7.50958425,NaN,3
1.5692677180992e+18,NaN,19174,NaN,1569267718,34343004,NaN,NaN,0.682505174799,0.660912851021,0.173691478534,0.25925308101,NaN,NaN,0.0726646428028,0.13138871183,-0.18156374029,NaN,NaN,-1.4528346,6.21381285,-7.4997678,NaN,3
1.56926771814808e+18,NaN,19175,NaN,1569267718,97929000,NaN,NaN,0.678664370324,0.666021631287,0.173747570844,0.256206246483,NaN,NaN,0.0691739842988,0.147096675098,-0.185054398794,NaN,NaN,-1.58044845,6.1843635,-7.50958425,NaN,3
1.56926771818373e+18,NaN,19176,NaN,1569267718,147190093,NaN,NaN,0.676155797326,0.670089250628,0.171237645559,0.25391219482,NaN,NaN,0.142477812883,0.0790288342703,-0.205998349818,NaN,NaN,-1.65898005,6.11564835,-7.68628035,NaN,3
1.56926771824771e+18,NaN,19177,NaN,1569267718,183008909,NaN,NaN,0.675014631613,0.672260900088,0.169595710561,0.252305022304,NaN,NaN,0.133751166623,0.0755381757663,-0.15538380151,NaN,NaN,-1.6491636,5.88987,-7.7549955,NaN,3
1.56926771829093e+18,NaN,19178,NaN,1569267718,246520042,NaN,NaN,0.672417100696,0.677326981006,0.168114378178,0.246619057137,NaN,NaN,0.161676434655,0.16629529687,-0.158874460014,NaN,NaN,-1.73751165,5.78188905,-7.86297645,NaN,3
1.56926771833893e+18,NaN,19179,NaN,1569267718,289798974,NaN,NaN,0.670222640834,0.680410303943,0.168059583721,0.24412989641,NaN,NaN,0.0813912890628,0.161059309114,-0.171091764778,NaN,NaN,-1.56081555,5.58556005,-7.72554615,NaN,3
1.56926771839815e+18,NaN,19180,NaN,1569267718,338208913,NaN,NaN,0.667541733418,0.683709476746,0.168199269269,0.242153652398,NaN,NaN,0.0499753625268,0.14011535809,-0.178073081786,NaN,NaN,-1.44301815,5.56592715,-7.70591325,NaN,3
1.56926771843885e+18,NaN,19181,NaN,1569267718,396482944,NaN,NaN,0.664581075482,0.687177876275,0.168367440627,0.240355914024,NaN,NaN,0.0360127285108,0.115680748562,-0.160619789266,NaN,NaN,-1.42338525,5.693541,-7.86297645,NaN,3
1.56926771848185e+18,NaN,19182,NaN,1569267718,438060998,NaN,NaN,0.663701054707,0.688787662762,0.167174843098,0.239008446384,NaN,NaN,0.0901179353228,0.0650662002543,-0.116986557966,NaN,NaN,-1.44301815,5.80152195,-8.0691219,NaN,3
1.56926771854544e+18,NaN,19183,NaN,1569267718,480675935,NaN,NaN,0.663264824258,0.689507364206,0.166858240279,0.238364626694,NaN,NaN,0.0325220700068,0.0545942247423,-0.071607997414,NaN,NaN,-1.3546701,5.6739081,-8.11820415,NaN,3
1.56926771859617e+18,NaN,19184,NaN,1569267718,544568061,NaN,NaN,0.662872062894,0.690428642417,0.167611816031,0.23625240124,NaN,NaN,0.0290314115028,0.0912461390343,-0.034956083122,NaN,NaN,-1.30558785,5.5168449,-8.09857125,NaN,3
1.56926771865148e+18,NaN,19185,NaN,1569267718,594211101,NaN,NaN,0.662757145655,0.691074414937,0.16797678898,0.234420385774,NaN,NaN,0.0412487162668,0.0964821267903,-0.036701412374,NaN,NaN,-1.3154043,5.46776265,-8.07893835,NaN,3
1.56926771869591e+18,NaN,19186,NaN,1569267718,650533914,NaN,NaN,0.662231180948,0.691889196163,0.169329007544,0.232522881491,NaN,NaN,0.0133234482348,0.115680748562,-0.036701412374,NaN,NaN,-1.4135688,5.58556005,-8.07893835,NaN,3
1.56926771873667e+18,NaN,19187,NaN,1569267718,694886922,NaN,NaN,0.66234109173,0.692198199503,0.16995659244,0.230826097955,NaN,NaN,0.0360127285108,0.112190090058,-0.020993449106,NaN,NaN,-1.4921004,5.5168449,-8.0298561,NaN,3
1.56926771879999e+18,NaN,19188,NaN,1569267718,735654115,NaN,NaN,0.662155638551,0.692426800371,0.170691030002,0.23012954773,NaN,NaN,-0.000639185781214,0.0947367975383,-0.038446741626,NaN,NaN,-1.50191685,5.50702845,-7.9905903,NaN,3
1.56926771884257e+18,NaN,19189,NaN,1569267718,799253940,NaN,NaN,0.662740735949,0.692390082251,0.169844996632,0.229179772304,NaN,NaN,0.0447393747708,0.0266689567103,-0.012266802846,NaN,NaN,-1.46265105,5.50702845,-7.90224225,NaN,3
1.56926771888527e+18,NaN,19190,NaN,1569267718,841511011,NaN,NaN,0.663687897421,0.692052459686,0.168244067481,0.228638801643,NaN,NaN,0.0796459598108,-0.00649229907773,-0.00703081508998,NaN,NaN,-1.38411945,5.38923105,-7.88260935,NaN,3
1.56926771894904e+18,NaN,19191,NaN,1569267718,884378910,NaN,NaN,0.664046325889,0.69164725354,0.168011693093,0.228994813756,NaN,NaN,0.00110614347079,0.0109609934423,-0.01575746135,NaN,NaN,-1.42338525,5.50702845,-7.9513245,NaN,3
1.56926771899441e+18,NaN,19192,NaN,1569267718,948044061,NaN,NaN,0.664506891313,0.691258499705,0.165794711102,0.230443901531,NaN,NaN,0.0237954237468,-0.0588521766377,-0.029720095366,NaN,NaN,-1.42338525,5.68372455,-8.00040675,NaN,3
1.56926771903423e+18,NaN,19193,NaN,1569267718,992821931,NaN,NaN,0.665503501445,0.690114999462,0.16506641611,0.231515561798,NaN,NaN,-0.000639185781214,-0.0413988841177,0.015658465186,NaN,NaN,-1.40375235,5.7524397,-8.05930545,NaN,3
1.56926771909826e+18,NaN,19194,NaN,1569267719,32697916,NaN,NaN,0.666315732449,0.689133230502,0.1650982438,0.232080385219,NaN,NaN,-0.0128564905452,-0.00125631132173,0.020894452942,NaN,NaN,-1.4135688,5.70335745,-8.11820415,NaN,3
1.56926771913992e+18,NaN,19195,NaN,1569267719,96982955,NaN,NaN,0.667390141721,0.68789766765,0.165786214092,0.232168319959,NaN,NaN,-0.0128564905452,0.0196876397023,0.031366428454,NaN,NaN,-1.3939359,5.6346423,-8.1476535,NaN,3
1.56926771918268e+18,NaN,19196,NaN,1569267719,139189004,NaN,NaN,0.667986777649,0.68714436291,0.166151097089,0.232422250103,NaN,NaN,-0.0180924783012,0.0249236274583,0.012167806682,NaN,NaN,-1.42338525,5.497212,-8.09857125,NaN,3
1.56926771924689e+18,NaN,19197,NaN,1569267719,181799888,NaN,NaN,0.668850554461,0.686326612078,0.166043961204,0.232430893596,NaN,NaN,0.00808746047879,0.0161969811983,0.01914912369,NaN,NaN,-1.44301815,5.48739555,-8.0298561,NaN,3
1.5692677192887e+18,NaN,19198,NaN,1569267719,245853900,NaN,NaN,0.66927341322,0.686173292028,0.164613802129,0.232683492779,NaN,NaN,0.0290314115028,-0.0152189453377,-0.020993449106,NaN,NaN,-1.4724675,5.497212,-8.05930545,NaN,3
1.56926771933865e+18,NaN,19199,NaN,1569267719,288018941,NaN,NaN,0.669534820176,0.685762705166,0.164100556066,0.233502985579,NaN,NaN,-0.00587517353721,-0.0152189453377,-0.022738778358,NaN,NaN,-1.4724675,5.60519295,-8.0887548,NaN,3
1.56926771939595e+18,NaN,19200,NaN,1569267719,337503910,NaN,NaN,0.669340175587,0.685660260884,0.164492651929,0.234085248256,NaN,NaN,-0.0250737953092,0.0231782982063,-0.029720095366,NaN,NaN,-1.44301815,5.6150094,-8.0102232,NaN,3
1.56926771943759e+18,NaN,19201,NaN,1569267719,394658088,NaN,NaN,0.668470133527,0.685952285688,0.165225032552,0.235197429746,NaN,NaN,-0.0442724170812,0.0214329689543,-0.05066404639,NaN,NaN,-1.44301815,5.76225615,-8.05930545,NaN,3
1.56926771948005e+18,NaN,19202,NaN,1569267719,436773061,NaN,NaN,0.668356314118,0.685624332519,0.165857803356,0.236030297002,NaN,NaN,-0.0442724170812,0.0231782982063,-0.02448410761,NaN,NaN,-1.44301815,5.76225615,-8.00040675,NaN,3
1.56926771954409e+18,NaN,19203,NaN,1569267719,479104995,NaN,NaN,0.667914468076,0.685500217664,0.166865562117,0.236929523481,NaN,NaN,-0.0599803803492,0.0388862614743,-0.036701412374,NaN,NaN,-1.50191685,5.7720726,-7.94150805,NaN,3
1.5692677196082e+18,NaN,19204,NaN,1569267719,542973995,NaN,NaN,0.667683672227,0.68499368585,0.167212146453,0.23879334636,NaN,NaN,-0.0460177463332,-0.0134736160857,-0.020993449106,NaN,NaN,-1.48228395,5.7328068,-7.82371065,NaN,3
1.56926771965024e+18,NaN,19205,NaN,1569267719,606861114,NaN,NaN,0.66767672816,0.684593501305,0.167646303845,0.239654420888,NaN,NaN,-0.0250737953092,0.00921566419027,-0.012266802846,NaN,NaN,-1.4921004,5.7917055,-7.9120587,NaN,3
1.56926771969905e+18,NaN,19206,NaN,1569267719,649385929,NaN,NaN,0.667357414,0.684437005813,0.167623407296,0.241003029812,NaN,NaN,-0.0407817585772,-0.0134736160857,-0.045428058634,NaN,NaN,-1.4135688,5.7720726,-7.92187515,NaN,3
1.56926771973499e+18,NaN,19207,NaN,1569267719,698343038,NaN,NaN,0.667727948615,0.684162652422,0.166833652248,0.241303510432,NaN,NaN,0.0203047652428,-0.00998295758173,-0.017502790602,NaN,NaN,-1.38411945,5.74262325,-7.9120587,NaN,3
1.56926771979905e+18,NaN,19208,NaN,1569267719,734266042,NaN,NaN,0.667465356047,0.683962267078,0.166928616863,0.242529281867,NaN,NaN,-0.0477630755852,-0.00998295758173,-0.047173387886,NaN,NaN,-1.38411945,5.80152195,-7.9316916,NaN,3
1.56926771984141e+18,NaN,19209,NaN,1569267719,798386096,NaN,NaN,0.667420752659,0.683497396889,0.16788972129,0.243297942555,NaN,NaN,-0.0355457708212,0.0196876397023,-0.00703081508998,NaN,NaN,-1.4135688,5.7917055,-7.88260935,NaN,3
1.56926771988396e+18,NaN,19210,NaN,1569267719,840596914,NaN,NaN,0.667411221156,0.683076075808,0.168703179446,0.243943792254,NaN,NaN,-0.0442724170812,0.0301596152143,-0.010521473594,NaN,NaN,-1.4528346,5.80152195,-7.84334355,NaN,3
1.56926771994787e+18,NaN,19211,NaN,1569267719,883121967,NaN,NaN,0.667268345885,0.682493386692,0.169993738416,0.245067053275,NaN,NaN,-0.0756883436172,0.0301596152143,-0.00877614434198,NaN,NaN,-1.4724675,5.88005355,-7.78444485,NaN,3
1.56926771999031e+18,NaN,19212,NaN,1569267719,946988105,NaN,NaN,0.666764240007,0.681975481934,0.172245650453,0.246305351523,NaN,NaN,-0.0756883436172,0.0406315907263,-0.00703081508998,NaN,NaN,-1.50191685,5.86042065,-7.6764639,NaN,3
1.56926772003265e+18,NaN,19213,NaN,1569267719,989298105,NaN,NaN,0.667372824892,0.680996204114,0.172123104854,0.247449629933,NaN,NaN,-0.0250737953092,-0.0274362501017,0.015658465186,NaN,NaN,-1.48228395,5.8702371,-7.656831,NaN,3
1.56926772009637e+18,NaN,19214,NaN,1569267720,31672000,NaN,NaN,0.667727670317,0.68002910549,0.17227143017,0.249043627356,NaN,NaN,-0.0512537340892,-0.0309269086057,0.00518648967402,NaN,NaN,-1.48228395,5.9487687,-7.7353626,NaN,3
1.56926772014548e+18,NaN,19215,NaN,1569267720,95489978,NaN,NaN,0.668324575407,0.678669498928,0.171715250588,0.251523052317,NaN,NaN,-0.0372911000732,-0.0605975058897,0.00867714817802,NaN,NaN,-1.48228395,5.99785095,-7.72554615,NaN,3
1.56926772018148e+18,NaN,19216,NaN,1569267720,144670963,NaN,NaN,0.669348618477,0.677162734696,0.171528323431,0.252984370947,NaN,NaN,-0.0285644538132,-0.0448895426217,0.03660241621,NaN,NaN,-1.4528346,5.9684016,-7.7157297,NaN,3
1.56926772024563e+18,NaN,19217,NaN,1569267720,180444002,NaN,NaN,0.670217849892,0.675857886363,0.171048980069,0.254492431213,NaN,NaN,-0.0320551123172,-0.0693241521497,0.034857086958,NaN,NaN,-1.5313662,5.88987,-7.6960968,NaN,3
1.56926772028787e+18,NaN,19218,NaN,1569267720,244791984,NaN,NaN,0.671908364499,0.673772343456,0.169785227568,0.256403891174,NaN,NaN,-0.00762050278921,-0.0745601399057,0.04532906247,NaN,NaN,-1.570632,5.9684016,-7.80407775,NaN,3
1.56926772033042e+18,NaN,19219,NaN,1569267720,286618947,NaN,NaN,0.673122096647,0.672079015389,0.169407398192,0.2579100105,NaN,NaN,-0.0320551123172,-0.0658334936457,0.059291696486,NaN,NaN,-1.61971425,5.9095029,-7.86297645,NaN,3
1.56926772039822e+18,NaN,19220,NaN,1569267720,329277038,NaN,NaN,0.673679090623,0.670851309672,0.170101262065,0.259192136866,NaN,NaN,-0.0617257096012,-0.0134736160857,0.038347745462,NaN,NaN,-1.61971425,5.9684016,-7.85316,NaN,3
1.56926772043658e+18,NaN,19221,NaN,1569267720,397118091,NaN,NaN,0.673677651713,0.669502447294,0.173073709457,0.260711307283,NaN,NaN,-0.0931416361372,0.0336502737183,0.031366428454,NaN,NaN,-1.54118265,5.97821805,-7.72554615,NaN,3
1.56926772050008e+18,NaN,19222,NaN,1569267720,435822010,NaN,NaN,0.674603969322,0.667895736316,0.174061332973,0.261777429031,NaN,NaN,-0.0687070266092,-0.00998295758173,0.07150900125,NaN,NaN,-1.38411945,6.07638255,-7.8138942,NaN,3
1.56926772056392e+18,NaN,19223,NaN,1569267720,499155998,NaN,NaN,0.674946366264,0.666764184515,0.174792569913,0.263287831883,NaN,NaN,-0.0460177463332,-0.0134736160857,0.01914912369,NaN,NaN,-1.5313662,6.37087605,-7.92187515,NaN,3
1.56926772058494e+18,NaN,19224,NaN,1569267720,562936067,NaN,NaN,0.673151276126,0.665155607607,0.182954916639,0.26638858008,NaN,NaN,-0.255457256573,0.120916736318,0.034857086958,NaN,NaN,-1.4528346,6.3217938,-7.6175652,NaN,3
1.56926772064951e+18,NaN,19225,NaN,1569267720,584263086,NaN,NaN,0.674834724841,0.663378897574,0.183416796805,0.26624201594,NaN,NaN,-0.00238451503321,0.00747033493827,0.197172707394,NaN,NaN,-1.2957714,6.0273003,-7.52921715,NaN,3
1.56926772069331e+18,NaN,19226,NaN,1569267720,648169040,NaN,NaN,0.674268834787,0.660240534729,0.192959852449,0.268720058944,NaN,NaN,-0.272910549093,0.143606016594,0.108160915542,NaN,NaN,-1.24668915,5.9487687,-7.31325525,NaN,3
1.56926772073419e+18,NaN,19227,NaN,1569267720,692420959,NaN,NaN,0.671907100742,0.659488212013,0.199182448437,0.271923699633,NaN,NaN,-0.314798451141,0.127898053326,-0.019248119854,NaN,NaN,-1.12889175,6.39050895,-7.4212362,NaN,3
1.56926772079778e+18,NaN,19228,NaN,1569267720,733119964,NaN,NaN,0.670065177805,0.658797564486,0.2026386081,0.275564912547,NaN,NaN,-0.251966598069,0.0301596152143,-0.045428058634,NaN,NaN,-1.22705625,6.871515,-7.35252105,NaN,3
1.56926772084014e+18,NaN,19229,NaN,1569267720,796984910,NaN,NaN,0.668639964115,0.656063709046,0.206852338163,0.28233511694,NaN,NaN,-0.251966598069,-0.0518708596297,0.00867714817802,NaN,NaN,-1.10925885,6.9893124,-7.3034388,NaN,3
1.5692677208824e+18,NaN,19230,NaN,1569267720,839267015,NaN,NaN,0.67138587151,0.651745106779,0.208422794304,0.284656400139,NaN,NaN,-0.122812233421,-0.0885227739217,0.204154024402,NaN,NaN,-1.0405437,6.6555531,-7.19545785,NaN,3
1.56926772094697e+18,NaN,19231,NaN,1569267720,881669998,NaN,NaN,0.673281901661,0.647351489192,0.212502425524,0.287176338653,NaN,NaN,-0.218805342281,-0.00474696982573,0.214625999914,NaN,NaN,-1.177974,6.86169855,-7.3230717,NaN,3
1.56926772098862e+18,NaN,19232,NaN,1569267720,945671081,NaN,NaN,0.665857559788,0.641557538455,0.23103068525,0.302758083952,NaN,NaN,-0.808726629457,0.0877554805303,0.02787576995,NaN,NaN,-1.24668915,6.97949595,-7.0285782,NaN,3
1.56926772103122e+18,NaN,19233,NaN,1569267720,987907886,NaN,NaN,0.650944751392,0.63386937899,0.258343441251,0.32823651134,NaN,NaN,-1.9379546555,0.173276613878,-0.097787936194,NaN,NaN,-1.7276952,7.3230717,-6.50830635,NaN,3
1.56926772109556e+18,NaN,19234,NaN,1569267721,30512094,NaN,NaN,0.627222246598,0.623538820887,0.291951682205,0.364082143859,NaN,NaN,-2.59070779575,0.126152724074,-0.300246129426,NaN,NaN,-2.03200515,7.9709574,-5.40886395,NaN,3
1.56926772113793e+18,NaN,19235,NaN,1569267721,94420909,NaN,NaN,0.595153681174,0.608755323524,0.326870507554,0.410322706119,NaN,NaN,-2.10027027594,-0.0745601399057,-0.359587323994,NaN,NaN,-1.71787875,8.4617799,-4.60391505,NaN,3
1.5692677211807e+18,NaN,19236,NaN,1569267721,136899948,NaN,NaN,0.584717803311,0.598844383925,0.338903387216,0.429691736558,NaN,NaN,-1.23284163769,-0.221167797074,-0.082079972926,NaN,NaN,-1.67861295,8.2850838,-3.1608969,NaN,3
1.56926772124485e+18,NaN,19237,NaN,1569267721,179827928,NaN,NaN,0.571423535364,0.593894493504,0.350065448527,0.445217537353,NaN,NaN,-1.05830871249,0.00747033493827,-0.261848885882,NaN,NaN,-1.40375235,8.6777418,-2.38539735,NaN,3
1.56926772128647e+18,NaN,19238,NaN,1569267721,243837118,NaN,NaN,0.555945547564,0.589654818556,0.357776461253,0.463926445539,NaN,NaN,-0.731932142369,-0.0850321154177,-0.319444751198,NaN,NaN,-1.06999305,8.72682405,-2.34613155,NaN,3
1.56926772135028e+18,NaN,19239,NaN,1569267721,285775899,NaN,NaN,0.554476209333,0.587126344989,0.353988644691,0.471731732804,NaN,NaN,-0.182153427989,-0.334614198454,-0.20774367907,NaN,NaN,-1.08962595,8.6973747,-2.93511855,NaN,3
1.56926772139915e+18,NaN,19240,NaN,1569267721,349247932,NaN,NaN,0.546493948849,0.584558939745,0.357101531594,0.481781803277,NaN,NaN,-0.389847608977,-0.0693241521497,-0.17283709403,NaN,NaN,-1.65898005,9.13911495,-3.1805298,NaN,2
1.56926772143512e+18,NaN,19241,NaN,1569267721,398463010,NaN,NaN,0.538247687677,0.584083285394,0.363983637942,0.486468964832,NaN,NaN,-0.450934132797,0.169785955374,-0.122222545722,NaN,NaN,-1.8454926,9.39434265,-3.1805298,NaN,2
1.56926772149908e+18,NaN,19242,NaN,1569267721,434246063,NaN,NaN,0.526825793872,0.582653350401,0.376313816726,0.491281556258,NaN,NaN,-0.904719738317,0.438566660182,-0.092551948438,NaN,NaN,-2.03200515,9.423792,-2.748606,NaN,2
1.56926772154131e+18,NaN,19243,NaN,1569267721,498089075,NaN,NaN,0.503854725904,0.577728875971,0.402043585099,0.500720198049,NaN,NaN,-1.04958206623,0.469982586718,-0.054154704894,NaN,NaN,-2.0418216,9.9342474,-2.32649865,NaN,2
1.56926772158386e+18,NaN,19244,NaN,1569267721,540617942,NaN,NaN,0.503185017928,0.575510184014,0.406781692677,0.500121505569,NaN,NaN,-0.192625403501,0.126152724074,0.157030134598,NaN,NaN,-2.03200515,10.12075995,-2.38539735,NaN,2
1.56926772164844e+18,NaN,19245,NaN,1569267721,582998037,NaN,NaN,0.504415964623,0.572946429591,0.41255488706,0.497086902478,NaN,NaN,-0.112340257909,0.173276613878,0.287929828498,NaN,NaN,-1.766961,9.7182855,-1.7080623,NaN,3
1.5692677216904e+18,NaN,19246,NaN,1569267721,647000074,NaN,NaN,0.500720305778,0.571227234989,0.4174823075,0.498685416181,NaN,NaN,-0.192625403501,0.0964821267903,0.013913135934,NaN,NaN,-1.52154975,9.29617815,-1.1976069,NaN,2
1.56926772173288e+18,NaN,19247,NaN,1569267721,689449071,NaN,NaN,0.49099556033,0.570086608038,0.421903572273,0.505887334073,NaN,NaN,-0.539945924649,0.115680748562,-0.27755684915,NaN,NaN,-1.5509991,9.11948205,-0.981645,NaN,2
1.56926772180001e+18,NaN,19248,NaN,1569267721,731786966,NaN,NaN,0.48509927075,0.567531394917,0.426998115447,0.510156272827,NaN,NaN,-0.429990181773,0.103463443798,-0.064626680406,NaN,NaN,-1.71787875,9.33544395,-0.8834805,NaN,2
1.56926772186684e+18,NaN,19249,NaN,1569267721,798201084,NaN,NaN,0.475118734968,0.564655746609,0.434041694796,0.516753212552,NaN,NaN,-0.405555572245,0.103463443798,-0.10302392395,NaN,NaN,-1.96329,9.3845262,-0.4515567,NaN,2
1.5692677218815e+18,NaN,19250,NaN,1569267721,865566015,NaN,NaN,0.470475221611,0.564943667116,0.430271721769,0.523791909333,NaN,NaN,-0.0983776238932,-0.0780507984097,-0.230432959346,NaN,NaN,-1.9829229,9.57103875,-0.1177974,NaN,2
1.56926772194495e+18,NaN,19251,NaN,1569267721,880660057,NaN,NaN,0.470891687531,0.563824564024,0.428304562154,0.526230065329,NaN,NaN,0.00634213122679,-0.273527674634,-0.162365118518,NaN,NaN,-2.36576445,10.3661712,0.2748606,NaN,3
1.56926772198774e+18,NaN,19252,NaN,1569267721,944216012,NaN,NaN,0.484001239525,0.550677202398,0.418372874866,0.536154414767,NaN,NaN,0.0779006305588,-0.694152024366,0.134340854322,NaN,NaN,-2.3166822,9.9931461,0.08834805,NaN,2
1.56926772202981e+18,NaN,19253,NaN,1569267721,986845970,NaN,NaN,0.496687730142,0.542841653223,0.405937204356,0.542069390735,NaN,NaN,0.360643969383,-0.858212974054,0.076744989006,NaN,NaN,-1.87494195,9.6004881,-0.2944935,NaN,2
1.5692677220942e+18,NaN,19254,NaN,1569267722,29167890,NaN,NaN,0.500633228147,0.537466054494,0.400180969301,0.548043614096,NaN,NaN,-0.00412984428521,-0.484712514126,-0.036701412374,NaN,NaN,-1.7276952,9.0703998,-0.97182855,NaN,2
1.56926772213646e+18,NaN,19255,NaN,1569267722,93313932,NaN,NaN,0.502874668597,0.537147291123,0.391714047306,0.552403802002,NaN,NaN,0.0936085938268,-0.231639772586,-0.158874460014,NaN,NaN,-1.7473281,8.9722353,-1.52154975,NaN,2
1.56926772220067e+18,NaN,19256,NaN,1569267722,135745048,NaN,NaN,0.507719272936,0.538995148813,0.384475793165,0.551256504646,NaN,NaN,0.358898640131,-0.172298578018,-0.08557063143,NaN,NaN,-2.18906835,9.620121,-1.34485365,NaN,2
1.56926772224311e+18,NaN,19257,NaN,1569267722,199942111,NaN,NaN,0.508115925448,0.538680242931,0.382726949624,0.552414594498,NaN,NaN,0.0168141067388,-0.0483802011257,-0.029720095366,NaN,NaN,-2.355948,10.0716777,-0.7067844,NaN,2
