rosbagTimestamp,secs,nsecs,lwrist.x,lwrist.y,lwrist.z,rwrist.x,rwrist.y,rwrist.z,neck.x,neck.y,neck.z,wDist,wNDist,x,y,z,x.1,y.1,z.1,Label
1569267652.56279,1569267652,562788926,1.190999985,-0.245607957,-0.146960571,1.40199995,0.179137751,-0.109354109,1.200000048,-0.066524059,0.130128905,0.475756395310226,0.398127868021079,-0.262796574111,-2.21233501596,-1.98284143267,0.55953765,10.00296255,7.01876175,8
1569267652.73055,1569267652,730553462,1.200000048,-0.113218226,-0.161689296,1.368000031,0.214716986,-0.106702149,1.217000008,-0.028003436,0.131972402,0.372544069732273,0.372397303288988,-0.295957829899,-0.151101169347,0.0749017554386,1.2761385,9.1096656,3.09218175,9
1569267652.91379,1569267652,913788312,1.174999952,-0.044182517,-0.181179851,1.328999996,0.266773671,-0.110123977,1.246000052,0.044055425,0.135117188,0.354201498637989,0.341519599460817,-2.51601663844,1.27134217103,0.797468065767,0.32394285,5.4579462,6.05674965,9
1569267653.06595,1569267653,65950056,1.18599999,0.001553254,-0.179030493,1.296000004,0.283263117,-0.117894977,1.243999958,0.10449256,0.134900302,0.308541733494944,0.313955999972576,2.9765345176,0.950201588665,0.546140653479,-2.2774164,8.3636154,8.03967255,3
1569267653.23127,1569267653,231272928,1.212000012,0.021237765,-0.175095648,1.296000004,0.306376725,-0.119996071,1.233999968,0.139665455,0.127814174,0.302318025515285,0.305035357845569,-1.12673455385,-0.501912348999,-0.357939899057,-1.2172398,9.6397539,1.5902649,1
1569267653.40217,1569267653,402172766,1.222000003,0.019431734,-0.198332652,1.289999962,0.30077529,-0.11734917,1.207000017,0.138566509,0.12110398,0.300560335512807,0.300100956760273,0.960679231541,0.260796534125,-2.11548645582,-4.01492805,14.02770705,1.63934715,7
1569267653.57302,1569267653,573016499,1.233999968,0.033627558,-0.180274516,1.284999967,0.272525251,-0.100228265,1.166000009,0.120626353,0.122661255,0.257061296032439,0.294811810047438,-0.830028581011,0.232871266093,0.317502521467,-2.89585275,10.405437,1.18779045,1
1569267653.73598,1569267653,735979067,1.223999977,0.021448039,-0.180797994,1.284999967,0.260024846,-0.116894327,1.133999944,0.098930031,0.115617998,0.254408274775728,0.320647045273756,-0.0934996366668,-0.208697034663,-0.551671446029,-2.50319475,5.36959815,-0.4122909,9
1569267653.90534,1569267653,905338455,1.212000012,0.025167856,-0.179025456,1.289999962,0.238030002,-0.07970462,1.100000024,0.088830039,0.11036817,0.247505381483851,0.307389445000295,-0.0271771250908,0.0426303776251,-0.0350539874374,-2.5915428,10.29745605,-0.89329695,1
1569267654.07525,1569267654,75245106,1.202999949,0.021080058,-0.181596696,1.292999983,0.226005331,-0.075697526,1.10800004,0.080493934,0.105781935,0.247606558557754,0.297209253442327,-0.283740525135,-0.0184561461949,-0.0891591942494,-3.6909852,8.834805,-0.61843635,1
1569267654.23847,1569267654,238470777,1.19599998,0.024835607,-0.178601056,1.289999962,0.223389447,-0.075521894,1.126000047,0.079975992,0.107500412,0.242662188305818,0.284535684385284,-0.0463757468628,0.0304130728611,-0.129301767045,-3.91676355,9.37470975,-0.0588987,1
1569267654.40522,1569267654,405216748,1.197999954,0.020992443,-0.180841938,1.281999946,0.222004086,-0.075053535,1.128000021,0.080118045,0.102205172,0.242183536779133,0.27435064194926,0.115939873573,-0.0568533897389,-0.0891591942494,-4.1032761,8.88388725,-0.0588987,1
1569267654.57759,1569267654,577589620,1.192999959,0.020904828,-0.182021275,1.287999988,0.218866572,-0.0754048,1.111999989,0.077178702,0.100755453,0.244092053002444,0.286502856687609,-0.0254317958388,-0.0743066822589,-0.0490166214534,-4.319238,9.08021625,-0.65770215,1
1569267654.74151,1569267654,741512304,1.18900001,0.020834737,-0.181410968,1.27699995,0.21699737,-0.074760817,1.095999956,0.072514273,0.10285943,0.239995880660104,0.29186523481061,0.0321640694772,-0.0202014754469,-0.0141100364134,-3.8873142,9.0900327,0.40247445,1
1569267654.912,1569267654,911995703,1.184000015,0.020747123,-0.182567611,1.281999946,0.222004086,-0.072975144,1.09800005,0.072646596,0.103047132,0.249236555214387,0.295207491766945,0.0565986790052,-0.0777973407629,-0.106612486769,-4.25052285,8.74645695,0.59880345,1
1569267655.07816,1569267655,78157022,1.18599999,0.020782169,-0.180953249,1.279999971,0.221657738,-0.072861299,1.07099998,0.074333087,0.10051319,0.246720206517173,0.308940548433324,0.0548533497532,-0.0254374632029,-0.0245820119254,-4.1621748,8.98205175,0.46137315,1
1569267655.23715,1569267655,237151001,1.190999985,0.020869782,-0.179785267,1.284999967,0.226690397,-0.066896141,1.083999991,0.071720324,0.101733238,0.25286770640796,0.304717215364593,-0.00448784481477,-0.0271827924549,-0.0664699139734,-4.2603393,8.6581089,-0.2355948,1
1569267655.40464,1569267655,404636294,1.205000043,0.019161407,-0.181898609,1.281999946,0.226161152,-0.066739962,1.069000006,0.070727885,0.100325488,0.249077083391759,0.312152750290622,-0.191238074779,-0.0830333285189,-0.0525072799574,-4.05419385,8.11820415,1.0798095,1
1569267655.57167,1569267655,571673861,1.19599998,0.020957397,-0.176662087,1.281999946,0.224082619,-0.066739962,1.07099998,0.070860207,0.10051319,0.246452274343464,0.309793011614262,-0.0934996366668,-0.0533627312349,-0.221804217401,-4.711896,8.84462145,0.20614545,1
1569267655.73566,1569267655,735663079,1.190999985,0.020869782,-0.175923526,1.271999955,0.216147721,-0.072405919,1.06400001,0.073847249,0.096406296,0.235394060161031,0.303333093124756,0.0827786177852,0.0216864266011,-0.000147402397418,-4.23088995,9.19801365,0.8834805,1
1569267655.91089,1569267655,910887933,1.190999985,0.020869782,-0.175923526,1.26699996,0.215298086,-0.07417538,1.059999943,0.070132419,0.099480838,0.232230589739497,0.306722284752215,0.0565986790052,0.000742475577068,-0.0926498527534,-4.5548328,8.62865955,0.04908225,1
1569267656.06491,1569267656,64910036,1.184000015,0.020747123,-0.178728595,1.264000058,0.214788303,-0.080147386,1.046000004,0.069206141,0.098166943,0.231884111537845,0.317039728367467,0.143865141605,0.105462230697,0.430948922847,-4.3977696,5.3597817,0.18651255,9
1569267656.23301,1569267656,233010190,1.184000015,0.020747123,-0.182567611,1.269000053,0.211523026,-0.096922964,1.046000004,0.067510232,0.098166943,0.225733154820513,0.329437063037779,-0.0812823319028,-0.00623884143093,1.95287603059,1.8847584,19.60345065,-1.01109435,7
1569267656.40194,1569267656,401938823,1.18599999,0.018859277,-0.182876006,1.287999988,0.218866572,-0.13804844,1.046000004,0.067510232,0.094775364,0.228946343754823,0.368347197116017,0.522601589289,0.138623486485,-0.288126728977,-2.3952138,8.56976085,1.3939359,1
1569267656.57612,1569267656,576116509,1.179999948,0.016850704,-0.18768993,1.292999983,0.223908946,-0.119718298,1.04400003,0.072459139,0.094594151,0.245483739271821,0.361756612145123,0.129902507589,-0.226150327183,-0.129301767045,-2.8860363,10.17965865,-0.93256275,1
1569267656.73449,1569267656,734494015,1.184000015,0.018827474,-0.190245673,1.289999962,0.223389447,-0.081795983,1.046000004,0.072597951,0.094775364,0.254642739583817,0.336825615640073,0.182262385149,-0.0184561461949,-0.172934998345,-3.40630815,9.4826907,0.7460502,1
1569267656.90575,1569267656,905752363,1.182000041,0.013046452,-0.184175506,1.284999967,0.222523585,-0.075229168,1.046000004,0.067510232,0.098166943,0.25760232640548,0.333491129165722,-0.126660892455,0.0251770851051,0.0312685241386,-3.6124536,9.45324135,-0.392658,1
1569267657.06368,1569267657,63677484,1.190999985,0.017007787,-0.185577855,1.284999967,0.218356788,-0.075229168,1.046000004,0.062422518,0.099862732,0.248101288876786,0.334803901291553,-0.0167051495788,0.0269224143571,-0.0507619507054,-3.4750233,9.84589935,-0.3533922,1
1569267657.22779,1569267657,227790022,1.192999959,0.018970588,-0.185889482,1.284999967,0.218356788,-0.075229168,1.042000055,0.062183809,0.099480845,0.245895431671714,0.337583390059704,0.159573104873,0.0286677436091,-0.0315633289334,-3.40630815,9.8360829,-0.6675186,1
1569267657.38297,1569267657,382973707,1.18900001,0.016979227,-0.185266212,1.281999946,0.217847005,-0.075053535,1.04400003,0.058917835,0.099671789,0.247272494439167,0.335307888275538,-0.0114691618228,0.0461210361291,-0.0577432677134,-2.8467705,9.21764655,-1.18779045,1
1569267657.53945,1569267657,539452713,1.192999959,0.017036347,-0.185889482,1.284999967,0.218356788,-0.075229168,1.039000034,0.058635663,0.09919443,0.247466414955673,0.341248291345958,-0.109207599935,0.0810276211691,-0.0158553656654,-3.87749775,9.13911495,-0.77549955,1
1569267657.70162,1569267657,701623611,1.18599999,0.016936386,-0.184798762,1.27699995,0.214926928,-0.074760817,1.042000055,0.055426124,0.099480845,0.24410980476269,0.333205062841458,-0.156331489739,-0.0219468046989,-0.0350539874374,-4.6726302,7.92187515,0.69696795,1
1569267657.87962,1569267657,879617342,1.18900001,0.016979227,-0.183338597,1.281999946,0.215768456,-0.079210326,1.034999967,0.058409922,0.09881255,0.242917357312869,0.342728525553303,0.00772945994923,0.00248780482907,-0.0298179996814,-4.60391505,8.245818,0.4319238,1
1569267658.03405,1569267658,34053459,1.190999985,0.018938785,-0.185577855,1.274000049,0.214422017,-0.08284688,1.039000034,0.060320217,0.09919443,0.235915997426246,0.334830420302213,0.0251827524692,0.0251770851051,0.293067911939,-8.33416605,4.0051116,0.2748606,9
1569267658.2035,1569267658,203503647,1.18599999,0.016936386,-0.182876006,1.269000053,0.205350637,-0.098980285,1.031999946,0.058240619,0.098526135,0.22232281133524,0.341788229837114,-1.15291449263,0.0688103164051,0.305285216703,-1.4921004,10.51341795,-0.6675186,9
1569267658.36293,1569267658,362929493,1.184000015,0.016907824,-0.188326165,1.287999988,0.210513502,-0.13804844,1.04400003,0.053839844,0.09797924,0.225448447697064,0.373887256189998,-0.643278351047,0.925766979137,0.375098386783,-2.0614545,11.31836685,0.3141264,9
1569267658.5171,1569267658,517095444,1.18599999,0.016936386,-0.190567046,1.296000004,0.218124747,-0.136804804,1.039000034,0.055266548,0.097509995,0.235514624485897,0.384025002560946,0.0234374232172,-0.0132201584389,-0.794272212057,-1.52154975,7.4408691,0.16687965,9
1569267658.66822,1569267658,668214931,1.184000015,0.016907824,-0.190245673,1.296000004,0.22022599,-0.080075338,1.04400003,0.060610499,0.09797924,0.256943139382269,0.347396782670666,0.0129654477052,0.0688103164051,-0.343977265041,-4.0443774,10.0520448,0.40247445,1
1569267658.8386,1569267658,838598003,1.190999985,0.01314579,-0.18943958,1.292999983,0.217619836,-0.075697526,1.046000004,0.057334799,0.098166943,0.255246723637639,0.341949025868979,-0.0830276611548,0.0339037313651,-0.0123647071614,-3.93639645,8.35379895,-0.46137315,1
1569267659.00299,1569267659,2986477,1.182000041,0.016879264,-0.18800804,1.296000004,0.218124747,-0.075873159,1.046000004,0.055638891,0.098166943,0.257040789620614,0.345241380057813,0.0705613130212,0.00423313408107,-0.0350539874374,-3.70080165,8.8740708,-0.10798095,1
1569267659.1623,1569267659,162298370,1.18599999,0.013090602,-0.18864429,1.292999983,0.217619836,-0.075697526,1.042000055,0.055426124,0.099480845,0.256978943808045,0.346403270386637,0.0164561062092,-0.00274818292693,-0.0315633289334,-2.75842245,8.03967255,-1.0994424,1
1569267659.31074,1569267659,310736743,1.184000015,0.018827474,-0.188326165,1.289999962,0.21711491,-0.075521894,1.049000025,0.055798467,0.10014914,0.251552578192509,0.339063823789571,-0.0690650271388,-0.0376547679669,-0.0420353044454,-3.7695168,8.74645695,0.22577835,1
1569267659.47261,1569267659,472605727,1.18599999,0.016936386,-0.18864429,1.292999983,0.217619836,-0.075697526,1.047999978,0.055745278,0.098354638,0.253928763837369,0.341353966976771,-0.435584170059,-0.0568533897389,0.190093486071,-4.99657305,8.9918682,1.14852465,1
1569267659.6351,1569267659,635096753,1.18599999,0.016936386,-0.18864429,1.274000049,0.20822531,-0.091108583,1.041000009,0.055372931,0.09769769,0.232053177028609,0.336601659428637,0.0932505932972,-0.0394000972189,1.31583085361,-2.944935,10.4839686,0.55953765,7
1569267659.81087,1569267659,810872548,1.18599999,0.016936386,-0.190567046,1.27699995,0.204574779,-0.11823687,1.036999941,0.053478848,0.097322293,0.220727917599508,0.356224279686292,-0.334355073443,0.417876166805,-0.897246637925,-4.05419385,9.0703998,4.48611765,9
1569267659.97609,1569267659,976087647,1.19599998,0.013200979,-0.194112822,1.292999983,0.202945217,-0.136488125,1.041000009,0.055372931,0.094322331,0.220754347953879,0.37222981219966,0.527837577045,-0.470496422463,-0.773328261033,-2.0221887,6.1647306,0.2355948,9
1569267660.13561,1569267660,135609573,1.18599999,0.016936386,-0.192489803,1.292999983,0.217619836,-0.098756023,1.039000034,0.058635663,0.097509995,0.245985501847143,0.358207050709604,0.206696994677,0.0653196579011,-0.0577432677134,-3.5928207,9.57103875,-0.89329695,1
1569267660.3032,1569267660,303201447,1.190999985,0.01314579,-0.197163031,1.300999999,0.218966275,-0.076165877,1.039000034,0.058635663,0.097509995,0.262873327672731,0.352864273225919,0.117685202825,0.00423313408107,-0.0734512309814,-4.0443774,9.0703998,-0.26504415,1
1569267660.47219,1569267660,472192466,1.190999985,0.011214793,-0.197163031,1.296000004,0.218124747,-0.075873159,1.050999999,0.054200839,0.098636188,0.261816665061754,0.34256322373302,0.0269280817212,-0.0184561461949,-0.0594885969654,-2.748606,9.3256275,-0.0392658,1
1569267660.64025,1569267660,640253055,1.19599998,0.00544456,-0.19799076,1.30400002,0.219471201,-0.07634151,1.042000055,0.055426124,0.097791538,0.268830712016516,0.354791611165917,0.0565986790052,-0.00100285367493,-0.204350924881,-3.2786943,8.05930545,-0.0588987,1
1569267660.80971,1569267660,809711529,1.19599998,0.00544456,-0.194112822,1.299000025,0.216523573,-0.080260701,1.042000055,0.053736705,0.097791538,0.261008935585077,0.352492764161427,-0.156331489739,0.0531023531371,0.113298998983,-4.42721895,8.72682405,-0.3533922,1
1569267660.97159,1569267660,971585291,1.190999985,0.009283794,-0.193301305,1.279999971,0.198829487,-0.093612812,1.04400003,0.052147184,0.09797924,0.231918871331036,0.337519161759681,0.178771726645,0.0914995966811,1.19889379373,-3.24924495,6.8911479,-0.392658,7
1569267661.13613,1569267661,136128455,1.192999959,0.005430903,-0.197494119,1.274000049,0.191700771,-0.117959097,1.034000039,0.051647689,0.097040743,0.218135962255851,0.351340008791661,-0.845736544279,0.0618289993971,-0.0158553656654,-1.7865939,8.5206786,0.36320865,1
1569267661.29843,1569267661,298432492,1.190999985,0.0034908,-0.208748221,1.289999962,0.198291332,-0.144536898,1.031999946,0.051547788,0.093506858,0.227752797381051,0.380476682245138,0.746003733545,-0.351814033327,-1.17998997675,-1.96329,6.1254648,0.1374303,9
1569267661.4569,1569267661,456896800,1.192999959,0.003496662,-0.209098756,1.296000004,0.211821035,-0.126299337,1.041000009,0.051997334,0.094322331,0.246705892598014,0.373152158297979,0.0182014354612,-0.180771766631,-0.174680327597,-2.1203532,8.5206786,0.9227463,1
1569267661.6146,1569267661,614604704,1.190999985,0.0034908,-0.201024756,1.299000025,0.216523573,-0.080260701,1.034999967,0.05337571,0.09713459,0.267639548632324,0.357466565002162,0.239858250465,0.0216864266011,-0.0874138649974,-3.3768588,10.10112705,-0.8245818,1
1569267661.7811,1569267661,781100678,1.18599999,0.009244819,-0.198258072,1.300999999,0.212638244,-0.076165877,1.034999967,0.051697638,0.09713459,0.263629269018348,0.355936718457181,0.112449215069,0.0513570238851,0.0312685241386,-3.40630815,8.7955392,0.196329,1
1569267661.93741,1569267661,937411871,1.192999959,0.003496662,-0.197494119,1.307000041,0.213618904,-0.076517142,1.036999941,0.050116222,0.097322293,0.267923131220826,0.360351675703503,0.000748142941226,-0.0132201584389,-0.0367993166894,-3.70080165,9.0115011,-0.59880345,1
1569267662.10644,1569267662,106443216,1.192999959,0.005430903,-0.197494119,1.307000041,0.211499825,-0.076517142,1.041000009,0.051997334,0.09769769,0.26475620535562,0.355735673426203,0.194479689913,-0.0411454264709,0.0469764874066,-3.337593,9.7379184,-0.0588987,1
1569267662.2716,1569267662,271600478,1.192999959,0.005430903,-0.197494119,1.315000057,0.219190523,-0.076985493,1.039000034,0.051897436,0.097509995,0.274042930934118,0.366894623817723,-0.283740525135,0.0461210361291,0.0818830724466,-3.46520685,8.19673575,-0.3141264,1
1569267662.44062,1569267662,440621863,1.197999954,0.001568969,-0.198321849,1.287999988,0.200072169,-0.079581045,1.042000055,0.052047282,0.097791538,0.248199325270653,0.337473506230429,0.311416749797,-0.0830333285189,2.20943943063,-1.1387082,6.3806925,0.4515567,7
1569267662.60824,1569267662,608241379,1.192999959,0.003496662,-0.201362342,1.274000049,0.193766341,-0.113828249,1.027999997,0.049681269,0.096477643,0.224556858644094,0.354266992206674,0.0164561062092,0.238107253849,-0.574360726305,-3.141264,8.98205175,1.67861295,9
1569267662.78112,1569267662,781119695,1.190999985,0.0034908,-0.204886496,1.289999962,0.198291332,-0.142445534,1.029999971,0.049777925,0.093325645,0.227260019468821,0.381109270716153,0.569725479093,-0.282000863247,-1.06654357537,-2.54246055,7.3427046,-0.0392658,9
1569267662.94217,1569267662,942173234,1.18599999,0.003476145,-0.205949098,1.281999946,0.197061613,-0.102072664,1.04400003,0.05045452,0.09797924,0.239753286762324,0.343741711213438,-0.00448784481477,-0.180771766631,0.146460254771,-3.40630815,8.60902665,2.34613155,1
1569267663.11543,1569267663,115430340,1.190999985,0.001559802,-0.206817359,1.30400002,0.21101436,-0.07634151,1.041000009,0.051997334,0.094322331,0.271411434816677,0.351541700184712,0.117685202825,-0.0149654876909,-0.0629792554694,-3.89713065,8.2850838,0.40247445,1
1569267663.27634,1569267663,276342304,1.190999985,0.001559802,-0.206817359,1.300999999,0.208419561,-0.074056678,1.041000009,0.051997334,0.09769769,0.269288620987078,0.348665270462544,0.159573104873,-0.0132201584389,-0.0699605724774,-3.7106181,8.72682405,-0.10798095,1
1569267663.44827,1569267663,448269823,1.190999985,0.001559802,-0.204886496,1.312000036,0.21869047,-0.074682832,1.036999941,0.051797535,0.097322293,0.280606011067393,0.36477947725878,-0.0638290393828,-0.0394000972189,-0.0420353044454,-3.8873142,10.4250699,-0.59880345,1
1569267663.61194,1569267663,611937390,1.192999959,-0.00037182,-0.20716466,1.299000025,0.208099157,-0.073942833,1.041000009,0.051997334,0.09769769,0.269154634796722,0.34697587313189,-0.0847729904068,0.0426303776251,-0.0193460241694,-3.66153585,8.58939375,0.00981645,1
1569267663.7803,1569267663,780304362,1.18900001,0.001557183,-0.206470057,1.296000004,0.207618564,-0.073772065,1.039000034,0.050212879,0.097509995,0.267430455514063,0.346645464889076,0.0112201184532,-0.00274818292693,0.223254741859,-4.64318085,9.1292985,-0.3141264,1
1569267663.94024,1569267663,940241454,1.190999985,-0.000371196,-0.204886496,1.284999967,0.197522759,-0.075229168,1.039000034,0.046843763,0.097509995,0.254576190453157,0.336242390702768,-0.0446304176108,0.170039413021,0.362881082019,-3.22961205,5.88005355,-0.55953765,9
1569267664.10315,1569267664,103149430,1.18599999,0.001553254,-0.205949098,1.274000049,0.189635202,-0.097304851,1.039000034,0.040105537,0.09919443,0.234355290005742,0.340875483422509,-0.000997186310774,-0.301199485019,1.5671582659,-1.12889175,19.30895715,1.1976069,7
1569267664.27776,1569267664,277758894,1.190999985,-0.000371196,-0.206817359,1.281999946,0.190825999,-0.124934994,1.029999971,0.039758138,0.096665345,0.227028813096186,0.368011136070678,-0.889369775579,0.00423313408107,-0.0437806336974,-0.93256275,12.24111315,1.16815755,9
1569267664.43468,1569267664,434680017,1.200000048,0.001571589,-0.208380207,1.292999983,0.198752478,-0.142776802,1.057000041,0.039086599,0.095772043,0.227668833274185,0.371610975338027,-3.21240300999,-0.796872992587,-0.139773742557,-1.03072725,9.84589935,6.7340847,1
1569267664.59256,1569267664,592556216,1.200000048,0.017136309,-0.194762021,1.281999946,0.201218694,-0.143640548,1.093999982,0.049323462,0.102671735,0.207903133071602,0.345088233246234,1.12648551048,0.384714911017,0.221509412607,-1.14852465,8.9722353,2.87621985,1
1569267664.75518,1569267664,755178779,1.18900001,0.009268205,-0.204542428,1.289999962,0.242213026,-0.136171445,1.161999941,0.058041211,0.112821221,0.262942714770938,0.335112832547759,7.32938567209,0.999070807721,0.872517223603,3.19034625,7.09729335,-1.36448655,9
1569267664.90441,1569267664,904405636,1.192999959,-0.00037182,-0.189757705,1.309999943,0.269331545,-0.097930655,1.212000012,0.080189139,0.115710922,0.30799530590583,0.301697795229797,-0.597899790495,-1.374576975,1.5235250346,0.20614545,9.7968171,-2.73878955,3
1569267665.07262,1569267665,72621907,1.18900001,0.036256779,-0.181410968,1.317999959,0.315851361,-0.119896278,1.258999944,0.113917507,0.120198064,0.314003462101222,0.319223395479884,1.22422394859,-0.285491521751,-0.146755059565,0.38284155,4.6529973,-10.35635475,5
1569267665.23481,1569267665,234805098,1.207000017,0.060288936,-0.184157312,1.307000041,0.347120434,-0.163393036,1.256000042,0.162519276,0.123984136,0.304472442435648,0.345346530921708,1.21026131458,-0.0725613530069,-0.235766851417,-0.4908225,3.8087826,-7.68628035,9
1569267665.39342,1569267665,393417153,1.207000017,0.060288936,-0.176330104,1.26699996,0.344713867,-0.176879168,1.248999953,0.187938973,0.12126825,0.290685114867676,0.337334034008989,0.667463917205,0.182256717785,-0.150245718069,1.38411945,2.32649865,-9.64957035,5
1569267665.54695,1569267665,546947205,1.177000046,0.098864742,-0.166222915,1.274000049,0.365208477,-0.171660125,1.251000047,0.208522692,0.119434297,0.283509345539674,0.331384063938778,-0.308175134663,-0.282000863247,-0.204350924881,0.28467705,1.2172398,-9.5808552,5
1569267665.7139,1569267665,713900966,1.18900001,0.121078022,-0.171772867,1.289999962,0.371886611,-0.165450528,1.251000047,0.216635808,0.121462435,0.270455006591862,0.328546577427907,-0.709600862623,0.279995155897,-0.796017541309,1.1190753,2.09090385,-10.0716777,9
1569267665.87555,1569267665,875547013,1.179999948,0.123987861,-0.1666466,1.287999988,0.375486553,-0.163105905,1.261000037,0.222456485,0.118344657,0.273730044457665,0.321499016975484,-0.0411397591068,0.0548476823891,-0.349213252797,0.8245818,3.6713523,-9.5612223,5
1569267666.03544,1569267666,35438940,1.136000037,0.17093569,-0.182533011,1.287999988,0.385927886,-0.163105905,1.258999944,0.230268657,0.120198064,0.264013336580636,0.324548820635709,0.0391453864852,-0.0202014754469,-0.286381399725,1.5509991,3.74006745,-9.2863617,5
1569267666.19201,1569267666,192005821,1.126000047,0.174907818,-0.1827517,1.296000004,0.392527431,-0.162017897,1.261000037,0.23267895,0.120389007,0.276926293314872,0.326389635244249,-0.236616635331,-0.0812879992669,0.0277778656346,1.18779045,3.6124536,-9.23727945,5
1569267666.3544,1569267666,354402712,1.123999953,0.189176098,-0.180604845,1.307000041,0.38950187,-0.163393036,1.258999944,0.228227407,0.118156955,0.271874407593757,0.327999785304881,0.487695004249,0.0164504388451,0.347173118751,0.785316,3.42594105,-8.78572275,9
1569267666.50988,1569267666,509879805,1.136000037,0.143308312,-0.165957749,1.324000001,0.377395004,-0.150492877,1.251000047,0.208522692,0.11740616,0.30063221401154,0.324987299859171,-0.287231183639,-0.0551080604869,-0.227040205157,0.7656831,3.2001627,-9.88516515,5
1569267666.67628,1569267666,676276003,1.182000041,0.024544889,-0.149682581,1.315000057,0.332188785,-0.145206109,1.264000058,0.163554445,0.118626207,0.335192198303639,0.317247587053329,0.0426360449892,0.0984809136891,-0.420771752129,-0.2159619,2.62099215,-8.62865955,5
1569267666.83949,1569267666,839494800,1.217000008,-0.039842352,-0.175817981,1.324000001,0.26791665,-0.141906947,1.279999971,0.090914093,0.120127805,0.327589010867253,0.319261834675303,-0.109207599935,-0.208697034663,-0.401573130357,1.374303,1.54118265,-10.012779,5
1569267667.00872,1569267667,8715719,1.222000003,-0.061799891,-0.180502564,1.35800004,0.202138618,-0.125736624,1.274000049,0.028520888,0.123695552,0.30192524700864,0.315302275733062,1.21375197308,-0.646774676915,0.711946932419,0.7264173,-0.2159619,-9.3845262,9
1569267667.18194,1569267667,181938220,1.230999947,-0.060259197,-0.189814806,1.371000052,0.166285455,-0.124717601,1.271999955,0.00372821,0.12968792,0.274153524231632,0.317723222669167,0.840251513153,0.140368815737,0.251180009891,0.75586665,0.1766961,-11.55396165,5
1569267667.34763,1569267667,347632225,1.230999947,-0.064250901,-0.177840546,1.35800004,0.180121019,-0.143349469,1.26699996,0.020147305,0.12301591,0.277554126791721,0.323763986355453,0.740767745789,-0.0847786577709,1.03832350254,-0.26504415,-2.0614545,-10.5232344,7
1569267667.51206,1569267667,512057448,1.248999953,-0.042915005,-0.182465866,1.35800004,0.206542134,-0.152155891,1.241000056,0.043878637,0.122503437,0.273913449375115,0.339979640522313,0.156082446369,0.00597846333307,0.509488739187,0.392658,-0.6282528,-9.4041591,5
1569267667.68629,1569267667,686294315,1.261000037,-0.024926903,-0.184218943,1.338000059,0.231701612,-0.14991501,1.19599998,0.079130538,0.116122358,0.270118414622873,0.337961293981851,0.0583440082572,-0.282000863247,-0.118829791533,0.52027185,0.0981645,-10.31708895,5
1569267667.84264,1569267667,842644971,1.246000052,-0.020590048,-0.180007562,1.309999943,0.250216126,-0.155272931,1.177000046,0.100773044,0.110461272,0.279363154147494,0.332621217007747,0.829779537641,-0.168554461867,0.0103245731146,1.52154975,-0.18651255,-9.64957035,5
1569267668.00711,1569267668,7110810,1.235999942,-0.034452502,-0.172551423,1.309999943,0.262959749,-0.161644295,1.179999948,0.10676939,0.110742822,0.306674114711521,0.339838444635272,0.142119812353,0.266032521881,-0.309070680001,1.26632205,-1.7276952,-10.5625002,5
1569267668.17827,1569267668,178269272,1.256000042,-0.049264677,-0.161089823,1.328999996,0.249535739,-0.155370384,1.18599999,0.101543613,0.111305922,0.307641664714404,0.336848516778396,1.43191812958,1.18582103769,0.104572352723,0.79513245,-4.908225,-8.9526024,5
1569267668.34677,1569267668,346769603,1.238999963,-0.020474372,-0.140831336,1.325999975,0.221024051,-0.146420762,1.207000017,0.083772205,0.11523357,0.256752277657856,0.31853107962768,-2.80748662353,-1.01329381983,-2.81885414438,-0.99146145,-4.36832025,-8.2261851,7
1569267668.51355,1569267668,513550540,1.228999972,-0.05019825,-0.135709733,1.32099998,0.205198243,-0.126594052,1.223999977,0.061138075,0.120825306,0.271614553639515,0.302289052562808,-0.676439606835,-0.657246652427,0.500762092927,0.83439825,1.14852465,-9.78700065,5
1569267668.68179,1569267668,681789875,1.235999942,-0.09256728,-0.136482701,1.343999982,0.210950017,-0.124440365,1.233999968,0.039629705,0.12181244,0.322384515872777,0.319516973499289,-0.793376666719,-0.444316483683,0.226745400363,1.16815755,0.44174025,-10.53305085,5
1569267668.84829,1569267668,848285649,1.235999942,-0.09056332,-0.156520873,1.371000052,0.204073668,-0.12694028,1.246000052,0.035974741,0.118956938,0.325439696226437,0.323028932262562,-2.79003333101,-1.02725645385,0.671804359623,-1.50191685,2.24796705,-12.0153348,9
1569267669.01397,1569267669,13967781,1.225999951,-0.083867371,-0.165192559,1.383000016,0.192406118,-0.132535636,1.228999972,0.035483912,0.117333934,0.319440973818428,0.332829377158768,-5.69949719409,0.360280301489,0.296558570443,-1.766961,9.0115011,-2.3363151,3
1569267669.18123,1569267669,181225681,1.238999963,-0.082747847,-0.166944191,1.353000045,0.192619756,-0.125273675,1.212000012,0.036958132,0.119640745,0.300931499483983,0.322636984265993,0.276510164757,-0.561253543567,-0.214822900393,-0.99146145,8.9918682,2.54246055,1
1569267669.34801,1569267669,348014532,1.225999951,-0.060014438,-0.179105803,1.332000017,0.20906654,-0.123329289,1.190999985,0.042110763,0.121429488,0.294536256218879,0.328119032389483,0.222404957945,-0.145865181591,0.123770974495,-1.32522075,10.4839686,-0.196329,1
1569267669.51559,1569267669,515587270,1.174999952,-0.070853315,-0.171655238,1.324000001,0.207810879,-0.122588575,1.167999983,0.04129754,0.12097808,0.319784747975302,0.333747528992828,-0.000997186310774,-0.660737310931,-0.235766851417,-2.36576445,9.031134,1.22705625,1
1569267669.68702,1569267669,687019584,1.233999968,-0.088416062,-0.178273946,1.30400002,0.185643867,-0.120736785,1.139999986,0.04400415,0.118077919,0.288650960260706,0.322475244678485,0.524346918541,-0.231386314939,-0.199114937125,-3.44557395,9.4434249,-0.79513245,1
1569267669.84889,1569267669,848893507,1.241000056,-0.066784903,-0.201416388,1.289999962,0.179467753,-0.11734917,1.100000024,0.03889323,0.11393483,0.264780396776881,0.330686349298971,0.0513626912492,0.189238034793,0.130752291503,-2.5719099,9.21764655,0.36320865,1
1569267670.01351,1569267670,13510137,1.225999951,-0.06597767,-0.198981866,1.299000025,0.180719852,-0.107638106,1.065999985,0.034234412,0.110413209,0.273006154978022,0.351131568995476,-0.00448784481477,-0.0481267434789,0.122025645243,-1.93384065,11.78955645,-0.6871515,9
1569267670.17715,1569267670,177150372,1.212000012,-0.063259214,-0.200639457,1.292999983,0.171499625,-0.119718298,1.077000022,0.031095341,0.113298602,0.261191389146986,0.347370438873495,-0.414640219035,-0.103977279543,-0.00712871940542,-2.85658695,8.5599444,0.4122909,1
1569267670.34355,1569267670,343547141,1.205000043,-0.060940154,-0.20143421,1.289999962,0.173193216,-0.119440533,1.078999996,0.031153085,0.113508999,0.262233453711657,0.34490849355375,0.0234374232172,-0.0673253652509,0.00159792685458,-2.5915428,8.8740708,0.8442147,1
1569267670.5174,1569267670,517399449,1.213999987,-0.063363597,-0.200970545,1.287999988,0.172924697,-0.119255349,1.07099998,0.02744923,0.110931098,0.260740352240977,0.348192353955902,0.253820884481,-0.103977279543,0.109808340479,-2.1988848,10.33672185,0.0196329,1
1569267670.68773,1569267670,687730955,1.212000012,-0.063259214,-0.200639457,1.284999967,0.172521934,-0.118977584,1.067999959,0.025640765,0.110620365,0.259981546814515,0.348393885514389,0.0374000572332,0.0496116946331,0.0731564261866,-2.0418216,10.405437,0.7460502,1
1569267670.8426,1569267670,842596805,1.212000012,-0.063259214,-0.200639457,1.274000049,0.17104508,-0.122089945,1.075000048,0.031037597,0.111345403,0.254779380269044,0.337187125184038,-0.0481210761148,-0.0132201584389,0.0312685241386,-2.13016965,9.76736775,0.57917055,1
1569267671.01262,1569267671,12621006,1.223999977,-0.065870039,-0.198657259,1.281999946,0.172119156,-0.122856602,1.06400001,0.032445092,0.11020606,0.256414884401005,0.348354733954925,-0.0690650271388,0.0321584021131,0.0382498411466,-2.20870125,9.68883615,1.7276952,1
1569267671.18196,1569267671,181961629,1.235999942,-0.068519786,-0.198601067,1.279999971,0.171850637,-0.122664936,1.07099998,0.034394987,0.110931098,0.255891068223275,0.342260367345464,0.131647836841,-0.0184561461949,0.00159792685458,-2.3166822,9.31581105,1.24668915,1
1569267671.34991,1569267671,349912855,1.284999967,-0.104570627,-0.187725082,1.27699995,0.171447858,-0.12237744,1.065999985,0.034234412,0.112141423,0.283761376245351,0.344016877632492,0.459769736217,-0.142374523087,-0.199114937125,-2.48356185,9.51214005,0.75586665,1
1569267671.51927,1569267671,519270619,1.238999963,-0.102836065,-0.199083105,1.279999971,0.165624753,-0.124740094,1.065999985,0.034234412,0.112141423,0.281565435985625,0.345213367082327,0.0845239470372,-0.0359094387149,0.0365045118946,-2.66025795,8.4225141,0,1
1569267671.68599,1569267671,685985994,1.243999958,-0.095183343,-0.197869718,1.281999946,0.170040607,-0.124934994,1.065999985,0.030777747,0.112141423,0.277681862401128,0.349650332224837,0.00249347219323,0.0827729504211,0.122025645243,-2.48356185,9.2470959,0.392658,1
1569267671.85492,1569267671,854925016,1.222000003,-0.091518782,-0.188427046,1.281999946,0.165883541,-0.124934994,1.057000041,0.032231636,0.114621878,0.271821981658898,0.354789069564667,-1.14767850487,0.0391397191211,-0.0909045235014,-1.91420775,8.74645695,1.46265105,1
1569267672.01172,1569267672,11720184,1.225999951,-0.099769332,-0.195006654,1.281999946,0.165883541,-0.131170183,1.069000006,0.030864364,0.110723943,0.278895219397694,0.349445161350196,0.613358710393,-0.229640985687,-1.14333806246,-1.2172398,8.62865955,1.1387082,9
1569267672.18151,1569267672,181507010,1.228999972,-0.100013465,-0.195483834,1.27699995,0.165236562,-0.128588304,1.062000036,0.030662257,0.108277172,0.277734741516941,0.347045328893715,0.121175861329,-0.0481267434789,-0.178170986101,-2.552277,8.78572275,-0.95219565,1
1569267672.35291,1569267672,352907775,1.225999951,-0.099769332,-0.195006654,1.284999967,0.166271716,-0.127310619,1.062000036,0.032384105,0.109998904,0.280787453892904,0.352094690831571,-0.175530111511,0.0373943898691,-0.00887404865742,-2.6700744,8.96241885,0.3141264,1
1569267672.5157,1569267672,515701748,1.222000003,-0.099443816,-0.194370419,1.281999946,0.165883541,-0.133248568,1.059999943,0.030604513,0.109791748,0.27880903895368,0.355883424663196,-0.0393944298548,0.351553655229,-0.155481705825,-3.3179601,10.5232344,2.77805535,1
1569267672.68286,1569267672,682864559,1.223999977,-0.093653068,-0.190719813,1.274000049,0.17104508,-0.128286213,1.07099998,0.030922107,0.110931098,0.276519567415391,0.343610822673609,-0.255815257103,-0.364031338091,-0.755874968513,-2.0221887,8.5010457,-1.2957714,9
1569267672.84866,1569267672,848655505,1.235999942,-0.09256728,-0.182570517,1.279999971,0.171850637,-0.099838272,1.078999996,0.024155445,0.110010423,0.280530678795314,0.325962167257368,-0.0324131128468,-0.0935053040309,-0.410299776617,-4.01492805,8.6973747,0.3533922,1
1569267673.01442,1569267673,14421866,1.233999968,-0.082413919,-0.180274516,1.284999967,0.170438528,-0.098145008,1.057000041,0.027090415,0.107767396,0.270703926709994,0.339017058387518,-0.0219411373348,0.0653196579011,-0.0472712922014,-3.30814365,9.33544395,-0.2944935,1
1569267673.17742,1569267673,177422656,1.233999968,-0.084414631,-0.180274516,1.279999971,0.169775337,-0.093612812,1.046000004,0.028504398,0.108341672,0.272467963342527,0.339851550488811,-0.0201958080828,0.0234317558531,-0.0594885969654,-3.6713523,9.76736775,-0.3141264,1
1569267673.35034,1569267673,350343402,1.233999968,-0.082413919,-0.180274516,1.274000049,0.168979511,-0.093174003,1.039000034,0.023259971,0.107616626,0.269044907946675,0.341725135279844,-0.199964721039,-0.0795426700149,-0.336995948033,-3.5731878,8.56976085,-0.52027185,1
1569267673.51185,1569267673,511848705,1.228999972,-0.082079984,-0.179544076,1.274000049,0.164848387,-0.08284688,1.047999978,0.018364007,0.103451729,0.268977647861271,0.327476529527422,0.0845239470372,-0.0620893774949,-0.101376499013,-4.21125705,8.68755825,-0.14724675,1
1569267673.68727,1569267673,687271189,1.230999947,-0.082213558,-0.179836258,1.27699995,0.161095694,-0.089252837,1.046000004,0.016633056,0.104950093,0.263667875451035,0.334582137674005,-0.00448784481477,-0.0743066822589,-0.127556437793,-4.21125705,8.92315305,0.1766961,1
1569267673.84017,1569267673,840166746,1.228999972,-0.080087379,-0.179544076,1.274000049,0.154520541,-0.08284688,1.036999941,0.016489942,0.107409477,0.257713466413757,0.333794815464863,0.112449215069,-0.00623884143093,-0.108357816021,-4.6726302,8.2261851,0.52027185,1
1569267673.99365,1569267673,993647337,1.228999972,-0.082079984,-0.179544076,1.271999955,0.154277965,-0.082716823,1.034999967,0.016458137,0.107202321,0.259016593130658,0.333515487735791,0.0600893375092,0.0373943898691,-0.0559979384614,-4.30942155,8.31453315,-1.1583411,1
1569267674.15321,1569267674,153207243,1.230999947,-0.080217704,-0.179836258,1.26699996,0.153671533,-0.080337606,1.029999971,0.01637863,0.105014585,0.256710260547294,0.33071705536405,-0.0900089781628,0.000742475577068,-0.0158553656654,-5.4579462,7.9709574,0.4515567,1
1569267674.31552,1569267674,315521540,1.225999951,-0.081879631,-0.179105803,1.26699996,0.153671533,-0.078283526,1.023000002,0.014608704,0.102642395,0.259481180703379,0.334078791310049,0.105467898061,0.108952889201,0.952802369195,-3.85786485,5.9095029,-0.9620121,7
1569267674.48387,1569267674,483870058,1.218999982,-0.075482942,-0.180059433,1.261000037,0.150899306,-0.094267599,1.021999955,0.011280435,0.10419894,0.245709514692899,0.34059277067777,-0.236616635331,0.0880089381771,0.211037437095,-0.14724675,15.12714945,-0.61843635,7
1569267674.65246,1569267674,652460067,1.235999942,-0.082547486,-0.180566698,1.292999983,0.16730687,-0.144873023,1.00999999,0.01442306,0.099700622,0.258747448917244,0.404077620299247,0.716333136261,-0.562998872819,-1.56221708294,-1.6491636,6.76353405,0.53990475,9
1569267674.82212,1569267674,822116110,1.243999958,-0.085098706,-0.181735411,1.292999983,0.173595995,-0.119718298,1.013000011,0.014465901,0.098354474,0.270499672976392,0.388944861161854,-0.220908672063,-0.175535778875,-0.150245718069,-4.8296934,8.3832483,0.20614545,1
1569267674.98152,1569267674,981524964,1.233999968,-0.084414631,-0.182275102,1.287999988,0.172924697,-0.096286014,0.994000018,0.015806174,0.101344176,0.276647167255629,0.387530520900146,0.152591787865,0.0548476823891,0.404768984067,-3.32777655,10.6999305,0.08834805,9
1569267675.1561,1569267675,156098410,1.228999972,-0.084072597,-0.18153654,1.279999971,0.161474153,-0.095687971,0.986999989,0.015694862,0.100630485,0.265073920129669,0.381630092239444,-0.145859514227,-0.0428907557229,-0.183406973857,-4.11309255,9.13911495,-1.14852465,1
1569267675.32042,1569267675,320421813,1.228999972,-0.084072597,-0.18153654,1.279999971,0.161474153,-0.087387361,0.986000001,0.014080334,0.097331494,0.26787734924763,0.377202830890645,-0.285485854387,-0.0690706945029,-0.181661644605,-4.4763012,8.94278595,-0.57917055,1
1569267675.48358,1569267675,483580017,1.233999968,-0.082413919,-0.182275102,1.271999955,0.160464942,-0.080654643,0.980000019,0.013994653,0.098328002,0.266009131083931,0.372494691767472,-0.0847729904068,-0.0882693162749,-0.178170986101,-4.66281375,8.2261851,0.14724675,1
1569267675.64673,1569267675,646733993,1.230999947,-0.082213558,-0.181831971,1.271999955,0.158402622,-0.078592464,0.984000027,0.010861006,0.095538795,0.265019890837264,0.367469974747355,0.149101129361,-0.00798417068293,-0.0769418894854,-4.54501635,8.6777418,0.588987,1
1569267675.81539,1569267675,815386639,1.238999963,-0.082747847,-0.183013648,1.271999955,0.162527263,-0.078592464,0.986000001,0.010883081,0.094134465,0.268612476861135,0.366914872448941,0.0182014354612,-0.00972949993493,0.106317681975,-4.01492805,7.64701455,0.75586665,9
1569267675.98108,1569267675,981076146,1.230999947,-0.082213558,-0.181831971,1.269000053,0.162143946,-0.072235145,0.975000024,0.010761667,0.094664969,0.270492258828964,0.370416332658871,-0.135387538715,0.286976472905,1.95462135984,-6.13528125,6.4199583,-0.06871515,7
1569267676.1558,1569267676,155795555,1.241000056,-0.082881421,-0.183309078,1.269000053,0.149799183,-0.105152242,0.967000008,0.010673366,0.095455937,0.247048080995048,0.388334471322873,-1.11626257834,0.379478923261,-0.905973284185,-4.2014406,11.6423097,1.42338525,9
1569267676.3182,1569267676,318202545,1.222000003,-0.083593741,-0.188427046,1.299000025,0.155446634,-0.145545289,0.976000011,0.013937531,0.093179755,0.254770778056566,0.425844433929418,0.341087347081,-0.302944814271,-1.25678446384,-1.32522075,6.9696795,0.18651255,9
1569267676.49073,1569267676,490733442,1.230999947,-0.092192814,-0.189814806,1.289999962,0.166918695,-0.111075073,0.984000027,0.014051774,0.095538795,0.27716370869789,0.39961674915592,-0.236616635331,-0.0620893774949,-0.150245718069,-3.58300425,9.5415894,-0.46137315,1
1569267676.65074,1569267676,650738812,1.233999968,-0.090416774,-0.190277398,1.281999946,0.16172646,-0.097915873,0.986999989,0.009293871,0.094229937,0.272783539899872,0.383641344382746,-0.262796574111,0.0164504388451,-0.305580021497,-4.7315289,6.9696795,-0.63806925,9
1569267676.82018,1569267676,820180173,1.235999942,-0.09256728,-0.188581973,1.281999946,0.16172646,-0.0875239,0.986000001,0.010883081,0.098930009,0.27747800037059,0.380965553048463,-0.454782791831,0.175275400777,0.338446472491,-2.2577835,6.64573665,-0.7067844,9
1569267676.98673,1569267676,986732343,1.230999947,-0.09019696,-0.189814806,1.279999971,0.155248269,-0.081161909,0.977999985,0.007623469,0.099712878,0.272854933650384,0.3817234099336,-0.309920463915,-0.266292899979,2.29321523473,-2.3363151,18.4941918,4.25052285,7
1569267677.15385,1569267677,153848586,1.233999968,-0.088416062,-0.188276827,1.27699995,0.146602675,-0.12237744,0.98299998,0.002881156,0.09384805,0.247841752737611,0.392231207209993,-0.187747416275,0.416130837553,-0.0141100364134,-1.48228395,12.4079928,1.6687965,9
1569267677.32313,1569267677,323126702,1.225999951,-0.089830607,-0.195006654,1.284999967,0.153771296,-0.143976673,0.981000006,0.004465814,0.092066698,0.255786919122308,0.412825115801228,0.602886734881,-0.226150327183,-0.916445259697,-2.11053675,7.9316916,0.04908225,9
1569267677.48629,1569267677,486294284,1.230999947,-0.100176215,-0.197797656,1.281999946,0.159647927,-0.114543028,0.981000006,0.007646853,0.093657106,0.277562457381135,0.396298607333883,0.0548533497532,-0.0585987189909,-0.157227035077,-3.38667525,8.80535565,1.1190753,1
1569267677.65125,1569267677,651248236,1.241000056,-0.098977931,-0.197392538,1.279999971,0.155248269,-0.095687971,0.98299998,0.002881156,0.0922544,0.276578692391704,0.38307579745405,-0.137132867967,-0.0219468046989,-0.275909424213,-4.36832025,7.5194007,-0.1766961,9
1569267677.8187,1569267677,818700087,1.233999968,-0.098419636,-0.196279123,1.287999988,0.154130295,-0.083757289,0.981000006,0.002875294,0.092066698,0.281706643398463,0.384761144971899,-0.240107293835,0.204945998061,0.476327483399,-3.3572259,2.2185177,0.6086199,9
1569267677.98496,1569267677,984959379,1.230999947,-0.094188668,-0.195801944,1.281999946,0.153412297,-0.081288718,0.976000011,0.001278226,0.091597453,0.277525704567808,0.38297567011767,-1.07612000554,0.196219351801,-0.110103145273,-0.73623375,11.08277205,0.4319238,1
1569267678.15608,1569267678,156076874,1.225999951,-0.093806095,-0.195006654,1.287999988,0.147865504,-0.144312814,0.984000027,0.001288703,0.092348248,0.254595820400029,0.412200428367515,0.670954575709,0.0810276211691,-1.32310697541,-2.34613155,8.96241885,1.65898005,9
1569267678.3296,1569267678,329599956,1.243999958,-0.107284918,-0.199886501,1.281999946,0.151333764,-0.135326967,0.980000019,0.001283464,0.09197285,0.269249986439581,0.406674630689362,0.278255494009,0.00772379258507,-0.576106055557,-1.96329,8.2654509,-1.06999305,9
1569267678.48521,1569267678,485212483,1.228999972,-0.105991289,-0.197476298,1.287999988,0.154130295,-0.098374136,0.990999997,0.002904603,0.093005203,0.284544335497552,0.384323114021205,0.229386274953,-0.0254374632029,-0.220058888149,-3.77933325,8.442147,-0.22577835,1
1569267678.65385,1569267678,653853047,1.243999958,-0.107284918,-0.199886501,1.300999999,0.153576627,-0.084602669,0.990999997,0.00129787,0.096218444,0.290840355271398,0.389852659321472,0.0426360449892,-0.0498720727309,0.153441571779,-3.15108045,9.3648933,2.05163805,1
1569267678.81766,1569267678,817655285,1.233999968,-0.102421068,-0.198279709,1.287999988,0.14577724,-0.081669167,0.990999997,-0.000308863,0.101038307,0.279493149754331,0.378063705212742,0.105467898061,0.0792822919171,1.06973942908,-1.1190753,1.22705625,0.20614545,9
1569267678.98712,1569267678,987124348,1.235999942,-0.102587067,-0.198601067,1.279999971,0.138645902,-0.097763121,0.990999997,0.00129787,0.097825065,0.265137019742726,0.375020273277385,-1.14069718787,0.295703119165,0.256415997647,-0.0588987,14.59706115,1.9436571,9
1569267679.15912,1569267679,159119975,1.241000056,-0.10702619,-0.199404463,1.287999988,0.137424171,-0.146400928,0.990999997,0.00129787,0.093005203,0.254508049624233,0.405036615676079,0.266038189245,-0.255820924467,-1.46971463258,-1.85530905,7.21509075,1.8847584,9
1569267679.31946,1569267679,319459759,1.235999942,-0.10659498,-0.198601067,1.289999962,0.152278125,-0.123623259,0.989000022,0.001295251,0.09442088,0.274868983962953,0.401173327470253,-0.149350172731,0.0740463041611,-0.453933007917,-2.83695405,8.5795773,-0.1570632,9
1569267679.487,1569267679,486998684,1.233999968,-0.106422499,-0.200280279,1.292999983,0.152632266,-0.092467345,0.995000005,0.001303109,0.096606813,0.286729841099412,0.383996794087842,0.0478720327452,-0.0202014754469,-0.158972364329,-4.34868735,9.11948205,-0.52027185,1
1569267679.65545,1569267679,655451366,1.235999942,-0.10859894,-0.198601067,1.289999962,0.148095101,-0.088070072,0.991999984,0.00129918,0.096315533,0.28464879009158,0.379935626970484,0.0635799960132,-0.0638347067469,-0.141519071809,-3.92658,8.58939375,0.4319238,1
1569267679.82055,1569267679,820547424,1.238999963,-0.110871352,-0.199083105,1.287999988,0.14577724,-0.079581045,0.994000018,0.001301799,0.094898231,0.287315583583325,0.371149771878725,0.0845239470372,-0.0481267434789,-0.0507619507054,-4.5351999,9.6593868,1.32522075,1
1569267679.98326,1569267679,983261257,1.230999947,-0.108159624,-0.199793369,1.279999971,0.138645902,-0.079086751,0.990999997,0.00129787,0.096218444,0.27907715357072,0.364852543173625,-0.0254317958388,0.0600836701451,-0.0961405112574,-4.4174025,9.4434249,-0.0588987,1
1569267680.15945,1569267680,159451065,1.233999968,-0.11042393,-0.200280279,1.279999971,0.142796487,-0.07493645,0.986000001,-0.000307304,0.095732979,0.286265008916624,0.368839709567393,-0.0900089781628,-0.00449351217893,-0.164208352085,-4.40758605,8.7562734,0.5693541,1
1569267680.3228,1569267680,322802420,1.235999942,-0.110602893,-0.200604886,1.279999971,0.136570603,-0.072861299,0.98299998,-0.000306369,0.097035356,0.281689835983639,0.368522961968556,-0.0969902951708,-0.0167108169429,-0.0333086581854,-4.97694015,8.92315305,-0.40247445,1
1569267680.48992,1569267680,489921169,1.238999963,-0.110871352,-0.201091781,1.279999971,0.134495303,-0.064560689,0.990999997,-0.005129062,0.094611824,0.283771977342023,0.358262246362059,-0.0603383808788,-0.0184561461949,-0.0874138649974,-4.87877565,7.13655915,0.46137315,9
1569267680.6576,1569267680,657598432,1.233999968,-0.11042393,-0.200280279,1.269000053,0.129224569,-0.074292466,0.981000006,-0.003486786,0.09683793,0.273000619133883,0.360335875611984,-0.156331489739,0.143859474241,0.640388433087,-4.21125705,7.80407775,0.5104554,9
1569267680.82168,1569267680,821680714,1.238999963,-0.110871352,-0.201091781,1.269000053,0.129224569,-0.080464423,0.981000006,-0.005077306,0.095247522,0.270364598605118,0.363119413301191,0.377739261373,-0.107467938047,2.46600283068,-1.9436571,16.7075979,-0.3730251,7
1569267680.98782,1569267680,987824400,1.228999972,-0.107983895,-0.203453705,1.284999967,0.132937282,-0.116894327,0.981000006,-0.003486786,0.095247522,0.26205254985749,0.395008438789362,2.18939102495,-0.451297800691,-0.801253529065,-3.30814365,10.25819025,0.46137315,9
1569267681.15433,1569267681,154325814,1.228999972,-0.113961719,-0.205446184,1.300999999,0.14935793,-0.137332588,1.057000041,0.003098048,0.107767396,0.281355119728672,0.375502243326796,3.76018735175,0.232871266093,-0.0158553656654,-2.2774164,5.46776265,-2.944935,9
1569267681.32597,1569267681,325973360,1.223999977,-0.101591073,-0.198657259,1.309999943,0.175878391,-0.121292323,1.171000004,0.009127895,0.121288806,0.300617083557692,0.325533892406251,1.01827509686,-0.444316483683,0.916150454903,-2.7878718,5.3597817,-10.49378505,9
1569267681.48847,1569267681,488474045,1.235999942,-0.098579146,-0.17856288,1.325999975,0.223173931,-0.127073213,1.256000042,0.038299847,0.121947892,0.338047680522644,0.317946423616094,0.463260394721,-0.556017555811,0.368117069775,-1.93384065,2.36576445,-11.14167075,5
1569267681.65861,1569267681,658607520,1.222000003,-0.061799891,-0.156729117,1.312000036,0.246343791,-0.144874841,1.274000049,0.080160089,0.125760973,0.321236764016827,0.319851161701607,-1.85453685193,-0.667718627939,0.416986288831,-2.32649865,3.8873142,-8.0887548,9
1569267681.82596,1569267681,825961018,1.222000003,-0.038024783,-0.17654033,1.27699995,0.24391298,-0.13686946,1.264000058,0.110271215,0.12272463,0.289978748017857,0.292263939115408,-0.215672684307,-0.700879883727,-0.104867157517,-4.28978865,7.1856414,-5.44812975,9
1569267681.98923,1569267681,989233205,1.207000017,-0.03951497,-0.193941325,1.271999955,0.278017491,-0.113649555,1.246000052,0.124862261,0.12097697,0.333914096824997,0.281393186957215,-4.93329765246,1.50870694931,0.123770974495,-2.5130112,7.17582495,-1.05036015,5
1569267682.16232,1569267682,162322637,1.19599998,-0.056606792,-0.205746636,1.289999962,0.325873405,-0.073430531,1.261000037,0.110009491,0.122433357,0.415493260300971,0.292917885489913,-6.08172430028,0.601135738265,2.6178464756,5.50702845,2.62099215,8.8151721,8
1569267682.32405,1569267682,324053943,1.172999978,-0.065027267,-0.197986603,1.389000058,0.328362077,-0.061050985,1.27699995,0.082419284,0.119846255,0.469214848454094,0.325201004088656,-0.933003006879,0.203200668809,0.931858418171,3.1019982,4.32905445,11.976069,8
1569267682.48863,1569267682,488627143,1.139999986,-0.046563063,-0.185023919,1.453999996,0.242359713,-0.115767278,1.312000036,0.029371589,0.114622876,0.432283308831314,0.344394472466073,-0.365770999979,0.156076779005,1.16747786719,0.04908225,1.9043913,10.61158245,8
1569267682.64424,1569267682,644237726,1.152999997,-0.01905323,-0.190872356,1.468000054,0.147108987,-0.140681356,1.360999942,-0.022490414,0.112284355,0.359658247158825,0.322807422048048,0.320143396057,-0.0132201584389,-0.174680327597,-0.69696795,0.9620121,9.227463,5
1569267682.79773,1569267682,797727763,1.152999997,-0.037747107,-0.187133849,1.450999975,0.105412185,-0.150814101,1.371000052,-0.053775374,0.124222778,0.332592383960796,0.327697957623243,-0.268032561867,0.0373943898691,0.141224267015,-0.1374303,-0.69696795,9.6593868,5
1569267682.95579,1569267682,955786694,1.152999997,-0.08261241,-0.187133849,1.424000025,0.073436722,-0.157242194,1.383000016,-0.092365026,0.125310063,0.314143053102553,0.330162078854689,-0.0411397591068,-0.0533627312349,-0.590068689573,0,-0.12761385,10.82754435,5
1569267683.12471,1569267683,124714696,1.146999955,-0.13983196,-0.201036274,1.411000013,0.049889408,-0.155806705,1.389000058,-0.113033928,0.125853717,0.328231537198546,0.326129736078434,-0.0359037713508,-0.0585987189909,-0.494075580713,-0.44174025,1.85530905,9.92443095,5
1569267683.2896,1569267683,289598696,1.171000004,-0.144656405,-0.203344345,1.386000037,0.022039594,-0.162034124,1.379999995,-0.119013816,0.125038251,0.275171046136177,0.319910320972566,0.218914299441,-0.0132201584389,-0.288126728977,-0.0588987,0.8834805,9.51214005,5
1569267683.4583,1569267683,458301456,1.18599999,-0.156123847,-0.200180829,1.371000052,0.010686886,-0.169171244,1.368000031,-0.13794066,0.121733136,0.251022783718676,0.326687168188723,0.562744162085,0.0670649871531,-0.260201460945,-0.196329,-0.196329,9.423792,5
1569267683.62634,1569267683,626341798,1.174999952,-0.166106164,-0.209753722,1.376999974,0.006268527,-0.163214371,1.35800004,-0.136932328,0.123044878,0.269597763671821,0.320642854283047,0.161318434125,-0.00972949993493,-0.199114937125,-0.4122909,0.06871515,9.70846905,5
1569267683.7901,1569267683,790098020,1.177000046,-0.177838683,-0.206294417,1.35800004,0.001778515,-0.167567134,1.355999947,-0.138929173,0.122863665,0.257920798102699,0.322726978794913,-0.192983404031,-0.0760520115109,-0.120575120785,-0.97182855,1.8651255,10.2680067,5
1569267683.9551,1569267683,955096745,1.177000046,-0.200738281,-0.206294417,1.355999947,-0.007018172,-0.171717077,1.353000045,-0.140815467,0.120398343,0.266015107898889,0.321313140352372,0.489440333501,0.274759168141,-0.790781553553,-1.2172398,1.85530905,10.12075995,7
1569267684.12824,1569267684,128242673,1.172999978,-0.207663342,-0.207495019,1.389000058,-0.000432906,-0.157881126,1.347000003,-0.138007075,0.119864427,0.303417248262804,0.312783069886014,6.58413008149,0.615098372281,1.71027526456,4.122909,2.58172635,10.84717725,7
1569267684.29071,1569267684,290708683,1.184000015,-0.221128628,-0.207521319,1.424000025,0.02495262,-0.131847531,1.335000038,-0.13677761,0.120960914,0.351969469709386,0.313033184894463,1.30101843568,-1.78472934922,-0.481858275949,-4.99657305,8.35379895,6.0076674,3
1569267684.46299,1569267684,462991977,1.256000042,-0.252903104,-0.201814666,1.39199996,0.006336812,-0.110830843,1.340999961,-0.137392342,0.121504553,0.306560545066369,0.277918703656362,-0.109207599935,-0.878903467431,-0.0106193779094,-2.01237225,9.27654525,1.3154043,1
1569267684.63028,1569267684,630275844,1.27699995,-0.246779412,-0.207259253,1.376999974,-0.00712686,-0.123031005,1.338000059,-0.137084976,0.125571102,0.272997707391954,0.283219195834456,-1.259379577,1.06190266079,1.01563422227,-2.85658695,9.9146145,-2.48356185,7
1569267684.78979,1569267684,789786699,1.251000047,-0.241754934,-0.203039408,1.376999974,-0.004894296,-0.127495825,1.350000024,-0.13174808,0.126697287,0.27872168263386,0.285368214774115,-0.325628427183,0.253815217117,0.341937130995,-0.5693541,7.92187515,3.95602935,9
1569267684.95408,1569267684,954082501,1.228999972,-0.227540404,-0.207438648,1.40199995,0.04957119,-0.118445866,1.363999963,-0.117633946,0.128011197,0.338584617437533,0.300237639911062,-2.77083470923,-0.262802241475,0.284341265679,1.56081555,9.9931461,4.34868735,3
1569267685.13015,1569267685,130154589,1.253999949,-0.21183756,-0.203526318,1.434000015,0.113477089,-0.109525241,1.373999953,-0.085080855,0.124494597,0.383491651918471,0.312714804803126,-5.86355814378,0.203200668809,-1.27423775636,5.95858515,9.61030455,11.3478162,3
1569267685.29422,1569267685,294224728,1.172999978,-0.097358115,-0.139034465,1.468000054,0.178050354,-0.112122074,1.355999947,-0.024606306,0.131657124,0.404473913159139,0.336217255934151,0.433589797437,-0.501912348999,-0.790781553553,-0.7656831,5.15363625,8.35379895,5
1569267685.46033,1569267685,460332286,1.213999987,0.025209388,-0.171448275,1.450999975,0.253622383,-0.110823661,1.343999982,0.051878579,0.130492017,0.334689160893387,0.332239096740571,-0.175530111511,-0.238367631947,-0.488839592957,0.2552277,4.74134535,7.7942613,5
1569267685.61915,1569267685,619152860,1.213999987,0.046860561,-0.175384581,1.414000034,0.315931708,-0.107997693,1.312000036,0.120840259,0.129512087,0.341965339796627,0.323844976278108,-0.332609744191,-0.224404997931,-0.316051997009,-0.2552277,4.91804145,8.78572275,5
1569267685.79027,1569267685,790273701,1.19599998,0.042287551,-0.168906212,1.389000058,0.350882292,-0.110591985,1.289999962,0.162735671,0.125249028,0.36861944244908,0.317523469076843,0.0234374232172,-0.0585987189909,-0.211332241889,-0.1177974,5.05547175,8.05930545,5
1569267685.95172,1569267685,951716979,1.18599999,0.070777349,-0.190567046,1.368000031,0.354449272,-0.126662523,1.279999971,0.18015182,0.120127805,0.34304163432793,0.314688859555027,0.224150287197,0.0199410973491,-0.148500388817,-0.14724675,5.300883,8.834805,5
1569267686.12447,1569267686,124470453,1.174999952,0.064405724,-0.19070448,1.368000031,0.361103177,-0.126662523,1.274000049,0.181372926,0.115433857,0.35969401074675,0.315831627532183,0.358540639601,0.0129597803411,-0.113593803777,-0.6086199,5.29106655,7.96114095,5
1569267686.29783,1569267686,297830210,1.167999983,0.081065401,-0.189568371,1.360999942,0.350428939,-0.130427331,1.271999955,0.181088194,0.113190457,0.336605648185173,0.309752985834145,-0.313411122419,-0.568234860575,-0.450442349413,-0.3337593,4.6726302,8.15746995,5
1569267686.46542,1569267686,465421061,1.18900001,0.0613176,-0.179483354,1.379999995,0.346371323,-0.127773598,1.264000058,0.171751857,0.114527784,0.347002187502817,0.320402720040325,-0.316901780923,-0.240112961199,-0.0961405112574,1.0405437,6.5377557,8.41269765,5
1569267686.62675,1569267686,626748222,1.217000008,0.003567006,-0.179764017,1.373999953,0.324816048,-0.127218053,1.271999955,0.152215645,0.115252644,0.361401449981333,0.314621896268248,0.599396076377,-0.596160128607,0.298303899695,-0.71660085,7.66664745,6.2432622,3
1569267686.79439,1569267686,794392824,1.223999977,-0.014272994,-0.178813621,1.350000024,0.275366634,-0.131561816,1.26699996,0.126966685,0.114799604,0.319374167752714,0.299341785842911,-0.589173144235,-0.00798417068293,-0.00887404865742,-1.40375235,7.1463756,5.1438198,5
1569267686.9647,1569267686,964700816,1.235999942,-0.064511865,-0.170547605,1.353000045,0.254042029,-0.125273675,1.258999944,0.101670019,0.118156955,0.342367253431485,0.302178291810724,1.4458807636,-0.0254374632029,0.0155605608706,-3.2983272,9.2078301,4.1818077,3
1569267687.13034,1569267687,130342052,1.202999949,-0.01207766,-0.185497329,1.343999982,0.232740626,-0.124440365,1.264000058,0.081580244,0.120675422,0.289041442216988,0.298883251392615,0.471987040981,-0.194734400647,-0.431243727641,-4.27015575,10.0716777,1.1976069,1
1569267687.30076,1569267687,300757565,1.233999968,0.017621838,-0.188276827,1.317999959,0.221827477,-0.122033037,1.264000058,0.067234762,0.12272463,0.23053021754417,0.29448465561785,0.140374483101,-0.172045120371,-0.757620297765,-2.944935,8.35379895,0.9227463,9
1569267687.46346,1569267687,463458343,1.241000056,0.001625285,-0.185321003,1.309999943,0.218357101,-0.104302019,1.197999954,0.067608781,0.122143179,0.241449249825016,0.294187833222385,0.410900517161,0.245088570857,-0.115339133029,-3.77933325,9.61030455,-0.34357575,1
1569267687.63121,1569267687,631213492,1.248999953,0.009735902,-0.184490755,1.315000057,0.20426622,-0.096172541,1.174999952,0.066310778,0.114083417,0.223602695138815,0.287818173943071,-0.285485854387,0.154331449753,-0.174680327597,-3.2394285,8.84462145,-0.9423792,1
1569267687.78936,1569267687,789356900,1.246000052,0.017793201,-0.182027593,1.317999959,0.204732239,-0.092118427,1.166000009,0.069583796,0.111319259,0.219576521211148,0.287673388637812,-0.0969902951708,0.100226242941,-0.0420353044454,-3.92658,8.6973747,0.2355948,1
1569267687.95821,1569267687,958213578,1.243999958,0.019781569,-0.181735411,1.32099998,0.20305647,-0.090186484,1.149000049,0.072295092,0.109696247,0.218860454992243,0.294339294679596,0.00772945994923,-0.0708160237549,-0.138028413305,-4.23088995,8.0887548,1.1387082,1
1569267688.13012,1569267688,130121741,1.235999942,0.019654356,-0.180566698,1.307000041,0.198785394,-0.089230686,1.139999986,0.071728811,0.108837008,0.213239794412374,0.28855364329725,0.0688159837692,-0.0411454264709,-0.0158553656654,-4.2210735,8.07893835,0.3533922,1
1569267688.29716,1569267688,297156954,1.233999968,0.019622553,-0.182275102,1.312000036,0.19954586,-0.083190955,1.139999986,0.06618388,0.106988825,0.219713620871667,0.289029035964159,0.0653253252652,0.257305875621,1.10290068487,-1.3350372,2.4148467,2.9056692,4
1569267688.4681,1569267688,468101125,1.233999968,0.017621838,-0.180274516,1.315000057,0.202134192,-0.083381176,1.131999969,0.063884087,0.102567606,0.223593699671938,0.295261025649852,-1.60670009815,0.136878157233,-0.0158553656654,-0.4515567,17.0413572,2.71915665,7
1569267688.62684,1569267688,626835388,1.230999947,0.013587295,-0.181831971,1.328999996,0.19782196,-0.127360702,1.129999995,0.061939124,0.102386385,0.215669980614213,0.332939738544963,0.759966367561,-0.00100285367493,-2.27605674701,-1.3546701,7.39178685,0.7656831,3
1569267688.79147,1569267688,791469181,1.225999951,0.005581129,-0.189043835,1.340999961,0.206130758,-0.111118324,1.121999979,0.063319743,0.099842526,0.243962171773922,0.335947106482632,-0.0481210761148,0.00423313408107,-0.651155213393,-4.0836432,9.43360845,-0.2552277,9
1569267688.95744,1569267688,957443560,1.225999951,0.005581129,-0.189043835,1.338000059,0.201330945,-0.093516283,1.128000021,0.060000639,0.102205172,0.244923514279781,0.319970560054159,-0.0603383808788,-0.0551080604869,-0.235766851417,-4.15235835,9.3452604,-0.91292985,1
1569267689.12435,1569267689,124352276,1.223999977,0.003587522,-0.18873544,1.325999975,0.197375417,-0.086228386,1.128000021,0.058171786,0.102205172,0.241796286076296,0.306739039654436,0.379484590625,0.0810276211691,1.90575214079,-2.7682389,1.30558785,-2.1007203,7
1569267689.29855,1569267689,298545772,1.233999968,0.003616832,-0.190277398,1.309999943,0.186498061,-0.097930655,1.128000021,0.056342933,0.102205172,0.218516500665874,0.30019773183966,0.351559322593,-0.372757984351,0.109808340479,-2.9645679,13.81174515,0.93256275,9
1569267689.46104,1569267689,461036237,1.225999951,0.00160564,-0.19699426,1.340999961,0.188737184,-0.135032833,1.126000047,0.05441742,0.098372988,0.228215765221644,0.344594020983689,0.524346918541,-0.0516174019829,-0.761110956269,-2.1203532,9.43360845,-0.53990475,9
