rosbagTimestamp,header,seq,stamp,secs,nsecs,frame_id,orientation,x,y,z,w,orientation_covariance,angular_velocity,x_1,y_1,z_1,angular_velocity_covariance,linear_acceleration,x_2,y_2,z_2,linear_acceleration_covariance,Label
1.56925000541189e+18,NaN,53368,NaN,1569250005,346209049,NaN,NaN,0.536599757608,0.29682017193,0.149567712669,0.775621031817,NaN,NaN,0.0377334398782,-0.0121842567818,0.0224933833807,NaN,NaN,-1.177974,9.64957035,-0.06871515,NaN,1
1.56925000551701e+18,NaN,53369,NaN,1569250005,409914016,NaN,NaN,0.53805533121,0.298592189046,0.151606383737,0.773533883942,NaN,NaN,0.0569320616502,-0.0436001833178,-0.0193945186673,NaN,NaN,-1.26632205,9.8360829,-0.3730251,NaN,1
1.56925000551968e+18,NaN,53370,NaN,1569250005,516216039,NaN,NaN,0.537430271044,0.299342352574,0.153878995204,0.773229664819,NaN,NaN,-0.0163717669338,-0.0418548540658,-0.0141585309113,NaN,NaN,-1.2368727,9.5415894,-0.1177974,NaN,1
1.56925000558768e+18,NaN,53371,NaN,1569250005,518659114,NaN,NaN,0.537422702145,0.301465070121,0.15755913545,0.771667525267,NaN,NaN,0.0988199636982,-0.0453455125698,-0.0124132016593,NaN,NaN,-1.2172398,9.7182855,0,NaN,1
1.56925000573083e+18,NaN,53372,NaN,1569250005,586555957,NaN,NaN,0.540644447112,0.302617123851,0.159019411951,0.768660708493,NaN,NaN,0.111037268462,-0.0627988050898,0.00154943235673,NaN,NaN,-1.26632205,9.72810195,-0.3533922,NaN,1
1.56925000573256e+18,NaN,53373,NaN,1569250005,729501008,NaN,NaN,0.537011234879,0.305224322534,0.162785772453,0.769387963796,NaN,NaN,-0.0547690104778,0.00352370648623,-0.0228851771713,NaN,NaN,-1.2172398,9.620121,-0.12761385,NaN,1
1.56925000576634e+18,NaN,53374,NaN,1569250005,731652021,NaN,NaN,0.5369431965,0.307408843205,0.166392571849,0.767792497284,NaN,NaN,-0.0233530839418,0.00701436499023,-0.0281211649273,NaN,NaN,-1.26632205,9.7379184,-0.28467705,NaN,1
1.56925000587937e+18,NaN,53375,NaN,1569250005,765233039,NaN,NaN,0.536427849014,0.309518946922,0.169571036255,0.766608666767,NaN,NaN,-0.0285890716978,-0.0174202445378,-0.0316118234313,NaN,NaN,-1.20742335,9.6986526,-0.28467705,NaN,1
1.56925000588066e+18,NaN,53376,NaN,1569250005,877795934,NaN,NaN,0.541376715286,0.310668465363,0.169168070261,0.762744072923,NaN,NaN,0.111037268462,-0.0540721588298,-0.00892254315527,NaN,NaN,-1.34485365,9.5612223,-0.0981645,NaN,1
1.56925000588255e+18,NaN,53377,NaN,1569250005,879646062,NaN,NaN,0.541125694792,0.312811794004,0.172727094026,0.761247078784,NaN,NaN,-0.150762119338,0.0262129867622,-0.0159038601633,NaN,NaN,-1.2761385,9.5415894,-0.22577835,NaN,1
1.56925000602816e+18,NaN,53378,NaN,1569250005,881479978,NaN,NaN,0.541422051288,0.314948685321,0.176084244386,0.75938384686,NaN,NaN,0.46708443587,-0.0907240731218,0.0713626024367,NaN,NaN,-1.2172398,9.51214005,-0.4515567,NaN,4
1.56925000609064e+18,NaN,53379,NaN,1569250006,26746988,NaN,NaN,0.534786283742,0.314510299573,0.181653077014,0.762947614057,NaN,NaN,-0.122836851306,-0.0174202445378,-0.000195896895269,NaN,NaN,-1.2565056,9.98332965,-0.26504415,NaN,1
1.56925000609263e+18,NaN,53380,NaN,1569250006,89710950,NaN,NaN,0.534047473749,0.317235573093,0.183760886444,0.761831230365,NaN,NaN,-0.0058997914218,-0.00694826902577,-0.0525557744553,NaN,NaN,-1.20742335,9.4434249,-0.0981645,NaN,1
1.5692500060967e+18,NaN,53381,NaN,1569250006,91783046,NaN,NaN,0.533972208565,0.319382010677,0.187085118981,0.760176275605,NaN,NaN,0.0167894888542,-0.00694826902577,0.0207480541287,NaN,NaN,-1.44301815,9.57103875,-0.32394285,NaN,1
1.56925000619668e+18,NaN,53382,NaN,1569250006,95449924,NaN,NaN,0.53368918781,0.321428724645,0.190421630704,0.758682429181,NaN,NaN,-0.16123409485,-0.0174202445378,-0.0647730792193,NaN,NaN,-1.2172398,9.8557158,-0.40247445,NaN,4
1.56925000619832e+18,NaN,53383,NaN,1569250006,195893049,NaN,NaN,0.530245831322,0.32340189462,0.192250592772,0.759796211165,NaN,NaN,-0.0687316444938,-0.0209109030418,-0.0508104452033,NaN,NaN,-1.48228395,9.09984915,0,NaN,4
1.56925000628219e+18,NaN,53384,NaN,1569250006,197453022,NaN,NaN,0.530035808668,0.325332579559,0.195594473633,0.758263513622,NaN,NaN,-0.10014757103,0.0157410112502,0.0312200296407,NaN,NaN,-1.26632205,9.74773485,0.0196329,NaN,1
1.56925000628395e+18,NaN,53385,NaN,1569250006,280966043,NaN,NaN,0.525342492547,0.328241200146,0.200861821386,0.75889887914,NaN,NaN,-0.12632750981,0.0471569377862,-0.0228851771713,NaN,NaN,-1.1976069,9.86553225,-0.30430995,NaN,1
1.56925000630322e+18,NaN,53386,NaN,1569250006,283289909,NaN,NaN,0.525120478231,0.330206487943,0.204026495254,0.757354175995,NaN,NaN,-0.0774582907538,0.0139956819982,-0.0176491894153,NaN,NaN,-1.3939359,9.47287425,-0.0196329,NaN,1
1.56925000636827e+18,NaN,53387,NaN,1569250006,302402019,NaN,NaN,0.524529925043,0.332256974762,0.207301375123,0.755976058039,NaN,NaN,-0.0495330227218,0.0192316697542,-0.0193945186673,NaN,NaN,-1.30558785,9.7379184,-0.00981645,NaN,1
1.56925000643079e+18,NaN,53388,NaN,1569250006,366556882,NaN,NaN,0.523497242472,0.334822986653,0.210644525149,0.754634407351,NaN,NaN,-0.0250984131938,0.0227223282582,-0.0159038601633,NaN,NaN,-1.34485365,9.62993745,-0.10798095,NaN,1
1.56925000649484e+18,NaN,53389,NaN,1569250006,430075883,NaN,NaN,0.522446638896,0.336958722133,0.214276325269,0.75338833646,NaN,NaN,-0.0338250594538,0.0174863405022,-0.00194122614727,NaN,NaN,-1.374303,9.6397539,-0.12761385,NaN,1
1.56925000651655e+18,NaN,53390,NaN,1569250006,493731975,NaN,NaN,0.522464253687,0.338976891504,0.217770030353,0.751466555827,NaN,NaN,0.0045721840902,0.0139956819982,0.0137667371207,NaN,NaN,-1.40375235,9.6986526,-0.0392658,NaN,1
1.56925000657947e+18,NaN,53391,NaN,1569250006,515348911,NaN,NaN,0.522287878846,0.340938759738,0.220745564403,0.749831667453,NaN,NaN,0.0028268548382,0.0105050234942,-0.00717721390327,NaN,NaN,-1.30558785,9.68883615,0,NaN,1
1.56925000670673e+18,NaN,53392,NaN,1569250006,578697919,NaN,NaN,0.520830939466,0.34293861349,0.223947582821,0.748983123989,NaN,NaN,-0.0460423642178,0.0105050234942,-0.0159038601633,NaN,NaN,-1.3350372,9.72810195,-0.04908225,NaN,1
1.56925000671109e+18,NaN,53393,NaN,1569250006,705835103,NaN,NaN,0.524717427274,0.337588653176,0.230005593023,0.746862068885,NaN,NaN,0.0115535010982,-0.0697801220978,0.120231821493,NaN,NaN,-1.30558785,9.8360829,0.2944935,NaN,4
1.5692500067432e+18,NaN,53394,NaN,1569250006,708290100,NaN,NaN,0.524572552409,0.339355296341,0.232911462829,0.745260941273,NaN,NaN,0.0324974521222,-0.0278922200498,0.0818345779487,NaN,NaN,-1.30558785,9.7379184,0.12761385,NaN,4
1.56925000677598e+18,NaN,53395,NaN,1569250006,741952896,NaN,NaN,0.523611074004,0.342354599009,0.236088336785,0.743563762533,NaN,NaN,-0.0408063764618,0.0715915473142,-0.0385931404393,NaN,NaN,-1.1190753,9.27654525,-0.5693541,NaN,1
1.56925000685577e+18,NaN,53396,NaN,1569250006,774838924,NaN,NaN,0.525067563897,0.34407141683,0.238027449727,0.741122018726,NaN,NaN,0.11801858547,-0.0383641955618,0.0155120663727,NaN,NaN,-1.4135688,9.70846905,0,NaN,1
1.56925000686017e+18,NaN,53397,NaN,1569250006,854718923,NaN,NaN,0.526726378828,0.346191857216,0.239040113929,0.73862733755,NaN,NaN,0.0621680494062,-0.0209109030418,-0.0159038601633,NaN,NaN,-1.22705625,9.80663355,-0.14724675,NaN,1
1.56925000692012e+18,NaN,53398,NaN,1569250006,859396934,NaN,NaN,0.526349319541,0.348010028957,0.241691076909,0.737177615576,NaN,NaN,-0.0425517057138,-0.00520293977377,-0.0385931404393,NaN,NaN,-1.4135688,9.7379184,0.08834805,NaN,1
1.56925000698348e+18,NaN,53399,NaN,1569250006,919188976,NaN,NaN,0.527649922005,0.349624574488,0.24394259148,0.73473820425,NaN,NaN,0.0569320616502,-0.0139295860338,0.0172573956247,NaN,NaN,-1.2761385,9.57103875,-0.02944935,NaN,1
1.56925000706817e+18,NaN,53400,NaN,1569250006,982397079,NaN,NaN,0.528313712431,0.351764533136,0.246270585572,0.732459646101,NaN,NaN,0.0377334398782,0.00352370648623,-0.000195896895269,NaN,NaN,-1.14852465,9.5612223,-0.16687965,NaN,1
1.56925000707012e+18,NaN,53401,NaN,1569250007,67111968,NaN,NaN,0.533883758084,0.353541199252,0.245863975058,0.727686511524,NaN,NaN,0.166887804526,-0.0453455125698,0.0155120663727,NaN,NaN,-1.34485365,9.7968171,-0.1177974,NaN,1
1.56925000719779e+18,NaN,53402,NaN,1569250007,69292068,NaN,NaN,0.533541912411,0.355242835082,0.248503570768,0.72621039041,NaN,NaN,0.0045721840902,-0.00520293977377,-0.0228851771713,NaN,NaN,-1.16815755,9.64957035,0.08834805,NaN,1
1.56925000719858e+18,NaN,53403,NaN,1569250007,195389986,NaN,NaN,0.536671782955,0.357554099697,0.248266794826,0.722843040886,NaN,NaN,0.0743853541702,-0.0209109030418,-0.00892254315527,NaN,NaN,-1.4332017,9.43360845,-0.04908225,NaN,1
1.56925000720196e+18,NaN,53404,NaN,1569250007,197356939,NaN,NaN,0.53639898665,0.359280122287,0.250858218902,0.721293334822,NaN,NaN,0.10929193921,0.00352370648623,0.0416920051527,NaN,NaN,-1.2368727,9.6790197,-0.02944935,NaN,1
1.56925000728778e+18,NaN,53405,NaN,1569250007,200239896,NaN,NaN,0.536091216375,0.36105104673,0.253413595232,0.71974293962,NaN,NaN,0.0010815255862,0.0227223282582,0.00678542011273,NaN,NaN,-1.2761385,9.78700065,-0.2355948,NaN,1
1.5692500073445e+18,NaN,53406,NaN,1569250007,286926031,NaN,NaN,0.537975964879,0.363322809277,0.254060981323,0.71695984214,NaN,NaN,0.0691493664142,-0.0174202445378,-0.0106678724073,NaN,NaN,-1.3350372,9.5415894,-0.4122909,NaN,1
1.56925000738735e+18,NaN,53407,NaN,1569250007,343846082,NaN,NaN,0.538880022673,0.364646672192,0.255640647166,0.715044743453,NaN,NaN,0.0482054153902,-0.0331282078058,0.00504009086073,NaN,NaN,-1.2957714,9.64957035,-0.18651255,NaN,1
1.56925000740834e+18,NaN,53408,NaN,1569250007,386382102,NaN,NaN,0.539904745725,0.366418867478,0.25752466585,0.71268585336,NaN,NaN,0.0813666711782,-0.0139295860338,0.0155120663727,NaN,NaN,-1.3154043,9.45324135,-0.14724675,NaN,1
1.56925000749325e+18,NaN,53409,NaN,1569250007,407505035,NaN,NaN,0.539796904011,0.368353294898,0.260115337574,0.710827098327,NaN,NaN,0.0447147568862,0.0331943037702,0.0172573956247,NaN,NaN,-1.26632205,9.72810195,-0.0785316,NaN,1
1.56925000755728e+18,NaN,53410,NaN,1569250007,492533922,NaN,NaN,0.538283196767,0.370659746905,0.264121759874,0.709297009767,NaN,NaN,-0.0303344009498,0.0384302915262,0.0102760786167,NaN,NaN,-1.3154043,9.62993745,-0.36320865,NaN,1
1.56925000759976e+18,NaN,53411,NaN,1569250007,556222915,NaN,NaN,0.539898865561,0.372279118196,0.266046078653,0.706496254168,NaN,NaN,0.0656587079102,-0.0104389275298,0.0259840418847,NaN,NaN,-1.2565056,9.53177295,-0.61843635,NaN,1
1.56925000760517e+18,NaN,53412,NaN,1569250007,598905086,NaN,NaN,0.540218544799,0.373305200368,0.268033338354,0.70495764466,NaN,NaN,0.0237708058622,-0.0366188663098,0.0172573956247,NaN,NaN,-1.24668915,9.92443095,-0.24541125,NaN,1
1.56925000776955e+18,NaN,53413,NaN,1569250007,600775003,NaN,NaN,0.539751508832,0.374927727995,0.270342515303,0.703571198895,NaN,NaN,-0.0739676322498,-0.00171228126977,-0.0228851771713,NaN,NaN,-1.24668915,9.55140585,-0.18651255,NaN,1
1.56925000777096e+18,NaN,53414,NaN,1569250007,768637895,NaN,NaN,0.540358865881,0.375718767638,0.274112929076,0.701220226336,NaN,NaN,0.0045721840902,0.00352370648623,0.0259840418847,NaN,NaN,-1.28595495,9.5023236,-0.2748606,NaN,1
1.56925000781191e+18,NaN,53415,NaN,1569250007,770402908,NaN,NaN,0.539975214243,0.377317673786,0.27638992435,0.69976192435,NaN,NaN,0.0045721840902,0.0262129867622,0.0416920051527,NaN,NaN,-1.1976069,9.68883615,-0.2355948,NaN,1
1.56925000783828e+18,NaN,53416,NaN,1569250007,811158895,NaN,NaN,0.539666945903,0.379116476957,0.279028193865,0.697978188361,NaN,NaN,0.0080628425942,0.0244676575102,0.0172573956247,NaN,NaN,-1.26632205,9.72810195,-0.20614545,NaN,1
1.56925000791891e+18,NaN,53417,NaN,1569250007,837263107,NaN,NaN,0.539245730491,0.380751235313,0.281558335117,0.696396038818,NaN,NaN,-0.0058997914218,0.0227223282582,0.0207480541287,NaN,NaN,-1.22705625,9.59067165,-0.2944935,NaN,1
1.56925000792006e+18,NaN,53418,NaN,1569250007,917675971,NaN,NaN,0.54032707513,0.382414688063,0.283768353292,0.693744318827,NaN,NaN,0.0412240983822,0.00352370648623,0.0224933833807,NaN,NaN,-1.18779045,9.6986526,-0.36320865,NaN,1
1.56925000798415e+18,NaN,53419,NaN,1569250007,919540882,NaN,NaN,0.539905936861,0.383964448273,0.285909831891,0.692335503808,NaN,NaN,-0.0565143397298,0.00875969424223,-0.000195896895269,NaN,NaN,-1.16815755,9.68883615,-0.3337593,NaN,1
1.569250008025e+18,NaN,53420,NaN,1569250007,983556985,NaN,NaN,0.538425963593,0.385177969619,0.288585974513,0.69170336761,NaN,NaN,-0.0460423642178,0.00352370648623,-0.00194122614727,NaN,NaN,-1.18779045,9.7575513,-0.2355948,NaN,1
1.56925000804633e+18,NaN,53421,NaN,1569250008,23658037,NaN,NaN,0.537329175036,0.386488376265,0.290518511732,0.691015981731,NaN,NaN,-0.0460423642178,-0.0139295860338,-0.0228851771713,NaN,NaN,-1.177974,9.62993745,-0.32394285,NaN,1
1.5692500081734e+18,NaN,53422,NaN,1569250008,45114994,NaN,NaN,0.537246760551,0.387854073011,0.29215179138,0.689624874203,NaN,NaN,0.0324974521222,-0.0366188663098,-0.00892254315527,NaN,NaN,-1.18779045,9.80663355,-0.2159619,NaN,1
1.56925000817677e+18,NaN,53423,NaN,1569250008,172311067,NaN,NaN,0.539963269498,0.388362754343,0.290205334594,0.688036992033,NaN,NaN,0.0569320616502,-0.0575628173338,-0.0141585309113,NaN,NaN,-1.2761385,9.6790197,-0.0981645,NaN,1
1.56925000823699e+18,NaN,53424,NaN,1569250008,174236059,NaN,NaN,0.539651610121,0.389901744937,0.292151810009,0.68658582049,NaN,NaN,0.0796213419262,-0.0436001833178,0.00504009086073,NaN,NaN,-1.1976069,9.41397555,-0.4319238,NaN,1
1.56925000825839e+18,NaN,53425,NaN,1569250008,236001968,NaN,NaN,0.541781601878,0.390769647951,0.292901627388,0.684090940431,NaN,NaN,0.0883479881862,-0.0453455125698,0.0259840418847,NaN,NaN,-1.1976069,9.8360829,-0.20614545,NaN,1
1.56925000838577e+18,NaN,53426,NaN,1569250008,257407903,NaN,NaN,0.541834644664,0.39222614926,0.294537764883,0.682511077373,NaN,NaN,0.0569320616502,-0.0244015615458,0.00329476160873,NaN,NaN,-1.18779045,9.66920325,-0.26504415,NaN,1
1.56925000838747e+18,NaN,53427,NaN,1569250008,384826898,NaN,NaN,0.536403251537,0.393308573618,0.299083754226,0.684199404865,NaN,NaN,-0.0966569125258,0.0227223282582,-0.0141585309113,NaN,NaN,-1.1976069,9.78700065,-0.14724675,NaN,1
1.56925000844955e+18,NaN,53428,NaN,1569250008,386796951,NaN,NaN,0.535937191571,0.394750122793,0.301011147156,0.682887953133,NaN,NaN,-0.0425517057138,-0.00171228126977,-0.0106678724073,NaN,NaN,-1.2368727,9.6004881,-0.20614545,NaN,1
1.56925000851292e+18,NaN,53429,NaN,1569250008,448574066,NaN,NaN,0.534737774911,0.39564372895,0.303935939946,0.682015026399,NaN,NaN,-0.0442970349658,0.00701436499023,0.0172573956247,NaN,NaN,-1.20742335,9.6986526,-0.24541125,NaN,1
1.56925000855628e+18,NaN,53430,NaN,1569250008,512135982,NaN,NaN,0.52791516003,0.395084270489,0.308458044646,0.68561478814,NaN,NaN,-0.278171154734,0.00177837723423,-0.0385931404393,NaN,NaN,-1.1976069,9.9342474,-0.4122909,NaN,4
1.56925000855885e+18,NaN,53431,NaN,1569250008,555628061,NaN,NaN,0.511932013399,0.392858486357,0.31730972409,0.694911765876,NaN,NaN,-0.927433636478,0.0890448398342,-0.129350261543,NaN,NaN,-1.2565056,10.0324119,0.38284155,NaN,4
1.56925000859808e+18,NaN,53432,NaN,1569250008,557708024,NaN,NaN,0.511343264548,0.394179994727,0.319077147115,0.693786690379,NaN,NaN,-0.180432716622,0.00352370648623,-0.141567566307,NaN,NaN,-1.34485365,9.3452604,0.40247445,NaN,4
1.56925000870563e+18,NaN,53433,NaN,1569250008,597117900,NaN,NaN,0.520925094373,0.398511392531,0.314041021302,0.686442971422,NaN,NaN,0.707939872646,-0.109922694894,-0.0141585309113,NaN,NaN,-1.52154975,9.29617815,0.6282528,NaN,1
1.56925000870915e+18,NaN,53434,NaN,1569250008,704230070,NaN,NaN,0.558770649697,0.412728747251,0.292055816836,0.657368802182,NaN,NaN,1.02035380875,-0.0854880853658,0.0190027248767,NaN,NaN,-1.22705625,9.6986526,-0.36320865,NaN,1
1.5692500087686e+18,NaN,53435,NaN,1569250008,706415891,NaN,NaN,0.558553607872,0.414293602556,0.293571275176,0.655892204868,NaN,NaN,0.660815982842,-0.0331282078058,-0.000195896895269,NaN,NaN,-1.374303,9.5612223,-0.36320865,NaN,1
1.56925000881111e+18,NaN,53436,NaN,1569250008,767607927,NaN,NaN,0.560340085078,0.418628235739,0.294765587686,0.651062698681,NaN,NaN,0.15292517051,0.0785728643222,0.00154943235673,NaN,NaN,-1.32522075,9.66920325,-0.8049489,NaN,1
1.56925000889615e+18,NaN,53437,NaN,1569250008,809876918,NaN,NaN,0.560765814502,0.421591635961,0.296167920039,0.648141000796,NaN,NaN,0.104055951454,0.0593742425502,-0.00543188465127,NaN,NaN,-1.4332017,9.8557158,-0.93256275,NaN,1
1.56925000889813e+18,NaN,53438,NaN,1569250008,894980907,NaN,NaN,0.566040772122,0.424193836862,0.294142298037,0.642757918326,NaN,NaN,0.186086426298,-0.0313828785538,0.0137667371207,NaN,NaN,-1.20742335,9.51214005,-1.3350372,NaN,1
1.5692500089598e+18,NaN,53439,NaN,1569250008,897181987,NaN,NaN,0.565220582502,0.425505022475,0.29591539723,0.641798447059,NaN,NaN,-0.142035473078,-0.0139295860338,-0.00368655539927,NaN,NaN,-1.4528346,9.86553225,-0.6871515,NaN,1
1.56925000902414e+18,NaN,53440,NaN,1569250008,959052085,NaN,NaN,0.570671088191,0.427775630418,0.293447082674,0.636577826187,NaN,NaN,0.269862230394,-0.0593081465858,0.0207480541287,NaN,NaN,-1.30558785,9.5023236,-0.8442147,NaN,1
1.56925000904447e+18,NaN,53441,NaN,1569250009,22536993,NaN,NaN,0.563386681288,0.426491116374,0.299787610632,0.640958784566,NaN,NaN,-0.321804386034,0.0174863405022,0.00154943235673,NaN,NaN,-1.3939359,9.6790197,-0.981645,NaN,1
1.56925000910911e+18,NaN,53442,NaN,1569250009,43761014,NaN,NaN,0.56183627431,0.427285610716,0.301995903334,0.640753838938,NaN,NaN,-0.145526131582,-0.0156749152858,-0.00543188465127,NaN,NaN,-1.2172398,9.5808552,-0.8834805,NaN,1
1.56925000915184e+18,NaN,53443,NaN,1569250009,107681035,NaN,NaN,0.558949271122,0.426683636489,0.305583695807,0.641977718867,NaN,NaN,-0.129818168314,-0.0139295860338,0.0190027248767,NaN,NaN,-1.26632205,9.9538803,-0.6871515,NaN,1
1.56925000919381e+18,NaN,53444,NaN,1569250009,150010108,NaN,NaN,0.556198629662,0.427356692509,0.307193021006,0.643149896661,NaN,NaN,-0.13505415607,-0.0348735370578,-0.0630277499673,NaN,NaN,-1.24668915,9.9342474,-0.7460502,NaN,4
1.56925000929937e+18,NaN,53445,NaN,1569250009,192574977,NaN,NaN,0.552627803575,0.428072223529,0.309903254112,0.64445066161,NaN,NaN,-0.17868738737,0.00701436499023,-0.0438291281953,NaN,NaN,-1.4135688,9.35507685,-0.42210735,NaN,1
1.56925000930223e+18,NaN,53446,NaN,1569250009,298496961,NaN,NaN,0.550998265705,0.429239671645,0.31162763025,0.644237871862,NaN,NaN,-0.0198624254378,3.304798223e-05,-0.0124132016593,NaN,NaN,-1.2565056,10.0324119,-0.2159619,NaN,4
1.56925000938434e+18,NaN,53447,NaN,1569250009,301285028,NaN,NaN,0.550095810855,0.430543974086,0.313157586113,0.643396309841,NaN,NaN,-0.18741403363,0.0192316697542,-0.129350261543,NaN,NaN,-1.4921004,9.35507685,-0.48100605,NaN,4
1.56925000940698e+18,NaN,53448,NaN,1569250009,383486032,NaN,NaN,0.552051101196,0.431706158985,0.31297878361,0.641025471392,NaN,NaN,0.0796213419262,-0.0296375493018,0.0120214078687,NaN,NaN,-1.4724675,9.5808552,-0.2355948,NaN,1
1.56925000944825e+18,NaN,53449,NaN,1569250009,405121088,NaN,NaN,0.554009897641,0.433341962323,0.312967841077,0.63823107685,NaN,NaN,0.313495461694,-0.0610534758378,0.0434373344047,NaN,NaN,-1.3939359,9.423792,-0.65770215,NaN,1
1.56925000953379e+18,NaN,53450,NaN,1569250009,447367906,NaN,NaN,0.550218160681,0.433574257032,0.317764007526,0.638983078663,NaN,NaN,-0.217084630914,0.0681008888102,0.0347106881447,NaN,NaN,-1.44301815,9.62993745,-0.2159619,NaN,1
1.5692500095541e+18,NaN,53451,NaN,1569250009,532707929,NaN,NaN,0.56476780055,0.43042706186,0.314810723527,0.629812737433,NaN,NaN,0.355383363742,-0.151810596942,0.221460918109,NaN,NaN,-2.79768825,10.29745605,0.12761385,NaN,3
1.56925000961833e+18,NaN,53452,NaN,1569250009,553308010,NaN,NaN,0.562375650611,0.431821885428,0.317039615553,0.62988044027,NaN,NaN,-0.17868738737,0.0593742425502,-0.0473197866993,NaN,NaN,-1.6295307,9.21764655,-0.42210735,NaN,4
1.56925000968225e+18,NaN,53453,NaN,1569250009,617501974,NaN,NaN,0.565111331744,0.432940965378,0.315313403597,0.627525904441,NaN,NaN,0.12674523173,-0.0750161098538,0.00154943235673,NaN,NaN,-1.5313662,9.9931461,-1.1583411,NaN,1
1.56925000974622e+18,NaN,53454,NaN,1569250009,681041955,NaN,NaN,0.568764329857,0.432166289522,0.314256011017,0.625286010416,NaN,NaN,0.123254573226,-0.111668024146,0.0608906269247,NaN,NaN,-1.4921004,9.78700065,-0.75586665,NaN,4
1.56925000975216e+18,NaN,53455,NaN,1569250009,745099067,NaN,NaN,0.5687142886,0.432903244874,0.315301282849,0.624294753745,NaN,NaN,0.0290067936182,-0.0209109030418,0.0155120663727,NaN,NaN,-1.56081555,9.19801365,0.18651255,NaN,1
1.56925000981488e+18,NaN,53456,NaN,1569250009,751437902,NaN,NaN,0.568530075549,0.433830968526,0.316754305054,0.623081819807,NaN,NaN,0.124999902478,-0.0837427561138,-0.0263758356753,NaN,NaN,-0.18651255,9.5808552,-0.69696795,NaN,1
1.56925000985196e+18,NaN,53457,NaN,1569250009,813352108,NaN,NaN,0.563642088349,0.435859150281,0.311514303331,0.628723497396,NaN,NaN,-0.0931662540218,-0.155301255446,-0.272467260207,NaN,NaN,-1.60008135,9.423792,-0.08834805,NaN,4
1.56925000989456e+18,NaN,53458,NaN,1569250009,851013898,NaN,NaN,0.565017811439,0.440944364475,0.310596083728,0.624382104939,NaN,NaN,0.287315522914,0.10300747385,-0.0560464329593,NaN,NaN,-2.58172635,9.031134,-0.8638476,NaN,4
1.56925000997985e+18,NaN,53459,NaN,1569250009,893846035,NaN,NaN,0.565134092175,0.442793257561,0.311646199605,0.622442154092,NaN,NaN,0.0778760126742,0.0192316697542,0.00504009086073,NaN,NaN,-1.58044845,10.00296255,-0.4122909,NaN,1
1.56925001000158e+18,NaN,53460,NaN,1569250009,978842973,NaN,NaN,0.563712650056,0.449782685714,0.308215898803,0.62042448656,NaN,NaN,0.104055951454,0.0384302915262,-0.153784871071,NaN,NaN,-0.5300883,8.51086215,-0.2748606,NaN,4
1.56925001004347e+18,NaN,53461,NaN,1569250010,412940,NaN,NaN,0.562487675786,0.454421387007,0.306510394242,0.618999350437,NaN,NaN,0.227974328346,0.0750822058182,-0.349261747295,NaN,NaN,-1.91420775,9.19801365,-0.8834805,NaN,4
1.56925001011032e+18,NaN,53462,NaN,1569250010,42681932,NaN,NaN,0.560976236872,0.462596213368,0.299752084723,0.61762374691,NaN,NaN,0.28382486441,0.0157410112502,-0.413838929619,NaN,NaN,-2.87621985,10.16002575,-0.3730251,NaN,3
1.56925001014961e+18,NaN,53463,NaN,1569250010,109488964,NaN,NaN,0.570959993301,0.457547562311,0.309323554894,0.607432179474,NaN,NaN,0.191322414054,0.0593742425502,0.495477610673,NaN,NaN,-2.2774164,13.69394775,-0.1570632,NaN,5
1.56925001021337e+18,NaN,53464,NaN,1569250010,148534059,NaN,NaN,0.568810099096,0.459594506615,0.310036336056,0.607540476825,NaN,NaN,-0.0250984131938,0.0174863405022,-0.0647730792193,NaN,NaN,-2.46392895,8.33416605,-0.2748606,NaN,4
1.56925001025584e+18,NaN,53465,NaN,1569250010,212368965,NaN,NaN,0.56841920932,0.460522805617,0.311126953909,0.606645173502,NaN,NaN,0.0115535010982,-0.00869359827777,0.0155120663727,NaN,NaN,-2.2774164,9.6790197,-0.91292985,NaN,1
1.56925001029837e+18,NaN,53466,NaN,1569250010,255047082,NaN,NaN,0.567985320934,0.461314472835,0.312048342474,0.605976455249,NaN,NaN,-0.0198624254378,-0.0313828785538,0.0120214078687,NaN,NaN,-2.0418216,9.7575513,-2.30686575,NaN,1
1.56925001036181e+18,NaN,53467,NaN,1569250010,297357082,NaN,NaN,0.567298182716,0.462817522271,0.313293553416,0.604830440995,NaN,NaN,0.0202801473582,0.0192316697542,0.00853074936473,NaN,NaN,-2.159619,9.4041591,-0.9031134,NaN,1
1.56925001040433e+18,NaN,53468,NaN,1569250010,361140012,NaN,NaN,0.564136756152,0.462438419719,0.315944617986,0.606695497504,NaN,NaN,-0.128072839062,-0.0174202445378,-0.00194122614727,NaN,NaN,-2.05163805,9.4826907,-0.9620121,NaN,1
1.56925001044706e+18,NaN,53469,NaN,1569250010,403567075,NaN,NaN,0.56137104917,0.46242693155,0.318659907228,0.60784845287,NaN,NaN,-0.16996074111,-0.00520293977377,0.00853074936473,NaN,NaN,-2.07127095,9.41397555,-1.374303,NaN,1
1.56925001051125e+18,NaN,53470,NaN,1569250010,446329116,NaN,NaN,0.562200175136,0.463793629812,0.318130261354,0.606316393341,NaN,NaN,0.111037268462,-0.0436001833178,-0.00368655539927,NaN,NaN,-2.05163805,9.5808552,-0.7460502,NaN,1
1.56925001055371e+18,NaN,53471,NaN,1569250010,510423898,NaN,NaN,0.546683250574,0.462480257475,0.32799464646,0.616172822251,NaN,NaN,-0.627237005134,0.0995168153462,-0.111896969023,NaN,NaN,-2.07127095,10.14039285,-1.40375235,NaN,4
1.56925001059564e+18,NaN,53472,NaN,1569250010,552483081,NaN,NaN,0.491240088975,0.451471676774,0.363305693529,0.650281072386,NaN,NaN,-3.45292506412,0.640568883466,-0.434782880643,NaN,NaN,-5.07510465,11.7404742,2.36576445,NaN,3
1.56925001065971e+18,NaN,53473,NaN,1569250010,594954967,NaN,NaN,0.483640863275,0.442395076803,0.436187650938,0.616537464036,NaN,NaN,-1.15432643924,2.21485586877,2.86039874713,NaN,NaN,-0.52027185,11.4656136,-2.4933783,NaN,5
1.56925001070216e+18,NaN,53474,NaN,1569250010,658691883,NaN,NaN,0.506533837461,0.425656538855,0.491714615476,0.566088967711,NaN,NaN,0.17910510929,0.87967899099,2.34378128854,NaN,NaN,0.00981645,9.09984915,-0.6871515,NaN,5
1.56925001074518e+18,NaN,53475,NaN,1569250010,701138973,NaN,NaN,0.492104687459,0.4319810148,0.517731479092,0.550617376216,NaN,NaN,-0.398598873122,1.40502309584,0.617650658313,NaN,NaN,-1.16815755,7.9709574,0.00981645,NaN,3
1.56925001081222e+18,NaN,53476,NaN,1569250010,743628978,NaN,NaN,0.467782654731,0.451162899622,0.534023852981,0.540786418456,NaN,NaN,-0.271189837726,1.65460517888,-0.270721930955,NaN,NaN,-1.10925885,7.98077385,0.588987,NaN,3
1.56925001085114e+18,NaN,53477,NaN,1569250010,810597896,NaN,NaN,0.440095416857,0.480445057934,0.549183488595,0.52334125217,NaN,NaN,0.0656587079102,1.3666258523,-0.242796662923,NaN,NaN,-1.16815755,9.08021625,1.73751165,NaN,4
1.5692500108931e+18,NaN,53478,NaN,1569250010,850424051,NaN,NaN,0.429718877197,0.494755116068,0.555057010385,0.512319018705,NaN,NaN,0.245427620866,1.08039185497,-0.0979343350073,NaN,NaN,-0.63806925,10.47415215,2.4344796,NaN,4
1.56925001095727e+18,NaN,53479,NaN,1569250010,892349958,NaN,NaN,0.424609253085,0.504895952335,0.553608665536,0.508236662347,NaN,NaN,0.276843547402,0.476507933778,-0.248032650679,NaN,NaN,-0.6478857,10.4839686,2.1007203,NaN,3
1.56925001099968e+18,NaN,53480,NaN,1569250010,956130027,NaN,NaN,0.418039340731,0.512094184104,0.558228613019,0.501381563098,NaN,NaN,0.0429694276342,0.420657397714,-0.00194122614727,NaN,NaN,-0.81476535,10.9551582,2.0418216,NaN,3
1.5692500110422e+18,NaN,53481,NaN,1569250010,998562097,NaN,NaN,0.41975640294,0.511754029673,0.564130073454,0.49362904648,NaN,NaN,0.0359881106262,0.284521716058,0.394248514057,NaN,NaN,-0.24541125,9.9735132,1.05036015,NaN,3
1.569250011106e+18,NaN,53482,NaN,1569250011,41327953,NaN,NaN,0.43119561642,0.510029379477,0.565569022515,0.483809935017,NaN,NaN,0.37981797327,-0.0453455125698,0.601942695045,NaN,NaN,0.0196329,9.21764655,1.1387082,NaN,3
1.56925001115296e+18,NaN,53483,NaN,1569250011,105107069,NaN,NaN,0.43674312147,0.504664638291,0.575780923044,0.472276801638,NaN,NaN,-0.0163717669338,0.165839326922,0.521657549453,NaN,NaN,0.3533922,9.5612223,1.1583411,NaN,3
1.56925001121201e+18,NaN,53484,NaN,1569250011,151840925,NaN,NaN,0.438378359843,0.503451165564,0.579969084391,0.466901701287,NaN,NaN,0.0115535010982,0.160603339166,0.279056783425,NaN,NaN,0.3533922,9.7968171,0.95219565,NaN,3
1.5692500112547e+18,NaN,53485,NaN,1569250011,211333036,NaN,NaN,0.440090996937,0.497343845044,0.587395809477,0.462531271615,NaN,NaN,-0.164724753354,0.0785728643222,0.333161990237,NaN,NaN,0.00981645,9.3845262,0.42210735,NaN,3
1.56925001129768e+18,NaN,53486,NaN,1569250011,253817081,NaN,NaN,0.447717181106,0.494506911681,0.590317282547,0.454464240583,NaN,NaN,0.172123792282,0.0105050234942,0.546092158981,NaN,NaN,0.02944935,8.96241885,0.36320865,NaN,3
1.569250011361e+18,NaN,53487,NaN,1569250011,296427965,NaN,NaN,0.45419757061,0.497092986341,0.590709687854,0.444595540304,NaN,NaN,0.407743241302,0.14664070515,0.395993843309,NaN,NaN,0.30430995,9.0900327,0.71660085,NaN,3
1.5692500114035e+18,NaN,53488,NaN,1569250011,360088109,NaN,NaN,0.446592703738,0.504213710393,0.592707766979,0.441611813906,NaN,NaN,0.0342427813742,0.340372252122,-0.125859603039,NaN,NaN,0.2748606,9.64957035,0.5693541,NaN,4
1.56925001144629e+18,NaN,53489,NaN,1569250011,402746915,NaN,NaN,0.439498075461,0.510390248907,0.592404033471,0.442041510057,NaN,NaN,0.0167894888542,0.349098898382,-0.295156540483,NaN,NaN,0.00981645,9.06058335,0.48100605,NaN,4
1.56925001151003e+18,NaN,53490,NaN,1569250011,445065975,NaN,NaN,0.437326201506,0.51971756489,0.588814381245,0.438106232163,NaN,NaN,0.378072644018,0.32117363035,-0.186946126859,NaN,NaN,-0.22577835,9.3059946,0.36320865,NaN,4
1.56925001155274e+18,NaN,53491,NaN,1569250011,508735895,NaN,NaN,0.428280513914,0.533679260348,0.584316330623,0.436275915268,NaN,NaN,0.227974328346,0.361316203146,-0.354497735051,NaN,NaN,-0.3141264,9.81645,0.24541125,NaN,3
1.5692500115993e+18,NaN,53492,NaN,1569250011,551464080,NaN,NaN,0.419493004039,0.546111151071,0.581035489995,0.433804091272,NaN,NaN,0.276843547402,0.546321103858,-0.448745514659,NaN,NaN,-0.53990475,9.9931461,-0.196329,NaN,3
1.56925001165856e+18,NaN,53493,NaN,1569250011,598357915,NaN,NaN,0.408553530008,0.56271445548,0.580071002299,0.424209956275,NaN,NaN,0.395525936538,0.843027076698,-0.314355162255,NaN,NaN,-0.73623375,10.04222835,-0.0588987,NaN,4
1.56925001170134e+18,NaN,53494,NaN,1569250011,657479047,NaN,NaN,0.39012301585,0.584609221596,0.584408026066,0.405590125124,NaN,NaN,0.330948754214,1.1484596958,-0.216616724143,NaN,NaN,-0.67733505,10.63121535,-0.42210735,NaN,3
1.56925001174531e+18,NaN,53495,NaN,1569250011,700325965,NaN,NaN,0.374933450443,0.600758037658,0.588536473257,0.390050647447,NaN,NaN,0.313495461694,1.30902998698,-0.193927443867,NaN,NaN,-0.81476535,10.37598765,-0.392658,NaN,4
1.56925001181103e+18,NaN,53496,NaN,1569250011,744415998,NaN,NaN,0.362511092306,0.619733122242,0.591807366726,0.36644318228,NaN,NaN,0.594493471266,1.46610961966,0.0382013466487,NaN,NaN,-0.81476535,9.9735132,-0.4319238,NaN,4
1.56925001185033e+18,NaN,53497,NaN,1569250011,806643962,NaN,NaN,0.34076950022,0.648511033337,0.592593649823,0.334876624369,NaN,NaN,0.653834665834,1.47483626592,-0.159020858827,NaN,NaN,-0.5497212,9.25691235,-0.00981645,NaN,4
1.56925001189298e+18,NaN,53498,NaN,1569250011,848949909,NaN,NaN,0.322078571698,0.66515976037,0.59320282982,0.31927776235,NaN,NaN,0.425196533822,1.40676842509,-0.413838929619,NaN,NaN,-0.10798095,9.19801365,0.18651255,NaN,3
1.56925001195656e+18,NaN,53499,NaN,1569250011,891613960,NaN,NaN,0.306226337336,0.677126270461,0.592049515376,0.311773660717,NaN,NaN,0.26637157189,0.972181441346,-0.511577367731,NaN,NaN,-0.00981645,9.25691235,0.1570632,NaN,3
1.56925001199844e+18,NaN,53500,NaN,1569250011,955199003,NaN,NaN,0.288598120085,0.686149953393,0.593446357677,0.306154841709,NaN,NaN,0.0359881106262,0.645804871222,-0.371951027571,NaN,NaN,0.2748606,9.2470959,0.36320865,NaN,3
1.56925001206266e+18,NaN,53501,NaN,1569250011,997454881,NaN,NaN,0.281346066219,0.685296225502,0.594529793213,0.312646444594,NaN,NaN,-0.229301935678,0.139659388142,-0.434782880643,NaN,NaN,0.26504415,9.4630578,0.5104554,NaN,3
1.56925001211117e+18,NaN,53502,NaN,1569250012,61454057,NaN,NaN,0.290077209601,0.672160281849,0.591572298565,0.337783930264,NaN,NaN,-0.313077739774,-0.767911822898,-0.221852711899,NaN,NaN,0.20614545,9.1096656,0.0392658,NaN,4
1.56925001214762e+18,NaN,53503,NaN,1569250012,110357999,NaN,NaN,0.312096896325,0.658184897932,0.583606855552,0.358874916358,NaN,NaN,-0.0565143397298,-1.29674658625,0.121977150745,NaN,NaN,0.00981645,9.8949816,0.32394285,NaN,4
1.56925001221426e+18,NaN,53504,NaN,1569250012,146773099,NaN,NaN,0.3260861667,0.633823395325,0.587698282962,0.38281384984,NaN,NaN,-1.05309734262,-1.5969432176,0.209243613345,NaN,NaN,-0.1766961,9.7182855,0.67733505,NaN,4
1.56925001225347e+18,NaN,53505,NaN,1569250012,213201999,NaN,NaN,0.347616259882,0.571110866413,0.60630651797,0.430566743256,NaN,NaN,-1.69363317811,-1.78369344756,0.402975160317,NaN,NaN,-0.8442147,9.37470975,1.16815755,NaN,3
1.56925001229596e+18,NaN,53506,NaN,1569250012,252670049,NaN,NaN,0.362774100441,0.535520356912,0.612364768827,0.454557245329,NaN,NaN,-1.35678463247,-1.75576817953,0.471043001145,NaN,NaN,-0.34357575,8.5795773,1.77677745,NaN,3
1.56925001236011e+18,NaN,53507,NaN,1569250012,295165061,NaN,NaN,0.375777100139,0.506680912768,0.603297404299,0.487953138748,NaN,NaN,-0.897763039194,-1.93902775099,-0.328317796271,NaN,NaN,-0.32394285,8.7955392,1.83567615,NaN,3
1.56925001240235e+18,NaN,53508,NaN,1569250012,358736991,NaN,NaN,0.377384164074,0.457830138812,0.583176699189,0.554867276224,NaN,NaN,-1.38820055901,-2.0803994204,-0.965362973251,NaN,NaN,-1.2172398,8.5206786,2.1399861,NaN,3
1.56925001245109e+18,NaN,53509,NaN,1569250012,401269912,NaN,NaN,0.346773468557,0.411764679764,0.587035991093,0.604637705709,NaN,NaN,-3.06720729943,-1.36830508559,-1.08230003314,NaN,NaN,-1.7473281,8.3439825,2.69952375,NaN,3
1.56925001251134e+18,NaN,53510,NaN,1569250012,450372934,NaN,NaN,0.308313257961,0.364252231202,0.587135023866,0.653862149677,NaN,NaN,-2.80889857013,-1.08032575901,-1.14338655696,NaN,NaN,-1.42338525,7.6764639,3.9658458,NaN,3
1.56925001255239e+18,NaN,53511,NaN,1569250012,510461091,NaN,NaN,0.327830714771,0.352999710777,0.553072482318,0.679727192296,NaN,NaN,0.351892705238,-1.30023724476,-0.900785790927,NaN,NaN,-1.2172398,8.3636154,5.21253495,NaN,3
1.56925001259632e+18,NaN,53512,NaN,1569250012,550499916,NaN,NaN,0.387035269877,0.362570231971,0.512287740013,0.675505587091,NaN,NaN,3.08158765537,-1.94426373875,-0.396385637099,NaN,NaN,-1.20742335,9.5415894,5.0063895,NaN,3
1.56925001266113e+18,NaN,53513,NaN,1569250012,594862937,NaN,NaN,0.431673195636,0.361250445627,0.469603458864,0.680168331464,NaN,NaN,1.95410495857,-1.94775439725,-0.679128975923,NaN,NaN,-1.1190753,11.387082,4.23088995,NaN,3
1.5692500126993e+18,NaN,53514,NaN,1569250012,659765005,NaN,NaN,0.486052383201,0.360393075745,0.419443769234,0.676710304481,NaN,NaN,1.74117478983,-1.49047813323,-0.403366954107,NaN,NaN,-2.13016965,11.20056945,3.38667525,NaN,3
1.56925001274402e+18,NaN,53515,NaN,1569250012,698486089,NaN,NaN,0.517180532553,0.374496736798,0.389124717623,0.663971720038,NaN,NaN,2.28920817496,-0.81329038345,-0.544738623519,NaN,NaN,-2.5326441,10.10112705,1.93384065,NaN,3
1.56925001282699e+18,NaN,53516,NaN,1569250012,742306947,NaN,NaN,0.517554073189,0.387936186329,0.368202362997,0.667884957568,NaN,NaN,0.505481679414,-0.258275681314,-1.00026955829,NaN,NaN,-2.5130112,8.92315305,0.65770215,NaN,3
1.56925001284874e+18,NaN,53517,NaN,1569250012,826246023,NaN,NaN,0.478069700554,0.387114623244,0.352134097813,0.705402868608,NaN,NaN,-0.95535890451,-0.261766339818,-0.946164351479,NaN,NaN,-2.77805535,7.62738165,-0.8049489,NaN,3
1.56925001291214e+18,NaN,53518,NaN,1569250012,847445011,NaN,NaN,0.484161358709,0.387472483748,0.34720353672,0.703493110954,NaN,NaN,0.634636044062,-0.54276434939,-0.0665184084713,NaN,NaN,-2.81732115,9.15874785,0.3533922,NaN,4
1.56925001295485e+18,NaN,53519,NaN,1569250012,911242961,NaN,NaN,0.482208140873,0.375377043779,0.343612894014,0.713090150645,NaN,NaN,-0.297369776506,-0.488659142578,-0.0385931404393,NaN,NaN,-2.3363151,10.17965865,0.3337593,NaN,4
1.56925001299736e+18,NaN,53520,NaN,1569250012,953730106,NaN,NaN,0.492085740809,0.369523354315,0.335312390985,0.713351045952,NaN,NaN,0.355383363742,-0.661446738526,0.00329476160873,NaN,NaN,-2.20870125,9.41397555,0.53990475,NaN,1
1.56925001306101e+18,NaN,53521,NaN,1569250012,996090888,NaN,NaN,0.481982323928,0.368400085319,0.343214293362,0.717062316253,NaN,NaN,-0.620255688126,0.132678071134,0.0207480541287,NaN,NaN,-1.6098978,9.8753487,0.1766961,NaN,1
1.56925001310428e+18,NaN,53522,NaN,1569250013,60055017,NaN,NaN,0.497058214158,0.373451031025,0.332548932985,0.709139384278,NaN,NaN,0.638126702566,-0.186717181982,-0.0769903839833,NaN,NaN,-1.85530905,9.82626645,1.6295307,NaN,4
1.56925001314659e+18,NaN,53523,NaN,1569250013,102555990,NaN,NaN,0.496448156317,0.377203356263,0.331910275103,0.707878821123,NaN,NaN,0.0743853541702,0.0366849622742,-0.131095590795,NaN,NaN,-1.6884294,9.25691235,1.06999305,NaN,4
1.56925001320996e+18,NaN,53524,NaN,1569250013,145143985,NaN,NaN,0.506585112266,0.383531132427,0.327693375528,0.699208442543,NaN,NaN,0.714921189654,0.00352370648623,0.00329476160873,NaN,NaN,-1.7865939,8.7366405,1.0012779,NaN,4
1.56925001325311e+18,NaN,53525,NaN,1569250013,208790063,NaN,NaN,0.500249880123,0.388463788297,0.334593127588,0.697777458499,NaN,NaN,-0.154252777842,0.230416509246,0.00329476160873,NaN,NaN,-2.2774164,9.11948205,0.67733505,NaN,1
1.5692500132945e+18,NaN,53526,NaN,1569250013,251355886,NaN,NaN,0.500621091528,0.395087789953,0.33646543064,0.692874573737,NaN,NaN,0.189577084802,0.24263381401,-0.0211398479193,NaN,NaN,-2.4148467,9.423792,0.61843635,NaN,1
1.56925001337948e+18,NaN,53527,NaN,1569250013,293756008,NaN,NaN,0.498824935205,0.401567606322,0.340738345837,0.688341863646,NaN,NaN,0.0412240983822,0.324664288854,0.00154943235673,NaN,NaN,-2.01237225,10.43488635,-0.3730251,NaN,4
1.56925001340107e+18,NaN,53528,NaN,1569250013,378467082,NaN,NaN,0.51102756489,0.411064589984,0.337149171883,0.675431096917,NaN,NaN,0.453121801854,0.0872995105822,0.0399466759007,NaN,NaN,-1.97310645,9.81645,-0.1177974,NaN,1
1.56925001344492e+18,NaN,53529,NaN,1569250013,399991989,NaN,NaN,0.510026778898,0.412957645896,0.338413163009,0.674399880342,NaN,NaN,-0.0530236812258,0.0541382547942,-0.0438291281953,NaN,NaN,-2.11053675,9.84589935,-0.5497212,NaN,4
1.56925001350746e+18,NaN,53530,NaN,1569250013,443350076,NaN,NaN,0.51203627065,0.414378397487,0.338631632792,0.671891374038,NaN,NaN,0.12674523173,-0.0296375493018,0.0416920051527,NaN,NaN,-2.1203532,9.15874785,-0.0785316,NaN,4
1.56925001357132e+18,NaN,53531,NaN,1569250013,506333112,NaN,NaN,0.512924415199,0.413529436233,0.339781540063,0.671156058376,NaN,NaN,-0.000663803665803,-0.0645441343418,0.0539093099167,NaN,NaN,-2.22833415,9.2470959,0.0196329,NaN,4
1.56925001359369e+18,NaN,53532,NaN,1569250013,570039033,NaN,NaN,0.510541230705,0.407607991169,0.342976184966,0.674959786826,NaN,NaN,-0.217084630914,-0.160537243202,0.0818345779487,NaN,NaN,-2.01237225,9.9342474,0.59880345,NaN,4
1.56925001365594e+18,NaN,53533,NaN,1569250013,591770887,NaN,NaN,0.510390092072,0.408899715744,0.343839406705,0.673852683289,NaN,NaN,0.0447147568862,-0.0156749152858,-0.00892254315527,NaN,NaN,-1.9436571,9.94406385,0.5300883,NaN,1
1.5692500136993e+18,NaN,53534,NaN,1569250013,654994010,NaN,NaN,0.51143169495,0.41437809275,0.342440678036,0.670419868199,NaN,NaN,0.154670499762,0.0646102303062,-0.0752450547313,NaN,NaN,-2.01237225,9.27654525,0.4711896,NaN,4
1.56925001376292e+18,NaN,53535,NaN,1569250013,698312997,NaN,NaN,0.514686823688,0.419306765525,0.342811054585,0.664650201807,NaN,NaN,0.290806181418,0.127442083378,0.0364560173967,NaN,NaN,-1.8651255,9.0703998,-0.32394285,NaN,4
1.56925001380513e+18,NaN,53536,NaN,1569250013,760839939,NaN,NaN,0.513891085799,0.426525001724,0.343799815366,0.660147000141,NaN,NaN,0.11801858547,0.178056631686,-0.0717543962273,NaN,NaN,-1.6295307,9.19801365,-0.00981645,NaN,4
1.56925001384677e+18,NaN,53537,NaN,1569250013,803906917,NaN,NaN,0.515001241507,0.42762714733,0.346765976973,0.657009970492,NaN,NaN,0.0691493664142,0.0611195718022,0.141175772517,NaN,NaN,-2.44429605,9.00168465,0.2944935,NaN,4
1.56925001395332e+18,NaN,53538,NaN,1569250013,846132040,NaN,NaN,0.517211725057,0.426997469624,0.350673926743,0.653600022568,NaN,NaN,0.0447147568862,0.0174863405022,0.233678222873,NaN,NaN,-2.03200515,9.2078301,-0.46137315,NaN,4
1.56925001395574e+18,NaN,53539,NaN,1569250013,952368021,NaN,NaN,0.52533779533,0.417286068758,0.360367029646,0.648095781163,NaN,NaN,0.0080628425942,-0.0697801220978,0.312218039213,NaN,NaN,-1.69824585,10.17965865,-0.02944935,NaN,3
1.56925001399595e+18,NaN,53540,NaN,1569250013,954849958,NaN,NaN,0.524922775703,0.418363318722,0.361417332287,0.647152010751,NaN,NaN,-0.0914209247698,-0.0505815003258,0.0905612242087,NaN,NaN,-1.6491636,9.88516515,-0.1766961,NaN,4
1.56925001406073e+18,NaN,53541,NaN,1569250013,995256900,NaN,NaN,0.52250293355,0.417650962003,0.363948655491,0.648151012138,NaN,NaN,-0.17868738737,-0.0261468907978,0.0242387126327,NaN,NaN,-1.65898005,9.68883615,0.0588987,NaN,1
1.56925001412378e+18,NaN,53542,NaN,1569250014,59591054,NaN,NaN,0.521002167506,0.417918596082,0.366165681283,0.647937869208,NaN,NaN,-0.0565143397298,0.00526903573823,0.0172573956247,NaN,NaN,-1.60008135,9.8753487,0.2552277,NaN,1
1.56925001416605e+18,NaN,53543,NaN,1569250014,122374057,NaN,NaN,0.518389897815,0.418764550772,0.367723330438,0.648604438091,NaN,NaN,-0.0844396077618,0.00701436499023,-0.0281211649273,NaN,NaN,-1.7276952,9.55140585,0.00981645,NaN,1
1.56925001420968e+18,NaN,53544,NaN,1569250014,165307998,NaN,NaN,0.515876798303,0.419017806048,0.369140086254,0.649638979671,NaN,NaN,-0.136799485322,-0.0174202445378,-0.0403384696913,NaN,NaN,-1.6098978,9.9538803,0.06871515,NaN,4
1.56925001425815e+18,NaN,53545,NaN,1569250014,208075046,NaN,NaN,0.511791436683,0.419517190527,0.371518781831,0.651190177242,NaN,NaN,-0.21359397241,0.0297036452662,-0.0508104452033,NaN,NaN,-1.7865939,9.2470959,0.06871515,NaN,4
1.5692500143149e+18,NaN,53546,NaN,1569250014,256871938,NaN,NaN,0.507160975626,0.419162049569,0.373621394498,0.653833292649,NaN,NaN,-0.22232061867,-0.00869359827777,-0.0682637377233,NaN,NaN,-1.61971425,10.29745605,0.73623375,NaN,4
1.5692500143575e+18,NaN,53547,NaN,1569250014,313954114,NaN,NaN,0.479576923363,0.419469672777,0.384269821452,0.668122647812,NaN,NaN,-1.04611602561,0.293248362318,-0.364969710563,NaN,NaN,-1.79641035,9.81645,0.9227463,NaN,3
1.56925001440152e+18,NaN,53548,NaN,1569250014,356031894,NaN,NaN,0.47056812522,0.422538599449,0.386040096746,0.671565198032,NaN,NaN,-0.356710971074,0.160603339166,-0.267231272451,NaN,NaN,-2.11053675,9.423792,0.8442147,NaN,4
1.56925001448491e+18,NaN,53549,NaN,1569250014,398823022,NaN,NaN,0.472080041044,0.426672277601,0.38379585577,0.669172581228,NaN,NaN,0.212266365078,0.0297036452662,-0.0996796642593,NaN,NaN,-2.11053675,9.3059946,0.9620121,NaN,4
1.56925001452696e+18,NaN,53550,NaN,1569250014,484175920,NaN,NaN,0.478604985206,0.43127641684,0.379329991855,0.664113452426,NaN,NaN,0.234955645354,-0.0226562322938,-0.0106678724073,NaN,NaN,-2.32649865,8.39306475,0.04908225,NaN,4
1.56925001454824e+18,NaN,53551,NaN,1569250014,526206970,NaN,NaN,0.483777600668,0.430257921322,0.380969482045,0.660075456279,NaN,NaN,0.189577084802,-0.0802520976098,0.249386186141,NaN,NaN,-2.18906835,9.21764655,0.392658,NaN,4
1.5692500145911e+18,NaN,53552,NaN,1569250014,547005891,NaN,NaN,0.483485350439,0.430437949605,0.382180961656,0.659471606666,NaN,NaN,-0.0495330227218,-0.0383641955618,0.0399466759007,NaN,NaN,-1.77677745,10.41525345,0.7656831,NaN,4
1.5692500146546e+18,NaN,53553,NaN,1569250014,590068101,NaN,NaN,0.482336295075,0.431115174324,0.383168014456,0.659297867143,NaN,NaN,-0.0512783519738,-0.00520293977377,-0.00717721390327,NaN,NaN,-2.16943545,8.8544379,0.46137315,NaN,4
1.56925001469778e+18,NaN,53554,NaN,1569250014,653532981,NaN,NaN,0.482820172639,0.430365741072,0.3848873671,0.658431260233,NaN,NaN,-0.0128811084298,-0.0296375493018,0.0556546391687,NaN,NaN,-1.9043913,9.7968171,0.83439825,NaN,4
1.56925001476119e+18,NaN,53555,NaN,1569250014,696803092,NaN,NaN,0.481974731713,0.431246625091,0.384857290972,0.658491892071,NaN,NaN,-0.0233530839418,-0.0296375493018,-0.0473197866993,NaN,NaN,-1.99273935,9.3648933,0.50063895,NaN,1
1.56925001480363e+18,NaN,53556,NaN,1569250014,760195970,NaN,NaN,0.481000102059,0.430878729036,0.385549691265,0.659040103673,NaN,NaN,-0.0460423642178,-0.0383641955618,-0.00717721390327,NaN,NaN,-1.97310645,9.6397539,0.8638476,NaN,1
1.56925001484599e+18,NaN,53557,NaN,1569250014,802468061,NaN,NaN,0.480599369938,0.431703847728,0.38547347992,0.658837028218,NaN,NaN,0.0080628425942,-0.0331282078058,-0.0351024819353,NaN,NaN,-2.0221887,9.49250715,1.03072725,NaN,1
1.56925001491652e+18,NaN,53558,NaN,1569250014,845055103,NaN,NaN,0.481969319642,0.433531611156,0.384722787427,0.657072517982,NaN,NaN,0.124999902478,-0.0174202445378,-0.0141585309113,NaN,NaN,-2.01237225,9.5023236,0.77549955,NaN,1
1.56925001497283e+18,NaN,53559,NaN,1569250014,915273904,NaN,NaN,0.484937469147,0.43764076803,0.381829368035,0.653844433242,NaN,NaN,0.177359780038,0.00352370648623,-0.0438291281953,NaN,NaN,-2.0221887,9.423792,0.6478857,NaN,1
1.56925001501661e+18,NaN,53560,NaN,1569250014,972157955,NaN,NaN,0.486170022618,0.440915880761,0.380119190711,0.651721793447,NaN,NaN,0.130235890234,0.0122503527462,-0.0560464329593,NaN,NaN,-2.03200515,9.9931461,0.5693541,NaN,4
1.56925001505896e+18,NaN,53561,NaN,1569250015,15467882,NaN,NaN,0.468356231791,0.44077719937,0.38693166393,0.660788762091,NaN,NaN,-0.878564417422,0.218199204482,-0.328317796271,NaN,NaN,-2.1399861,10.57231665,1.36448655,NaN,3
1.5692500151009e+18,NaN,53562,NaN,1569250015,57800054,NaN,NaN,0.477995661488,0.436443957501,0.401971056342,0.647654297773,NaN,NaN,0.191322414054,0.23390716775,1.00162309375,NaN,NaN,-2.0614545,9.92443095,0.79513245,NaN,3
1.56925001516643e+18,NaN,53563,NaN,1569250015,100012063,NaN,NaN,0.491849164936,0.428356426192,0.404967181225,0.640778240284,NaN,NaN,0.358874022246,-0.36823142419,0.680482511385,NaN,NaN,-1.48228395,10.14039285,0.8049489,NaN,3
1.56925001520819e+18,NaN,53564,NaN,1569250015,163436889,NaN,NaN,0.455935533318,0.431068861934,0.415757928309,0.658367504345,NaN,NaN,-1.13861847597,0.401458775942,-0.544738623519,NaN,NaN,-1.28595495,8.3439825,-0.99146145,NaN,3
1.56925001524959e+18,NaN,53565,NaN,1569250015,206305027,NaN,NaN,0.462299702075,0.43455118199,0.408517006536,0.65616927013,NaN,NaN,0.439159167838,-0.188462511234,-0.129350261543,NaN,NaN,-2.1792519,9.1489314,0.7264173,NaN,4
1.56925001529249e+18,NaN,53566,NaN,1569250015,248589038,NaN,NaN,0.470643825378,0.437744603829,0.402382868178,0.651891155676,NaN,NaN,0.51071766717,-0.172754547966,-0.0193945186673,NaN,NaN,-1.81604325,9.620121,0,NaN,1
1.56925001537748e+18,NaN,53567,NaN,1569250015,291752099,NaN,NaN,0.472774579215,0.4376107625,0.400490861047,0.65160424186,NaN,NaN,0.0866026589342,-0.143083950682,-0.0159038601633,NaN,NaN,-1.9043913,9.5808552,0.3337593,NaN,1
1.5692500154054e+18,NaN,53568,NaN,1569250015,376590967,NaN,NaN,0.471290519234,0.436747581488,0.398810825409,0.65428336528,NaN,NaN,-0.0565143397298,-0.0785067683578,-0.0665184084713,NaN,NaN,-1.58044845,9.61030455,0.12761385,NaN,4
1.56925001544088e+18,NaN,53569,NaN,1569250015,404517889,NaN,NaN,0.475317654554,0.435904085832,0.396564905316,0.6532970466,NaN,NaN,0.255899596378,-0.300163583362,0.0800892486967,NaN,NaN,-2.2774164,8.9133366,0.7460502,NaN,4
1.56925001550492e+18,NaN,53570,NaN,1569250015,440079927,NaN,NaN,0.468661998713,0.447145440241,0.38399669742,0.657999561249,NaN,NaN,0.203539718818,0.0419209500302,-1.04215746034,NaN,NaN,-2.16943545,7.1071098,-1.3154043,NaN,5
1.56925001554742e+18,NaN,53571,NaN,1569250015,503943920,NaN,NaN,0.487893932564,0.442017361141,0.383487076802,0.647701956878,NaN,NaN,0.50199102091,-0.240822388794,0.451844379373,NaN,NaN,-2.4344796,13.7233971,2.89585275,NaN,5
1.56925001561117e+18,NaN,53572,NaN,1569250015,546380996,NaN,NaN,0.481698272939,0.445420668649,0.382172449487,0.650777550812,NaN,NaN,-0.206612655402,0.0506475962902,-0.307373845247,NaN,NaN,-2.28723285,9.66920325,-0.6871515,NaN,4
1.56925001565383e+18,NaN,53573,NaN,1569250015,610138893,NaN,NaN,0.475728747343,0.446294414241,0.384968484528,0.652918617202,NaN,NaN,-0.210103313906,0.0541382547942,-0.0630277499673,NaN,NaN,-2.38539735,8.60902665,-0.75586665,NaN,4
1.56925001569623e+18,NaN,53574,NaN,1569250015,652923107,NaN,NaN,0.46880098526,0.446348384798,0.387541334199,0.656361539013,NaN,NaN,-0.367182946586,0.0471569377862,-0.141567566307,NaN,NaN,-2.2185177,10.2680067,-0.0785316,NaN,4
1.5692500157602e+18,NaN,53575,NaN,1569250015,695221900,NaN,NaN,0.446446426014,0.442260513795,0.396512201051,0.669230379657,NaN,NaN,-1.23984757259,0.15536735141,-0.335299113279,NaN,NaN,-2.77805535,8.90352015,1.6295307,NaN,4
1.56925001580321e+18,NaN,53576,NaN,1569250015,759128093,NaN,NaN,0.4412951016,0.428399616597,0.425671957444,0.663728699432,NaN,NaN,-0.601057066354,0.228671179994,0.793928912765,NaN,NaN,-2.03200515,10.4447028,2.62099215,NaN,3
1.56925001584619e+18,NaN,53577,NaN,1569250015,801642894,NaN,NaN,0.424265838821,0.429894703079,0.471285915692,0.642711932319,NaN,NaN,-1.11767452495,1.72092769045,1.41701145573,NaN,NaN,0.65770215,8.62865955,-2.69952375,NaN,3
1.56925001590831e+18,NaN,53578,NaN,1569250015,844284057,NaN,NaN,0.431057837159,0.432379394929,0.508634534797,0.607065161145,NaN,NaN,0.131981219486,1.36138986454,1.99297010889,NaN,NaN,-0.48100605,9.17838075,-1.0209108,NaN,5
1.56925001595174e+18,NaN,53579,NaN,1569250015,907437086,NaN,NaN,0.42434860799,0.408938653959,0.552515807252,0.589426601819,NaN,NaN,-0.90299902695,0.493961226298,1.33498098088,NaN,NaN,1.20742335,9.8949816,0.89329695,NaN,3
1.5692500159937e+18,NaN,53580,NaN,1569250015,950231075,NaN,NaN,0.422468818235,0.388303856,0.567328812752,0.590659149812,NaN,NaN,-0.89427238069,-0.270492986078,0.753786339969,NaN,NaN,-0.53990475,7.88260935,2.73878955,NaN,3
1.56925001605773e+18,NaN,53581,NaN,1569250015,992494106,NaN,NaN,0.411995989008,0.36689696672,0.587228948973,0.592290538791,NaN,NaN,-1.26428218211,0.0192316697542,0.772984961741,NaN,NaN,-0.981645,9.423792,4.13272545,NaN,3
1.56925001609979e+18,NaN,53582,NaN,1569250016,56245088,NaN,NaN,0.324032033813,0.289497478763,0.642673149498,0.63100370345,NaN,NaN,-4.25752184929,0.446837336494,0.301746063701,NaN,NaN,0.52027185,8.6973747,5.3794146,NaN,3
1.56925001614229e+18,NaN,53583,NaN,1569250016,98754882,NaN,NaN,0.286450436989,0.237711764982,0.671848416734,0.640358469039,NaN,NaN,-3.27839213892,-0.0907240731218,0.832326156309,NaN,NaN,1.4135688,7.1463756,4.8689592,NaN,5
1.56925001620603e+18,NaN,53584,NaN,1569250016,141415119,NaN,NaN,0.287930210084,0.191667479398,0.686893043763,0.63916955332,NaN,NaN,-1.57844144747,-1.2513680257,1.08888955635,NaN,NaN,0.588987,6.7537176,4.28978865,NaN,5
1.56925001624817e+18,NaN,53585,NaN,1569250016,205220937,NaN,NaN,0.33603981085,0.162019471754,0.677841524586,0.633528060818,NaN,NaN,0.411233899806,-1.72958824075,0.467552342641,NaN,NaN,0.8245818,8.07893835,7.6371981,NaN,3
1.56925001629363e+18,NaN,53586,NaN,1569250016,247302055,NaN,NaN,0.35020558428,0.154928787857,0.671487947172,0.634395031692,NaN,NaN,0.207030377322,-0.842960980734,-0.0682637377233,NaN,NaN,1.1583411,8.94278595,7.6960968,NaN,4
1.56925001635502e+18,NaN,53587,NaN,1569250016,292406082,NaN,NaN,0.323841855744,0.14474808749,0.683259576114,0.638224721619,NaN,NaN,-1.26777284062,0.619624932442,0.130703797005,NaN,NaN,2.79768825,7.067844,4.05419385,NaN,3
1.5692500163971e+18,NaN,53588,NaN,1569250016,353749036,NaN,NaN,0.334129443962,0.150545531358,0.690228865297,0.623921205904,NaN,NaN,0.418215216814,-0.00520293977377,0.411701806577,NaN,NaN,2.4737454,7.39178685,6.13528125,NaN,3
1.56925001646168e+18,NaN,53589,NaN,1569250016,396202087,NaN,NaN,0.324753499667,0.158762700052,0.696602742529,0.619737193194,NaN,NaN,-0.0285890716978,0.642314212718,0.0573999684207,NaN,NaN,3.5535549,7.11692625,7.09729335,NaN,3
1.56925001650359e+18,NaN,53590,NaN,1569250016,460432052,NaN,NaN,0.309093490906,0.173131882359,0.708279776138,0.610595057222,NaN,NaN,0.0080628425942,0.760996601854,0.169101040549,NaN,NaN,2.48356185,7.0089453,5.9684016,NaN,3
1.56925001654693e+18,NaN,53591,NaN,1569250016,502619028,NaN,NaN,0.298137491216,0.176992269686,0.720144841435,0.600981846778,NaN,NaN,-0.190904692134,0.706891395042,0.476278988901,NaN,NaN,2.38539735,6.8518821,6.29234445,NaN,3
1.56925001661021e+18,NaN,53592,NaN,1569250016,545418024,NaN,NaN,0.284637231815,0.173328574031,0.735633862414,0.58973016894,NaN,NaN,-0.520771920762,0.63533289571,0.715389096425,NaN,NaN,2.14980255,6.5770215,6.31197735,NaN,5
1.56925001665289e+18,NaN,53593,NaN,1569250016,608957052,NaN,NaN,0.225619065311,0.117377344199,0.765993302296,0.59040059051,NaN,NaN,-2.60469504765,0.577737030394,0.697935803905,NaN,NaN,1.93384065,5.36959815,7.47031845,NaN,5
1.5692500166955e+18,NaN,53594,NaN,1569250016,651822090,NaN,NaN,0.152697936852,0.0512872788506,0.790193303009,0.591309985532,NaN,NaN,-4.62055033371,0.970436112094,0.875959387609,NaN,NaN,-0.02944935,5.1241869,8.2654509,NaN,5
1.56925001675829e+18,NaN,53595,NaN,1569250016,694413900,NaN,NaN,0.170954009087,0.0681446250724,0.801615976906,0.568808282657,NaN,NaN,1.25073727002,-0.0977053901298,0.994641776745,NaN,NaN,6.15491415,4.05419385,9.423792,NaN,5
1.56925001680209e+18,NaN,53596,NaN,1569250016,757234096,NaN,NaN,0.18894529098,0.0464913316223,0.819261991142,0.53939597975,NaN,NaN,-0.166470082606,-0.69984398207,1.17266536045,NaN,NaN,3.07254885,5.31069945,7.7353626,NaN,5
1.56925001684327e+18,NaN,53597,NaN,1569250016,800417900,NaN,NaN,0.190959574043,0.0230939678995,0.834992082759,0.515547603484,NaN,NaN,-0.740683406514,-0.493895130334,1.41526612648,NaN,NaN,3.15108045,4.32905445,8.6188431,NaN,5
1.56925001690711e+18,NaN,53598,NaN,1569250016,842523097,NaN,NaN,0.178605732142,0.00305006638911,0.848484933956,0.498160623083,NaN,NaN,-0.993756148054,0.113479449362,1.06794560533,NaN,NaN,1.38411945,7.60774875,9.9146145,NaN,3
1.56925001695058e+18,NaN,53599,NaN,1569250016,906009912,NaN,NaN,0.160100697933,0.0122187394899,0.8636744117,0.477791774208,NaN,NaN,0.0429694276342,0.715618041302,0.656047901857,NaN,NaN,2.73878955,1.8847584,7.4016033,NaN,5
1.56925001699288e+18,NaN,53600,NaN,1569250016,948957920,NaN,NaN,0.155703387605,0.0131309165176,0.868685910949,0.470073209446,NaN,NaN,-0.0408063764618,0.23390716775,0.303491392953,NaN,NaN,3.1608969,1.6884294,7.50958425,NaN,5
1.56925001706266e+18,NaN,53601,NaN,1569250016,991322040,NaN,NaN,0.171058833171,0.0102138204139,0.863026820039,0.475204441647,NaN,NaN,0.172123792282,-0.738241225614,-0.429546892887,NaN,NaN,3.42594105,0.87366405,8.31453315,NaN,5
1.56925001709837e+18,NaN,53602,NaN,1569250017,61568975,NaN,NaN,0.198138321137,0.000581721126605,0.843815427578,0.498714739584,NaN,NaN,0.0080628425942,-0.907538163058,-0.867624535139,NaN,NaN,3.9069471,1.0405437,9.55140585,NaN,5
1.56925001714096e+18,NaN,53603,NaN,1569250017,97348928,NaN,NaN,0.201167583066,-0.00937742580396,0.835473675025,0.511299722032,NaN,NaN,-0.601057066354,-0.527056386122,-0.883332498407,NaN,NaN,4.2210735,2.4344796,8.96241885,NaN,5
1.56925001720516e+18,NaN,53604,NaN,1569250017,139942884,NaN,NaN,0.203418223095,-0.0117634070706,0.829338243914,0.520269858774,NaN,NaN,-0.197886009142,-0.218133108518,-0.618042452103,NaN,NaN,3.4946562,2.60135925,7.2052743,NaN,5
1.56925001724731e+18,NaN,53605,NaN,1569250017,203704118,NaN,NaN,0.194751476038,-0.00958365473061,0.828501020772,0.524943877688,NaN,NaN,-0.150762119338,0.237397826254,-0.242796662923,NaN,NaN,6.80279985,4.15235835,12.90863175,NaN,5
1.56925001731163e+18,NaN,53606,NaN,1569250017,246273994,NaN,NaN,0.200693636223,-0.0152348593633,0.836136702442,0.510260108444,NaN,NaN,-0.0285890716978,-0.314126217378,0.671755865125,NaN,NaN,4.122909,3.2590614,8.1083877,NaN,5
1.56925001735463e+18,NaN,53607,NaN,1569250017,310535907,NaN,NaN,0.202526656605,-0.015071678225,0.842997697791,0.498107096315,NaN,NaN,0.0551867323982,-0.0244015615458,0.334907319489,NaN,NaN,3.3964917,2.93511855,8.33416605,NaN,5
1.56925001739634e+18,NaN,53608,NaN,1569250017,352982997,NaN,NaN,0.194926302235,-0.0152215286338,0.84515187806,0.497484014592,NaN,NaN,-0.23977391119,0.331645605862,-0.0647730792193,NaN,NaN,4.9474908,1.9240242,8.43233055,NaN,5
1.56925001746193e+18,NaN,53609,NaN,1569250017,395164966,NaN,NaN,0.193448144669,-0.0177974442922,0.847953217517,0.493190031534,NaN,NaN,-0.16996074111,0.0139956819982,0.121977150745,NaN,NaN,3.87749775,2.2577835,8.2654509,NaN,5
1.56925001750272e+18,NaN,53610,NaN,1569250017,460427999,NaN,NaN,0.194672401323,-0.0179575934693,0.846772524903,0.49472868531,NaN,NaN,-0.0442970349658,-0.0418548540658,-0.148548883315,NaN,NaN,4.2014406,2.4344796,8.4814128,NaN,5
1.56925001754458e+18,NaN,53611,NaN,1569250017,501569986,NaN,NaN,0.197034412969,-0.018867906907,0.848196652475,0.4913083359,NaN,NaN,-0.0128811084298,-0.11515868265,0.0364560173967,NaN,NaN,4.1621748,1.9829229,8.70719115,NaN,5
1.5692500176109e+18,NaN,53612,NaN,1569250017,543567895,NaN,NaN,0.204891090092,-0.0194746604541,0.851478471213,0.482311923824,NaN,NaN,0.159906487518,-0.29841825411,0.300000734449,NaN,NaN,5.19290205,2.97438435,8.638476,NaN,5
1.56925001765093e+18,NaN,53613,NaN,1569250017,609364032,NaN,NaN,0.229844665994,-0.00212174539314,0.855174196121,0.464590165629,NaN,NaN,0.872000822334,-0.366486094938,0.313963368465,NaN,NaN,6.35124315,3.99529515,7.9905903,NaN,5
1.56925001769472e+18,NaN,53614,NaN,1569250017,650077104,NaN,NaN,0.256845031051,0.0236638591762,0.860432934189,0.439460825963,NaN,NaN,1.91047172727,-0.469460520806,0.779966278749,NaN,NaN,5.3401488,3.22961205,6.7733505,NaN,5
1.56925001776388e+18,NaN,53615,NaN,1569250017,693207025,NaN,NaN,0.271107630371,0.0507973784723,0.868384152107,0.412103437821,NaN,NaN,1.65739898573,0.0890448398342,0.870723399853,NaN,NaN,3.99529515,2.2774164,6.8126163,NaN,5
1.56925001779986e+18,NaN,53616,NaN,1569250017,762696027,NaN,NaN,0.241377502858,0.0673021942722,0.882546983261,0.397892118666,NaN,NaN,0.14419852425,1.04373994068,0.317454026969,NaN,NaN,2.81732115,2.62099215,10.2680067,NaN,5
1.56925001784226e+18,NaN,53617,NaN,1569250017,798980951,NaN,NaN,0.212931847274,0.0793545375852,0.885933393979,0.404332668993,NaN,NaN,-0.185668704378,1.64238787411,-0.542993294267,NaN,NaN,2.48356185,3.95602935,8.13783705,NaN,5
1.569250017906e+18,NaN,53618,NaN,1569250017,841120004,NaN,NaN,0.198031045969,0.0849707220887,0.886228119226,0.410077312116,NaN,NaN,-0.150762119338,0.738307321578,-0.391149649343,NaN,NaN,4.0640103,4.03456095,7.92187515,NaN,5
1.5692500179543e+18,NaN,53619,NaN,1569250017,905190944,NaN,NaN,0.199446132005,0.0830290188045,0.88513879387,0.412136795313,NaN,NaN,-0.0565143397298,-0.0750161098538,-0.0822263717393,NaN,NaN,3.32777655,3.15108045,8.51086215,NaN,5
1.5692500179912e+18,NaN,53620,NaN,1569250017,948285102,NaN,NaN,0.194521137873,0.0749960630935,0.886971814129,0.412089939675,NaN,NaN,-0.459685396942,0.0681008888102,0.0486733221607,NaN,NaN,3.34740945,3.38667525,8.3832483,NaN,5
1.56925001805494e+18,NaN,53621,NaN,1569250017,990401983,NaN,NaN,0.186000120467,0.0681220462614,0.889980796017,0.410728042287,NaN,NaN,-0.478884018714,0.261832435782,0.0975425412167,NaN,NaN,3.42594105,2.9645679,8.5599444,NaN,5
1.56925001809741e+18,NaN,53622,NaN,1569250018,53999900,NaN,NaN,0.185220117568,0.0490660874446,0.901610335783,0.387794829156,NaN,NaN,-0.459685396942,-0.111668024146,0.868978070601,NaN,NaN,3.07254885,3.01365015,8.45196345,NaN,5
1.56925001814721e+18,NaN,53623,NaN,1569250018,96117019,NaN,NaN,0.188454235357,0.0526573880022,0.900905351333,0.38740385724,NaN,NaN,0.193067743306,-0.0750161098538,-0.0787357132353,NaN,NaN,3.62227005,2.6308086,8.84462145,NaN,5
1.56925001820366e+18,NaN,53624,NaN,1569250018,144995927,NaN,NaN,0.194921636011,0.0621920115917,0.904295130689,0.374683901605,NaN,NaN,0.524680301186,-0.0209109030418,0.420428452837,NaN,NaN,4.2014406,2.87621985,8.82498855,NaN,5
1.56925001824631e+18,NaN,53625,NaN,1569250018,202541112,NaN,NaN,0.187098663174,0.0877507862781,0.906574277828,0.367990446243,NaN,NaN,0.73761046993,0.616134273938,0.0294747003887,NaN,NaN,3.46520685,2.8664034,8.9918682,NaN,5
1.56925001830987e+18,NaN,53626,NaN,1569250018,245070934,NaN,NaN,0.173851781283,0.0969393642929,0.908502037548,0.36742668053,NaN,NaN,0.11801858547,0.764487260358,-0.0857170302433,NaN,NaN,3.26887785,4.4174025,8.1476535,NaN,5
1.56925001835217e+18,NaN,53627,NaN,1569250018,308819055,NaN,NaN,0.168202381604,0.0900108738045,0.906927510135,0.375617481996,NaN,NaN,-0.323549715286,0.0576289132982,-0.241051333671,NaN,NaN,2.9842008,3.7891497,8.29490025,NaN,5
1.56925001839543e+18,NaN,53628,NaN,1569250018,351334095,NaN,NaN,0.164594521972,0.0825303018128,0.906320132424,0.380369833429,NaN,NaN,-0.391617556114,-0.0121842567818,-0.195672773119,NaN,NaN,2.26759995,1.4135688,9.5023236,NaN,5
1.56925001845887e+18,NaN,53629,NaN,1569250018,393767118,NaN,NaN,0.158035905148,0.0733023541644,0.909119407421,0.378356076479,NaN,NaN,-0.538225213282,0.160603339166,0.155138406533,NaN,NaN,3.17071335,3.38667525,8.6188431,NaN,5
1.56925001850069e+18,NaN,53630,NaN,1569250018,457664966,NaN,NaN,0.155615016246,0.0646894760769,0.909461145365,0.380104805908,NaN,NaN,-0.29213378875,-0.0331282078058,-0.0333571526833,NaN,NaN,2.73878955,2.42466315,8.8740708,NaN,5
1.56925001854387e+18,NaN,53631,NaN,1569250018,499937057,NaN,NaN,0.153554888073,0.0600773262124,0.91066635714,0.378811822938,NaN,NaN,-0.253736545206,0.0227223282582,0.0678719439327,NaN,NaN,2.75842245,2.73878955,8.834805,NaN,5
