rosbagTimestamp,secs,nsecs,lwrist.x,lwrist.y,lwrist.z,rwrist.x,rwrist.y,rwrist.z,neck.x,neck.y,neck.z,wDist,wNDist,x,y,z,x.1,y.1,z.1,Label
1569265685.77522,1569265685,775219909,1.269000053,-0.136187956,-0.22447671,1.274000049,0.129733726,-0.206772342,1.35800004,-0.187572792,0.129649699,0.266557283832179,0.470020440538377,0.000375294200017,-0.000280052437825,-0.000458944571122,-0.2552277,0.24541125,9.7575513,5
1569265685.92925,1569265685,929247732,1.258999944,-0.135114774,-0.222707778,1.26699996,0.1290209,-0.205636233,1.35800004,-0.185371026,0.129649699,0.264807651294523,0.468550908537274,0.00546224560543,-0.000288840572368,-0.00046259221801,-0.2552277,0.2355948,9.7379184,5
1569265686.09243,1569265686,92425915,1.256000042,-0.13479282,-0.222177103,1.269000053,0.129224569,-0.20596084,1.355999947,-0.185098022,0.129458755,0.2648341918372,0.467839692072967,0.00373210706745,-0.000285952166644,0.00128736295617,-0.2748606,0.2159619,9.6986526,5
1569265686.25201,1569265686,252011961,1.264000058,-0.135651365,-0.223592237,1.27699995,0.132109657,-0.20518896,1.332000017,-0.175343141,0.127167448,0.268707355126046,0.456084435501471,0.00203672320738,0.00146223660702,-0.000453386632872,-0.2748606,0.2355948,9.66920325,5
1569265686.41134,1569265686,411339744,1.258999944,-0.135114774,-0.222707778,1.269000053,0.133339494,-0.203903526,1.350000024,-0.158013538,0.137640476,0.269297783282201,0.456179668398067,0.000248181744321,-0.000291963269924,-0.000457026568488,-0.2748606,0.22577835,9.72810195,5
1569265686.58166,1569265686,581661316,1.256000042,-0.130720049,-0.220140859,1.287999988,0.143688962,-0.209044576,1.363999963,-0.133114353,0.143490523,0.276491282608362,0.454617495727925,-0.00149962932512,0.00143883232226,0.00127541965668,-0.2944935,0.2159619,9.68883615,5
1569265686.74532,1569265686,745320910,1.258999944,-0.128991023,-0.220666677,1.271999955,0.150153309,-0.204385564,1.360999942,-0.088689111,0.138761997,0.279920762027837,0.427454030157285,-0.00321494142063,-0.000317676400438,-0.000460558394376,-0.28467705,0.22577835,9.70846905,5
1569265686.91101,1569265686,911009668,1.289999962,-0.123801097,-0.213551894,1.269000053,0.162143946,-0.203903526,1.340999961,-0.017811522,0.138896912,0.286877421208682,0.393802104499328,0.00900236334337,0.00317298210356,-0.000460558394376,-0.2552277,0.24541125,9.5219565,5
1569265687.12515,1569265687,125151053,1.315000057,-0.117672175,-0.213426709,1.279999971,0.198829487,-0.207746163,1.335000038,0.049366709,0.131782502,0.318481673996523,0.375025124137256,-0.0171454260224,-0.000384312806513,-0.000473406102952,-0.2748606,0.20614545,9.88516515,5
1569265687.28855,1569265687,288548707,1.296000004,-0.105465785,-0.210342988,1.279999971,0.213356555,-0.207746163,1.347000003,0.117512122,0.13078329,0.319234128875904,0.358158275310751,0.0195064882696,0.00310634569749,-0.000473406102952,-0.2355948,0.2748606,9.62993745,5
1569265687.45689,1569265687,456886178,1.325999975,-0.101457492,-0.210912585,1.27699995,0.212856501,-0.211399823,1.338000059,0.140589625,0.132078648,0.318110870682649,0.356259701208696,0.00721629167052,0.00134740628103,-0.000468672041923,-0.30430995,0.196329,9.7182855,5
1569265687.62938,1569265687,629376866,1.300999999,-0.105872668,-0.209045291,1.292999983,0.215523452,-0.209856078,1.338000059,0.134081632,0.132078648,0.321496692957508,0.354368641007656,-0.00488720831037,0.00132449293908,-0.000454752013606,-0.2944935,0.20614545,9.7379184,5
1569265687.78843,1569265687,788430377,1.30400002,-0.112459429,-0.211641401,1.292999983,0.198752478,-0.207759857,1.355999947,0.087518044,0.138252214,0.311430438872635,0.368871858575591,-0.00660729543461,-0.00394961883255,-0.00044124542405,-0.26504415,0.2159619,9.7968171,5
1569265687.95204,1569265687,952044355,1.284999967,-0.114987642,-0.214807436,1.274000049,0.154520541,-0.198510647,1.368000031,0.028407283,0.143911317,0.270224433076801,0.376820052397682,-0.00835262468661,-0.00220428958055,0.00130408382795,-0.2552277,0.2159619,9.70846905,5
1569265688.12718,1569265688,127177815,1.292999983,-0.130378127,-0.218240991,1.279999971,0.138645902,-0.207746163,1.376999974,-0.033917636,0.149322927,0.269542334163193,0.408271368408937,0.00211935082539,0.00128636892345,-0.00044124542405,-0.26504415,0.2355948,9.6986526,5
1569265688.29855,1569265688,298546565,1.271999955,-0.130322948,-0.225007385,1.27699995,0.136250511,-0.207259253,1.376999974,-0.089731745,0.144858107,0.267210413686881,0.430179753173275,0.00735533858139,0.00303169817545,-0.00044124542405,-0.26504415,0.24541125,9.6986526,5
1569265688.46716,1569265688,467161375,1.271999955,-0.130322948,-0.225007385,1.281999946,0.12846984,-0.208070755,1.373999953,-0.118496358,0.14231497,0.259539123017263,0.438436381389992,0.0264978602601,0.00129095852674,0.00129104298967,-0.2552277,0.24541125,9.66920325,5
1569265688.62937,1569265688,629369083,1.269000053,-0.130015582,-0.22447671,1.279999971,0.128269419,-0.207746163,1.360999942,-0.137234822,0.140968457,0.25905993735137,0.445707733265569,0.0038085799841,0.00303628777874,0.00129104298967,-0.3141264,0.2159619,9.68883615,5
1569265688.79872,1569265688,798723366,1.274000049,-0.1408557,-0.225361168,1.279999971,0.128269419,-0.207746163,1.398000002,-0.129632622,0.147067264,0.269767709598314,0.454235663557421,0.00202184297668,0.00302787646365,-0.000462524725303,-0.2944935,0.22577835,9.6790197,5
1569265688.96119,1569265688,961191382,1.279999971,-0.133217886,-0.222272217,1.287999988,0.135335907,-0.209044576,1.40199995,-0.095907062,0.140669242,0.268998346636391,0.434475610993383,-0.00836906682754,0.00125719905507,-0.00047077377579,-0.30430995,0.20614545,9.6790197,5
1569265689.13363,1569265689,133628069,1.300999999,-0.131184801,-0.211154491,1.271999955,0.150153309,-0.202323377,1.383000016,-0.045276888,0.14548929,0.282966646912414,0.414110645561202,0.00559356718846,0.00300252830707,-0.00047077377579,-0.24541125,0.24541125,9.6397539,5
1569265689.30263,1569265689,302627028,1.296000004,-0.113870732,-0.214545161,1.281999946,0.186668918,-0.208070755,1.383000016,0.033203352,0.149973571,0.300935210268222,0.402428171812685,0.0038097555571,-0.000483248894965,-0.000466066038032,-0.26504415,0.22577835,9.70846905,5
1569265689.46943,1569265689,469433746,1.292999983,-0.107318021,-0.209856078,1.292999983,0.196656093,-0.209856078,1.411000013,0.097930893,0.153009906,0.303974114,0.394134995324355,-0.00140115043596,-0.000468895919536,-0.000452223410636,-0.26504415,0.2355948,9.74773485,5
1569265689.6415,1569265689,641500261,1.296000004,-0.10756702,-0.208241895,1.289999962,0.198291332,-0.213551894,1.427999973,0.12457855,0.138647765,0.30596327897566,0.385385750989701,0.01256148358,0.00302176258446,0.00129310584136,-0.28467705,0.22577835,9.68883615,5
1569265689.8024,1569265689,802402097,1.300999999,-0.103763327,-0.206936091,1.292999983,0.198752478,-0.214048535,1.457999945,0.146106884,0.139196798,0.302705136049013,0.393419383500477,-0.00308758361394,-0.000472075213829,0.00127180527677,-0.2944935,0.22577835,9.7379184,5
1569265689.96898,1569265689,968984738,1.371000052,-0.080449417,-0.17583929,1.315000057,0.206398264,-0.194239676,1.453999996,0.152778268,0.145886645,0.292841536910369,0.371324657476498,0.000391275950349,-0.000458054107903,-0.000476565811642,-0.26504415,0.2159619,9.72810195,5
1569265690.14035,1569265690,140349399,1.440999985,-0.098574944,-0.203506559,1.421000004,0.257594228,-0.230630696,1.447999954,0.152147815,0.138242096,0.357759971393057,0.384597295872507,0.0038355793699,0.00128342651664,-0.000462411330471,-0.30430995,0.22577835,9.72810195,5
1569265690.3105,1569265690,310504520,1.671000004,-0.163074836,-0.292878479,1.146999955,0.24697727,-0.269838899,1.481999993,0.124483898,0.143890753,0.665769932659634,0.546261729016387,0.000314223635554,-0.000460807896598,0.00128368548045,-0.28467705,0.22577835,9.7182855,5
1569265690.47938,1569265690,479377743,1.726999998,-0.199340254,-0.277495176,1.166000009,0.243506581,-0.266747445,1.511000037,0.073023736,0.156505033,0.7148075409851,0.57204202633411,0.00907263424424,0.00128912943437,0.00128830191817,-0.2748606,0.2355948,9.70846905,5
1569265690.65115,1569265690,651145970,1.644000053,-0.227076337,-0.317464143,1.171000004,0.198985055,-0.267891288,1.593000054,0.004669055,0.149502814,0.638525507759738,0.624548305930285,0.000345987984238,0.00128912943437,0.00128830191817,-0.34357575,0.2159619,9.6593868,5
1569265690.8165,1569265690,816501676,1.626999974,-0.219452441,-0.182295755,1.605000019,0.150428921,-0.315137148,1.610000014,-0.031825785,0.166759163,0.393628067684658,0.515233764775325,0.000321824063757,-0.000447121441261,-0.00044793248989,-0.2944935,0.2159619,9.72810195,5
1569265690.98255,1569265690,982554505,1.621999979,-0.168812037,-0.129143417,1.661999941,-0.040937625,-0.221245214,1.63499999,-0.056177773,0.171999276,0.162587217255774,0.394464812601104,0.000294814020049,0.00125964974055,-0.000451734419007,-0.28467705,0.20614545,9.7182855,5
1569265691.15956,1569265691,159557351,1.588999987,-0.227208361,-0.17803809,1.569000006,-0.051366184,-0.150360376,1.674999952,-0.068415031,0.176207215,0.179127123307347,0.343763062628281,0.000282853324035,-0.000466541800835,0.00127700676672,-0.26504415,0.2159619,9.72810195,5
1569265691.3202,1569265691,320203940,1.626999974,-0.383001983,-0.285166532,1.572999954,0.027563533,-0.107390873,1.666000009,-0.065346301,0.175260425,0.450648676932742,0.311725847091632,0.00369599227242,-0.000469791014808,-0.000454412839141,-0.28467705,0.2355948,9.7182855,5
1569265691.49465,1569265691,494650065,1.817999959,-0.374907851,-0.283275008,1.588999987,0.156658173,-0.141972601,1.626999974,-0.053264998,0.160606846,0.595793416606094,0.37022433534483,0.00365498706912,-0.000473116511472,-0.000440916323406,-0.2944935,0.2159619,9.70846905,5
1569265691.65626,1569265691,656260536,1.828999996,-0.249663934,-0.264232606,1.593000054,0.221621796,-0.170738488,1.593000054,-0.015993111,0.152085394,0.535301188141997,0.400844237601301,-0.00156842811707,0.00126881148152,-0.000427820667685,-0.28467705,0.20614545,9.72810195,5
1569265691.82475,1569265691,824754811,1.671000004,-0.225387231,-0.282042295,1.503999949,0.272640198,-0.149007916,1.519000053,0.053708017,0.157333642,0.541865743890743,0.376830801760279,0.000154888342845,0.00128296453582,-0.000432219938032,-0.2944935,0.2159619,9.6986526,5
1569265691.98755,1569265691,987552523,1.434000015,-0.193420276,-0.186244249,1.417999983,0.309928298,-0.117498718,1.478999972,0.124231905,0.150792792,0.508273288698419,0.331940481666956,0.000169259357342,0.00127488683407,-0.00044089752086,-0.28467705,0.2159619,9.6986526,5
1569265692.16247,1569265692,162466433,1.315000057,-0.100615837,-0.094040647,1.32099998,0.320853829,-0.111602701,1.444000006,0.170457065,0.140201241,0.421878067899786,0.318046251706276,0.000146953425575,-0.000490854539265,-0.000427802423593,-0.2748606,0.2159619,9.72810195,5
1569265692.31914,1569265692,319138590,1.217000008,-0.0003793,-0.128465623,1.32099998,0.331562698,-0.13730216,1.417999983,0.188079238,0.135377958,0.347964895640904,0.323033977513304,0.00532911176976,0.00296980592509,-0.000423524399357,-0.26504415,0.24541125,9.7968171,5
1569265692.49189,1569265692,491891348,1.202999949,0.005476426,-0.154292241,1.376999974,0.338920653,-0.14535509,1.379999995,0.178564176,0.131750062,0.376219263046996,0.320172555205463,9.12708458856e-05,-0.000510487612592,-0.00041509626381,-0.28467705,0.22577835,9.72810195,5
1569265692.66798,1569265692,667984031,1.228999972,-0.030272165,-0.135709733,1.373999953,0.347093046,-0.145038426,1.376999974,0.158082917,0.14262569,0.404371761472241,0.344215735585488,0.00181643596997,-0.00049532562001,-0.000402767489679,-0.28467705,0.22577835,9.70846905,5
1569265692.83347,1569265692,833472145,1.35800004,-0.101704173,-0.108123772,1.296000004,0.314781666,-0.138905883,1.343999982,0.112892285,0.141386554,0.422199001549212,0.348750871379503,7.03956507922e-05,0.00125495688819,-0.000398739814782,-0.2748606,0.2552277,9.61030455,5
1569265692.99284,1569265692,992844441,1.394999981,-0.14292492,-0.111069709,1.253999949,0.278149575,-0.142536312,1.300999999,0.058656149,0.141081423,0.4451683799057,0.361697924190546,0.539377134519,0.38697272158,0.535417340549,-2.1203532,-2.14980255,10.84717725,6
1569265693.16249,1569265693,162489518,1.360999942,-0.183573917,-0.126014397,1.222000003,0.251239061,-0.154747993,1.287999988,0.012128172,0.139671698,0.457393625248892,0.384984375925707,-3.06472777086,-1.53638011412,0.167152868377,6.54757215,1.9043913,11.5637781,6
1569265693.33506,1569265693,335059955,1.35800004,-0.196379825,-0.114728592,1.256000042,0.270447642,-0.130546182,1.289999962,0.003780967,0.141979948,0.478102582811518,0.382802300996662,-1.1326482889,-2.63768287214,1.81997967002,6.7929834,5.84078775,10.04222835,4
1569265693.50158,1569265693,501581460,1.217000008,-0.172043577,-0.094924353,1.264000058,0.257824749,-0.121131629,1.309999943,0.037822559,0.142057389,0.433223503186733,0.346100292141763,4.10508479635,0.140881297048,-0.0230880200908,3.15108045,-5.1241869,12.8399166,6
1569265693.66335,1569265693,663347453,1.32099998,-0.135343239,-0.141585395,1.235999942,0.288184702,-0.156520873,1.340999961,0.093072519,0.128026694,0.432231409977097,0.360639828403139,-0.527019038453,-0.394934783316,-0.270924773875,4.2603393,-1.2957714,5.58556005,6
1569265693.8316,1569265693,831597932,1.292999983,-0.09473978,-0.209856078,1.246000052,0.296576798,-0.188087687,1.343999982,0.123787582,0.130492017,0.394729680386925,0.37543724808099,0.560321085543,-0.325121613236,-0.269179444623,3.91676355,1.97310645,9.7968171,6
1569265693.99202,1569265693,992015132,1.289999962,-0.086153932,-0.221917361,1.228999972,0.294523001,-0.185521483,1.353000045,0.135584787,0.126978844,0.387247448066062,0.371878781794044,0.0245050051788,0.3171595515,-0.560649429707,2.24796705,3.1216311,8.8544379,6
1569265694.16986,1569265694,169864361,1.238999963,-0.080739021,-0.217161238,1.243999958,0.296100736,-0.187785774,1.335000038,0.135945469,0.125289544,0.378016031791027,0.363244929556696,0.0419582976988,0.0309255541722,0.284089928261,2.36576445,2.3363151,9.0703998,6
1569265694.32764,1569265694,327635834,1.253999949,-0.083749637,-0.217757314,1.233999968,0.293720514,-0.184275672,1.317999959,0.119255982,0.123694099,0.379479557403267,0.363784622082588,0.314229661011,0.137390638544,0.516218718777,0.91292985,2.3755809,9.68883615,6
1569265694.49521,1569265694,495208966,1.241000056,-0.08489348,-0.217511788,1.228999972,0.284559965,-0.18153654,1.287999988,0.08939404,0.120878607,0.371394761011833,0.364726831072431,-0.0557801404132,0.585940256308,0.673298351457,2.944935,2.66025795,8.6777418,6
1569265694.66691,1569265694,666915052,1.225999951,-0.091818348,-0.216870323,1.235999942,0.274156988,-0.17856288,1.26699996,0.055069026,0.12096183,0.368110590134964,0.372391713266955,-0.499093770421,-0.15407934654,-0.335501956199,1.95347355,3.58300425,9.17838075,6
1569265694.83406,1569265694,834057751,1.258999944,-0.102454796,-0.220666677,1.246000052,0.256173372,-0.184047624,1.271999955,0.047037043,0.121439189,0.36072720318499,0.371128268905109,-0.108140017973,-0.71258470718,-0.696785111363,2.355948,2.3363151,8.9526024,6
1569265694.98595,1569265694,985951846,1.289999962,-0.102886006,-0.213551894,1.243999958,0.263829887,-0.181735411,1.296000004,0.068936907,0.121629402,0.370956648595596,0.364304114997082,0.0175236881708,0.00823627389619,0.296307233025,2.9842008,2.83695405,8.86425435,6
1569265695.14061,1569265695,140614178,1.289999962,-0.088245444,-0.215643272,1.261000037,0.275613248,-0.184218943,1.325999975,0.079132177,0.12014544,0.366362705316817,0.368059072487395,0.0367223099428,-0.0528502499238,0.125264966329,2.5719099,2.6504415,9.031134,6
1569265695.28871,1569265695,288706104,1.284999967,-0.098320417,-0.214807436,1.258999944,0.275176108,-0.185967863,1.332000017,0.075171031,0.125008002,0.375509489033098,0.376878004261697,0.0559209317148,0.10772004126,-0.248235493599,2.50319475,2.4148467,9.06058335,6
1569265695.46394,1569265695,463938880,1.274000049,-0.095413193,-0.215034038,1.258999944,0.258846134,-0.19005008,1.340999961,0.071330547,0.125852644,0.355455865156069,0.376404874020748,-0.0557801404132,-0.0231796526398,-0.000398739814782,2.42466315,2.40503025,9.08021625,6
1569265695.6313,1569265695,631302703,1.269000053,-0.092981271,-0.218304753,1.248999953,0.262865275,-0.184490755,1.347000003,0.0716497,0.122048199,0.358008595931556,0.374344141455422,0.0943181752588,0.100738724252,0.146208917353,2.11053675,2.5130112,9.27654525,6
1569265695.79785,1569265695,797854988,1.281999946,-0.096012339,-0.216384336,1.235999942,0.266141146,-0.186578155,1.340999961,0.077853143,0.125852644,0.366277975711685,0.379592386946191,-0.00167493360121,-0.00747168937181,-0.110354482691,2.66025795,2.5326441,8.9722353,6
1569265695.95515,1569265695,955145224,1.253999949,-0.091882199,-0.211658314,1.233999968,0.267711222,-0.188276827,1.350000024,0.080564432,0.122320019,0.360907358751266,0.380723436032581,4.98996672712,0.353811465792,-0.506544222895,-1.26632205,6.92059725,6.4199583,6
1569265696.1181,1569265696,118100843,1.258999944,-0.092248559,-0.208420038,1.233999968,0.267711222,-0.186276242,1.353000045,0.087324426,0.126978844,0.361505726702715,0.380564269739053,4.56236106038,-1.65680783251,-2.20125892659,4.95730725,6.92059725,4.95730725,4
1569265696.27459,1569265696,274594159,1.223999977,-0.083730556,-0.176829264,1.253999949,0.274083287,-0.158800304,1.332000017,0.079490244,0.125008002,0.359521609866655,0.352842199214598,2.34579291034,-0.810323145292,-0.707257086875,0.52027185,8.5795773,1.7080623,6
1569265696.43556,1569265696,435561801,1.166000009,-0.0438441,-0.162779093,1.258999944,0.256804883,-0.134940207,1.26699996,0.075611211,0.125069991,0.315933224689426,0.31701805956892,0.872735021651,-0.194221919336,-0.682822477347,-2.14980255,9.031134,-0.77549955,6
1569265696.60223,1569265696,602233238,1.139999986,-0.020686718,-0.168390289,1.246000052,0.233951494,-0.111326531,1.205000043,0.064096428,0.124810427,0.281660976139123,0.293755692910551,0.0227596759268,-0.0528502499238,-0.304086029663,-2.13016965,9.7379184,-0.6086199,1
1569265696.76999,1569265696,769987341,1.129999995,-0.022337351,-0.172409087,1.246000052,0.229911149,-0.09718632,1.138000011,0.056842428,0.117870763,0.287652192154674,0.296422569979154,-0.130829298249,0.0728134562202,-0.373899199743,-2.7093402,10.209108,-0.42210735,1
1569265696.91681,1569265696,916813419,1.129999995,-0.018673157,-0.172409087,1.235999942,0.220050126,-0.090394877,1.116000056,0.053934142,0.11559207,0.273772031537601,0.290560002606488,-0.0784694206892,-0.0650675546878,-0.480364284115,-2.7093402,8.13783705,-0.4711896,8
1569265697.07504,1569265697,75043453,1.129999995,-0.015008963,-0.179736957,1.235999942,0.226062,-0.076368146,1.083999991,0.054145157,0.117549784,0.282906891137886,0.300438928214328,-0.0470534941532,-0.11044611524,0.188096819401,-2.5130112,4.76097825,0.2552277,6
1569265697.23068,1569265697,230680558,1.129999995,-0.018673157,-0.181568936,1.217000008,0.222586945,-0.071248174,1.062000036,0.053046271,0.115164086,0.279188304925746,0.295835363232124,-0.764383816725,-0.12789940776,1.77809176797,-2.6700744,8.7562734,-2.01237225,2
1569265697.40059,1569265697,400594328,1.131999969,-0.018706206,-0.181890294,1.197999954,0.201630741,-0.143939897,1.057999969,0.051131111,0.111299835,0.233119284628575,0.327715509583494,0.925094899211,-0.40715208808,0.247438013969,-2.52282765,5.46776265,8.7170076,6
1569265697.56954,1569265697,569541321,1.120000005,-0.036666747,-0.161804557,1.200000048,0.240879163,-0.151962012,1.144999981,0.059048489,0.120452091,0.289013173972757,0.332109688040854,-2.96000801574,0.29970625898,0.858303252169,-1.2172398,5.42849685,9.17838075,2
1569265697.73296,1569265697,732956189,1.085999966,-0.053161241,-0.134004354,1.223999977,0.255619258,-0.137141988,1.174999952,0.077741124,0.127417892,0.338229573434682,0.322542343128677,2.00196304769,0.0675774684642,-0.332011297695,-0.87366405,6.84206565,6.58683795,6
1569265697.8946,1569265697,894604654,1.09800005,-0.01458393,-0.151505888,1.246000052,0.272334754,-0.139606953,1.212000012,0.086084276,0.131430194,0.323060236603681,0.330615151390752,-0.443243234357,0.566741634536,0.0729050887692,-1.3546701,9.43360845,0.3533922,6
1569265698.06556,1569265698,65558650,1.149000049,-0.01898713,-0.165994138,1.248999953,0.244639948,-0.139943093,1.225999951,0.085090905,0.12698555,0.283156977665074,0.31182655061434,0.928585557715,-0.126154078508,-0.0597399343828,-1.374303,10.9551582,1.97310645,1
1569265698.23282,1569265698,232815052,1.136000037,-0.015088656,-0.16411604,1.241000056,0.241060942,-0.133010969,1.205000043,0.077772304,0.126763985,0.278577001899792,0.308937221715994,0.558575756291,-0.325121613236,-0.401824467775,-2.01237225,8.5795773,-1.48228395,1
1569265698.40389,1569265698,403894832,1.139999986,-0.011445165,-0.166542098,1.233999968,0.227696925,-0.104252636,1.190999985,0.061420742,0.129152939,0.264395372315436,0.2897842818583,-0.0156375676172,-0.332102930244,-0.103373165683,-2.42466315,10.7195634,-1.3350372,1
1569265698.573,1569265698,573001093,1.151000023,-0.01528789,-0.168149084,1.251000047,0.226777196,-0.097576313,1.149000049,0.057391871,0.124598429,0.271249012287246,0.297417221929266,-0.174462529549,-0.38969879556,-0.0789385561548,-2.6111757,9.0703998,0.3533922,1
1569265698.73273,1569265698,732733254,1.149000049,-0.015261326,-0.169719681,1.218999982,0.228881925,-0.093104094,1.126000047,0.056243032,0.123929776,0.265284499736053,0.292501070106498,0.0768648827388,-0.0563409084278,-0.312812675923,-2.3363151,10.29745605,0.67733505,1
1569265698.88877,1569265698,888765168,1.151000023,-0.01528789,-0.170015097,1.217000008,0.232452706,-0.090978324,1.126000047,0.058068644,0.122104295,0.268287555456247,0.289991373150169,0.120498114039,-0.0423782744118,0.828632654885,-5.2027185,9.81645,-0.67733505,8
1569265699.04772,1569265699,47724965,1.149000049,-0.015261326,-0.169719681,1.210000038,0.229153872,-0.088493362,1.110000014,0.057243515,0.122168787,0.264683778440744,0.289709711030138,-0.307107552701,-0.113936773744,0.0537064669972,-3.11181465,4.7315289,0.5300883,6
1569265699.20321,1569265699,203211778,1.139999986,-0.015141785,-0.175783008,1.192999959,0.220131621,-0.127866298,1.105999947,0.057037231,0.119935475,0.245883272725222,0.309151258835244,-5.32841981071,0.109465370512,1.24227568761,0.91292985,11.8582716,0.75586665,2
1569265699.36739,1569265699,367386879,1.154999971,-0.019086281,-0.174350947,1.210000038,0.227192059,-0.137535036,1.138000011,0.060532562,0.123405583,0.255016547357069,0.317882680359275,0.394514806603,0.512636427724,0.280599269757,-2.44429605,11.78955645,4.58428215,8
1569265699.53204,1569265699,532043459,1.143000007,-0.011475283,-0.166980371,1.212000012,0.26293841,-0.151516736,1.182000041,0.068622231,0.128176972,0.283377838941777,0.341887914346135,6.21867852053,-0.103464798232,-0.227291542575,-1.570632,11.1711201,-0.30430995,1
1569265699.69973,1569265699,699731327,1.103999972,0.015765404,-0.141594872,1.243999958,0.261812955,-0.119214989,1.222000003,0.086794548,0.132514611,0.283972274344154,0.307381249143437,0.843064424367,-0.24134580914,-0.260452798363,-4.13272545,9.1881972,-3.2590614,1
1569265699.86152,1569265699,861515215,1.095999956,0.063629411,-0.15833731,1.26699996,0.272816211,-0.104986519,1.251000047,0.105080537,0.135659382,0.275402297671181,0.293771515324995,1.48360025985,0.0763041147242,-0.532724161675,0.0588987,6.7340847,-9.2470959,6
1569265700.03878,1569265700,38776495,1.083999991,0.054145157,-0.17593503,1.284999967,0.280858874,-0.100228265,1.26699996,0.114641368,0.139448509,0.31230051888321,0.292228019785761,1.3544458952,-0.83475775482,-0.227291542575,-3.52410555,6.3217938,-2.7093402,6
1569265700.20712,1569265700,207124477,1.10800004,0.069715366,-0.145700514,1.284999967,0.287109077,-0.09189523,1.271999955,0.119218431,0.139998823,0.285454038904125,0.286585277261523,0.258379124947,-0.0406329451598,-0.359936565727,-3.8676813,6.8911479,-6.1843635,6
1569265700.3668,1569265700,366797609,1.092000008,0.075790599,-0.159529805,1.274000049,0.297044724,-0.089043155,1.274000049,0.11527475,0.142284378,0.295035202275491,0.294198489071285,0.900660289683,-0.0633222254358,-0.279651420135,-2.40503025,9.2667288,-6.1647306,1
1569265700.53447,1569265700,534472002,1.08099997,0.078532442,-0.17544812,1.261000037,0.289924681,-0.086090207,1.274000049,0.107012473,0.146415219,0.291670258074342,0.296115938893665,1.90596993883,-0.0964834812238,-0.106863824187,-9.6397539,8.1280206,-7.0089453,1
1569265700.69471,1569265700,694707105,1.067999959,0.089709044,-0.178532571,1.258999944,0.28334111,-0.073707022,1.258999944,0.089422531,0.14673245,0.291483733639769,0.293594918377376,-1.02967386303,0.0379068711802,-1.07901221755,-5.2812501,3.9462129,-5.01620595,2
1569265700.87474,1569265700,874741880,1.034999967,0.088615209,-0.201541334,1.296000004,0.30217424,-0.035952426,1.248999953,0.08668723,0.14556697,0.375696906412992,0.285644792350478,-2.7034446157,2.30683489878,1.25100233387,-1.16815755,8.90352015,-2.5915428,4
1569265701.04659,1569265701,46591881,1.067999959,0.11221952,-0.188921288,1.317999959,0.320125192,-0.028015699,1.256000042,0.087173067,0.146382809,0.362788336390806,0.297532387888526,-1.81856268493,1.01703658155,0.973494982801,0.1177974,10.02259545,-2.1399861,4
1569265701.21299,1569265701,212988274,1.10800004,0.125404641,-0.187015474,1.335000038,0.315596372,-0.056513194,1.26699996,0.10847871,0.14561075,0.323624379053826,0.297280717939236,-0.495603111917,-0.426350709852,0.0467251499892,0.3730251,10.994424,-0.4319238,6
1569265701.36141,1569265701,361408104,1.09800005,0.124272831,-0.174647063,1.355999947,0.311766744,-0.083782531,1.26699996,0.126966685,0.141502589,0.331623698549487,0.304672684672942,-0.279182284669,-0.60786495206,0.0659237717612,0.392658,10.55268375,0.63806925,6
1569265701.54072,1569265701,540723344,1.062000036,0.082317673,-0.179251298,1.379999995,0.308335036,-0.087502681,1.279999971,0.124118827,0.14710477,0.400781275788788,0.31460494675553,-0.373430064277,-0.0807755179558,0.0502158084932,0.4711896,9.70846905,1.1190753,6
1569265701.70336,1569265701,703354958,1.014999986,-0.010190212,-0.196001291,1.343999982,0.293754339,-0.083041094,1.26699996,0.100261837,0.139448509,0.461934295714088,0.304745754952088,-0.474659160893,0.201967820868,0.106066344557,0.28467705,10.0324119,0.91292985,6
1569265701.87504,1569265701,875043366,1.014999986,-0.069433428,-0.227266371,1.324000001,0.26791665,-0.077512391,1.228999972,0.061387822,0.135266155,0.481365078627902,0.311374167109169,-0.0679974451772,0.329376856264,-0.0527586173748,-0.3141264,10.4250699,0.9423792,4
1569265702.04131,1569265702,41313073,0.991999984,-0.072685122,-0.241415396,1.281999946,0.226161152,-0.072975144,1.200000048,0.0190819,0.132074371,0.449200614355666,0.302739332566195,-0.211114443841,0.289234283468,0.228239392197,-1.05036015,9.02131755,0.8638476,6
1569265702.21258,1569265702,212582268,0.966000021,-0.084875867,-0.239786252,1.269000053,0.2074081,-0.0557766,1.177000046,-0.015633229,0.129542932,0.459454555735841,0.304228145757071,-0.207623785337,0.399190026344,0.0798864057772,-0.38284155,9.82626645,1.46265105,6
1569265702.36048,1569265702,360476474,0.953999996,-0.096195459,-0.238354176,1.261000037,0.195878103,-0.055424973,1.152999997,-0.02840017,0.126901448,0.461539905212523,0.308557411472376,-0.188425163565,0.215930454884,0.0257811989652,0.24541125,9.1096656,1.4528346,6
1569265702.53744,1569265702,537435058,0.949000001,-0.041838985,-0.204795808,1.271999955,0.195524469,-0.060032826,1.144999981,-0.022633865,0.126020953,0.426176841858335,0.313588999758979,-0.235549053369,0.0483788466922,0.107811673809,0.4515567,8.7759063,2.07127095,6
1569265702.7062,1569265702,706198848,0.981000006,-0.009848865,-0.211701453,1.269000053,0.197120786,-0.074292466,1.144999981,-0.015208197,0.126020953,0.380344177312379,0.317151510652699,-0.195406480573,-0.667206146628,-0.279651420135,0.87366405,9.94406385,3.62227005,6
1569265702.87295,1569265702,872949393,0.984000027,-0.048168197,-0.205967769,1.258999944,0.203732431,-0.079830341,1.152999997,-0.007836903,0.126901448,0.393687098441461,0.314222221423544,0.162386016087,-0.606119622808,-0.141770409227,-1.1190753,9.3059946,2.8664034,6
1569265703.03922,1569265703,39218138,0.908999979,-0.230193675,-0.163742736,1.261000037,0.195878103,-0.077912807,1.146999955,-0.020813741,0.12438155,0.559292390036043,0.317607274517084,-0.371684735025,0.277016978704,-0.00214406906678,-0.79513245,9.62993745,2.34613155,4
1569265703.2031,1569265703,203103616,0.940999985,-0.410697669,-0.090177894,1.230999947,0.181238785,-0.076059215,1.136000037,-0.042716034,0.123188704,0.659308790045151,0.314452662700066,-0.422299283333,0.507400439968,1.38364735702,-0.71660085,8.49122925,2.44429605,4
1569265703.36028,1569265703,360277844,0.930999994,-0.403314263,-0.083182186,1.233999968,0.165674746,-0.07624457,1.138000011,-0.068622187,0.123405583,0.644674807265311,0.322445697986702,-0.568906940501,0.179278540592,-0.689803794355,0.1177974,7.84334355,4.4566683,4
1569265703.51977,1569265703,519772984,0.852999985,-0.316970617,-0.149506494,1.243999958,0.167017341,-0.07887923,1.128000021,-0.058874909,0.122321174,0.626189693938775,0.323982864614519,-0.172717200297,-0.222147187368,-0.211583579307,0.10798095,8.2654509,5.4775791,4
1569265703.67997,1569265703,679971958,1.092000008,-0.071159817,-0.150677979,1.261000037,0.193833619,-0.090178899,1.154999971,-0.022831541,0.128994077,0.320066664315316,0.325908881374114,0.443384025659,-0.932496192932,-0.832920793019,1.6884294,6.80279985,6.62610375,6
1569265703.84428,1569265703,844283143,1.116000056,0.017746165,-0.173891589,1.296000004,0.243339598,-0.098985158,1.200000048,0.0385378,0.134019822,0.298166650881493,0.324732333962658,0.691220779443,-0.88711763238,-0.541450807935,1.0994424,9.0507669,5.300883,6
1569265704.01094,1569265704,10940284,1.120000005,0.019625656,-0.163620308,1.325999975,0.279070735,-0.109875388,1.264000058,0.089777663,0.132970691,0.335613249266359,0.314086094727032,1.12057177543,-0.272761735676,-1.12613610735,1.16815755,10.33672185,4.89840855,6
1569265704.16924,1569265704,169242542,1.182000041,-0.019532453,-0.15351513,1.324000001,0.287236363,-0.122588575,1.274000049,0.109078042,0.129891828,0.339451832981075,0.313028331689935,1.18165829925,-0.614846269068,-0.696785111363,-2.0614545,8.82498855,1.3546701,6
1569265704.33478,1569265704,334779308,1.184000015,-0.021485152,-0.172970042,1.274000049,0.259864509,-0.113828249,1.264000058,0.108221859,0.128872275,0.301256351873402,0.286354740608388,0.717400718223,-0.244836467644,-0.679331818843,-2.44429605,9.17838075,-1.30558785,6
1569265704.5047,1569265704,504701995,1.174999952,-0.00608138,-0.181179851,1.264000058,0.233232498,-0.094491869,1.218999982,0.088557862,0.128236771,0.269642276534379,0.269376695758909,0.125734101795,-0.138371383272,-0.136534421471,-2.8271376,9.55140585,-1.374303,1
1569265704.66817,1569265704,668168440,1.167999983,-0.004151443,-0.185781211,1.264000058,0.233232498,-0.080147386,1.159999967,0.076748684,0.125791281,0.276993961719074,0.278772196493359,0.0768648827388,-0.195967248588,-0.0771932269028,-2.748606,9.47287425,0.2944935,1
1569265704.83627,1569265704,836272036,1.171000004,0.001533609,-0.186258391,1.261000037,0.236767918,-0.077912807,1.151000023,0.072420932,0.124815315,0.274178685610333,0.28321127508793,0.0332316514388,0.0920120779922,-0.0894105316668,-3.07254885,9.6397539,0.59880345,1
1569265705.0063,1569265705,6299378,1.172999978,-0.000365586,-0.188478202,1.261000037,0.236767918,-0.077912807,1.144999981,0.073899828,0.120452091,0.276045314531559,0.281656990843121,0.0279956636828,-0.0650675546878,-0.162714360251,-3.13144755,8.27526735,-0.14724675,1
1569265705.17087,1569265705,170870368,1.18599999,-0.000369638,-0.190567046,1.246000052,0.229911149,-0.076986015,1.110000014,0.071640879,0.120369241,0.263685226936145,0.287218707212291,-0.0610161281692,-0.0825208472078,-0.0649759221388,-2.93511855,8.86425435,0.42210735,1
1569265705.33315,1569265705,333149252,1.182000041,-0.002284797,-0.191840589,1.230999947,0.227143362,-0.07206779,1.095999956,0.065406382,0.118851073,0.263408037672415,0.284312962277018,-0.425789941837,-0.0179436648838,-0.143515738479,-3.533922,1.5313662,0.71660085,6
1569265705.50518,1569265705,505183668,1.174999952,-0.00036621,-0.194514334,1.217000008,0.220613793,-0.087032296,1.083999991,0.055902675,0.112277597,0.249296118947962,0.290763117266413,-2.6633020429,0.1862598576,-0.141770409227,-0.0785316,12.2509296,1.1387082,8
1569265705.67202,1569265705,672017990,1.172999978,-0.000365586,-0.197986603,1.241000056,0.2149041,-0.157154053,1.07099998,0.055232257,0.105722144,0.229417404435773,0.351424270983387,3.31095998669,0.280507637208,-0.181912982023,-2.1988848,12.41780925,5.0063895,8
1569265705.84419,1569265705,844186467,1.161999941,0.003405801,-0.201781496,1.230999947,0.239118472,-0.157883421,1.166000009,0.075255193,0.120770924,0.249496503155174,0.329733847416389,-1.64752041824,-0.143607371028,-0.201111603795,-1.1387082,8.45196345,5.7131739,1
1569265706.01435,1569265706,14347730,1.159999967,0.018445836,-0.203314811,1.243999958,0.253745258,-0.147450015,1.217000008,0.096305177,0.131972402,0.256013069810226,0.321859074017513,0.724382035231,0.280507637208,-0.0806838854068,-5.15363625,7.5782994,11.9957019,1
1569265706.17468,1569265706,174682298,1.172999978,0.024357999,-0.196084917,1.261000037,0.294013679,-0.135154575,1.248999953,0.10896261,0.13544251,0.290121875625577,0.328040672119399,0.603954316843,1.12699232443,0.750092838545,0.85403115,9.70846905,4.97694015,8
1569265706.33053,1569265706,330531440,1.161999941,0.044853356,-0.209316894,1.281999946,0.325931013,-0.106229447,1.261000037,0.110009491,0.136743799,0.322539411845417,0.325728565085381,-0.699806634401,0.310178234492,0.821651337877,-0.8638476,9.09984915,3.40630815,8
1569265706.50687,1569265706,506870484,1.146999955,0.075888567,-0.202895805,1.300999999,0.339198887,-0.099367045,1.251000047,0.107108817,0.137687519,0.322128145801701,0.33550061416611,2.10493747356,-0.85221104734,0.118283649321,-1.16815755,9.2667288,2.3952138,6
1569265706.6715,1569265706,671499323,1.105999947,0.089314573,-0.195643216,1.274000049,0.321831554,-0.095239431,1.258999944,0.089422531,0.14060913,0.303922853315921,0.331456634942787,0.0873368582508,-1.34613922566,0.167152868377,-0.06871515,7.7746284,-5.7720726,6
1569265706.8371,1569265706,837102042,1.116000056,0.039458949,-0.163035959,1.256000042,0.296920627,-0.095930062,1.251000047,0.080741204,0.137687519,0.300648820271676,0.318332714358585,1.55515875918,-1.04768792356,-1.88884499048,-5.6542752,2.40503025,-5.86042065,2
1569265707.01227,1569265707,12273975,1.121999979,0.074234501,-0.16391249,1.222000003,0.271051645,-0.113144442,1.261000037,0.087520093,0.138788149,0.226526792388997,0.314125553942215,0.514942524991,-0.661970158872,0.135736941841,-3.6909852,7.78444485,-1.93384065,1
1569265707.17387,1569265707,173867437,1.083999991,0.091053002,-0.18647939,1.200000048,0.272008598,-0.132507473,1.271999955,0.092408203,0.14206101,0.221616580544808,0.335899003197518,-0.179698517305,-0.483946575168,-0.536214820179,-9.3648933,7.5782994,-5.3990475,8
1569265707.32876,1569265707,328762925,1.069000006,0.105391808,-0.192564338,1.246000052,0.290516287,-0.119406648,1.271999955,0.096532851,0.14206101,0.266368422706521,0.326605120257446,-6.49255442179,2.1462646076,0.846085947405,-0.9227463,9.1292985,-0.91292985,8
1569265707.48527,1569265707,485269225,1.07099998,0.098643236,-0.192924604,1.284999967,0.316276699,-0.075229168,1.261000037,0.089564584,0.144921184,0.327127703364608,0.31692358260865,-1.9180464523,2.20211514366,2.28598258031,3.72043455,8.0887548,1.08962595,4
1569265707.64646,1569265707,646463100,1.100000024,0.03889323,-0.155348524,1.363999963,0.344566911,-0.03783882,1.258999944,0.083298787,0.14060913,0.420643432829114,0.33336122670113,-2.75580449326,-0.569467708516,-1.58341237138,-1.4921004,10.1305764,5.2419843,4
1569265707.81368,1569265707,813681090,1.161999941,0.026013557,-0.171639919,1.353000045,0.319851607,-0.07921017,1.261000037,0.087520093,0.136743799,0.362443233977428,0.330269663451527,0.883206997163,-1.35312054266,-0.414041772539,-2.8075047,11.37726555,0.91292985,6
1569265707.97722,1569265707,977219249,1.190999985,0.001559802,-0.18943958,1.299000025,0.283918798,-0.118167885,1.258999944,0.107793763,0.130403593,0.310596628716898,0.307258546030639,0.422440074635,-0.632299561588,-0.614754636519,-2.5130112,9.3059946,0.3730251,6
1569265708.14191,1569265708,141906817,1.207000017,-0.03755803,-0.176330104,1.251000047,0.247059971,-0.111773267,1.238999963,0.090010822,0.128332049,0.29514571712407,0.287156751599351,0.293285709987,0.1426266263,-0.443712369823,-2.3166822,9.4041591,0.26504415,1
1569265708.30024,1569265708,300238810,1.152999997,-0.01905323,-0.187133849,1.243999958,0.22752519,-0.095013529,1.167999983,0.073490568,0.126658812,0.278510436911438,0.280430539954378,0.0384676391948,0.130409321536,-0.237763518087,-2.4344796,9.80663355,-0.3533922,1
1569265708.47752,1569265708,477521550,1.167999983,-0.019301103,-0.187674791,1.256000042,0.217501655,-0.07964012,1.126000047,0.056243032,0.122104295,0.274756340633821,0.289145553615387,0.204273918135,-0.0982288104758,-0.337247285451,-2.87621985,9.29617815,0.4122909,1
1569265708.64107,1569265708,641068095,1.167999983,-0.021194812,-0.197142676,1.246000052,0.20768927,-0.076986015,1.101999998,0.049684148,0.121288292,0.270017697456401,0.291572177936387,-0.424044612585,-0.0929928227198,-0.239508847339,-0.95219565,7.54885005,-1.0012779,1
1569265708.80571,1569265708,805709476,1.161999941,-0.021085935,-0.203665346,1.225999951,0.198392347,-0.071775071,1.095999956,0.0387518,0.120627917,0.263935147695882,0.281787176318915,0.431166720895,-0.0249249818918,2.95618901307,-1.2761385,19.60345065,-2.46392895,2
1569265708.97418,1569265708,974180549,1.151000023,-0.026484761,-0.205469385,1.205000043,0.185225621,-0.11547754,1.050999999,0.037160713,0.113971233,0.236296043498596,0.313505932901207,1.29685002989,0.715094620956,1.23354904135,0.18651255,16.1971425,-3.50447265,2
1569265709.14382,1569265709,143819806,1.151000023,-0.020886326,-0.207335413,1.212000012,0.203987032,-0.167236,1.07099998,0.039604302,0.116140053,0.236425440084482,0.356657648677429,4.03876228478,-0.0406329451598,-0.134789092219,-2.1988848,9.8753487,3.4750233,1
1569265709.30722,1569265709,307221139,1.152999997,-0.015314455,-0.187133849,1.238999963,0.250716567,-0.120744511,1.149000049,0.057391871,0.126461208,0.287360475741609,0.326473720396921,-0.415317966325,-0.0476142621678,0.212531428929,-1.4332017,10.94534175,0.4319238,8
1569265709.4856,1569265709,485604667,1.129999995,0.028961372,-0.187064841,1.190999985,0.24293457,-0.13151367,1.207000017,0.068116695,0.132844791,0.229328281818485,0.317336865721279,0.0576662609668,-0.0982288104758,0.177624843889,-3.40630815,11.3281833,-1.6687965,8
1569265709.64908,1569265709,649083434,1.131999969,0.03635399,-0.18739593,1.202999949,0.260985911,-0.132838741,1.228999972,0.089284338,0.135266155,0.241820147968966,0.319433352400537,-1.86045058698,1.82861468373,1.06599743316,-0.48100605,8.00040675,0.0785316,2
1569265709.81358,1569265709,813580777,1.128000021,0.012450421,-0.164789021,1.217000008,0.281781524,-0.116627522,1.238999963,0.100054927,0.136366785,0.287714738439177,0.312273395363122,-0.694570646645,0.619101512096,-0.0562492758788,1.65898005,11.2300188,3.2590614,1
1569265709.97894,1569265709,978935643,1.131999969,0.018000592,-0.174549446,1.26699996,0.311846375,-0.107040592,1.264000058,0.095925726,0.137069121,0.330344951717559,0.325914525692755,-0.0261095431292,-0.410642746584,0.0275265282172,0,9.80663355,2.5719099,6
1569265710.14755,1569265710,147552218,1.129999995,0.017968789,-0.128441811,1.289999962,0.317507356,-0.100618258,1.271999955,0.088283554,0.137936637,0.340730821414733,0.33132459851903,-0.493857782665,0.235129076656,0.219512745937,0.588987,8.834805,3.79896615,6
1569265710.30634,1569265710,306336046,1.144999981,0.005212392,-0.128290504,1.264000058,0.302910566,-0.098590292,1.287999988,0.08939404,0.141759813,0.321974104116752,0.322387153107292,-0.781837109245,-0.0807755179558,-0.0841745439108,2.24796705,8.442147,4.9278579,6
1569265710.48076,1569265710,480755923,1.212000012,-0.014133062,-0.177060544,1.281999946,0.303067088,-0.102072664,1.300999999,0.090296306,0.141081423,0.333375326121957,0.323660806573329,1.75063563541,-0.585175671784,-0.0457773003668,0.63806925,10.35635475,2.5915428,6
1569265710.64521,1569265710,645212318,1.213999987,-0.04761729,-0.175384581,1.27699995,0.283251196,-0.11823687,1.281999946,0.09729176,0.134864271,0.34162671329753,0.314111603372018,1.62322660001,-0.757963267732,-0.810231512743,0.97182855,10.0913106,2.6897073,6
1569265710.81571,1569265710,815708388,1.217000008,-0.059573878,-0.195548132,1.279999971,0.26938954,-0.118514635,1.258999944,0.087381281,0.124280274,0.343686027327695,0.304166690014752,0.296776368491,0.0571054929522,-0.290123395647,-1.38411945,8.94278595,-0.16687965,6
1569265710.98571,1569265710,985707858,1.207000017,-0.053213544,-0.195898131,1.258999944,0.238433644,-0.116570257,1.213999987,0.080321468,0.121806324,0.306683853943556,0.289564933475562,0.00879704191079,-0.614846269068,-0.328520639191,-1.766961,10.43488635,0.53990475,1
1569265711.14355,1569265711,143546520,1.177000046,-0.059524119,-0.189120919,1.253999949,0.231387302,-0.116107307,1.172999978,0.060492471,0.119594283,0.309660180629566,0.302194106648438,0.685984791687,-0.47696525816,-0.237763518087,-1.87494195,9.33544395,-1.3546701,1
1569265711.30731,1569265711,307314909,1.212000012,-0.031818476,-0.179025456,1.26699996,0.21940653,-0.100878365,1.138000011,0.056842428,0.119715706,0.268786096648366,0.302869308879956,0.0402129684468,-0.0964834812238,-0.0946465194228,-1.96329,8.7759063,-0.18651255,1
1569265711.47956,1569265711,479559458,1.205000043,-0.021866223,-0.183852166,1.264000058,0.225035086,-0.098590292,1.128000021,0.056342933,0.116834991,0.267788807297664,0.305550495177813,-0.120357322737,-0.140116712524,-0.131298433715,-2.07127095,9.98332965,-0.46137315,1
1569265711.6509,1569265711,650901810,1.210000038,-0.019995151,-0.178730041,1.256000042,0.231756344,-0.097966306,1.123999953,0.056143135,0.116420686,0.268360944427249,0.306962220818937,-0.219841090101,-0.138371383272,-0.433240394311,-2.62099215,10.3269054,-0.75586665,8
1569265711.82041,1569265711,820413198,1.210000038,-0.019995151,-0.182653368,1.243999958,0.229542106,-0.097030319,1.128000021,0.058171786,0.118663721,0.266000270133598,0.298910840975077,-0.308852881953,-0.0703035424438,-0.401824467775,-2.97438435,9.72810195,0.2159619,1
1569265711.98451,1569265711,984507386,1.207000017,-0.019945575,-0.184157312,1.225999951,0.226220772,-0.091651134,1.113999963,0.05564364,0.117190942,0.263659365195884,0.291985561254894,0.0873368582508,0.292724941972,0.435933573185,-1.2957714,-0.57917055,-2.9056692,6
1569265712.14294,1569265712,142938836,1.210000038,-0.019995151,-0.188538373,1.210000038,0.221306652,-0.092416696,1.075000048,0.053695612,0.116573818,0.259742058435562,0.299992488192398,-8.52062701261,1.58077792995,0.722167570513,-7.0089453,-1.0209108,-1.2761385,2
1569265712.30663,1569265712,306631363,1.200000048,-0.019829901,-0.19281657,1.241000056,0.224964425,-0.161177903,1.092000008,0.052774265,0.113106214,0.250212445628372,0.356485963739524,1.87280868305,-0.750981950724,-1.22911053322,2.54246055,11.7208413,2.0418216,8
1569265712.48623,1569265712,486233290,1.213999987,-0.020061251,-0.179320887,1.248999953,0.260840237,-0.141967982,1.166000009,0.062021941,0.122661255,0.285527377133182,0.341242345853426,0.0210143466748,1.19156950675,-0.729946367151,-3.52410555,5.7917055,-4.34868735,6
1569265712.98909,1569265712,989090288,1.113999963,0.019520519,-0.162743777,1.190999985,0.258382559,-0.133444533,1.271999955,0.090345874,0.139998823,0.252670780344569,0.331011467454427,-0.696315975897,-0.218656528864,0.0310171867212,-1.5313662,9.2667288,-2.1988848,1
1569265713.14575,1569265713,145747851,1.092000008,0.038610373,-0.161300167,1.192999959,0.260750681,-0.133668616,1.248999953,0.082637161,0.137467399,0.24558259130281,0.329203833460169,1.15722368973,-0.723056682692,0.0205452112092,-1.42338525,8.8937037,0,1
1569265713.30885,1569265713,308850756,1.047999978,0.033656344,-0.151402831,1.190999985,0.24872756,-0.121859349,1.246000052,0.070317648,0.139157251,0.259956625771306,0.320912401669696,-0.0278548723812,0.0379068711802,0.175879514637,-2.18906835,9.72810195,-1.0209108,1
1569265713.48017,1569265713,480167059,1.013000011,0.032532327,-0.134850428,1.190999985,0.252589554,-0.114135891,1.233999968,0.063638285,0.13781704,0.283792646032371,0.317855092824075,1.41378708977,-0.358282869024,0.296307233025,3.3964917,10.86681015,-1.5902649,8
1569265713.65249,1569265713,652486117,0.989000022,0.047796473,-0.152499467,1.18900001,0.2598764,-0.113944225,1.212000012,0.060538683,0.139289841,0.294048290799324,0.323097535882997,-1.21642409299,-0.1191727615,-0.176676994267,-2.14980255,11.583411,-0.3730251,6
1569265713.81692,1569265713,816919780,0.986000001,0.05564462,-0.163226485,1.184000015,0.256863922,-0.117304102,1.212000012,0.058573637,0.135360017,0.286010626204283,0.322400673056722,-0.364703418017,-0.0807755179558,-0.0911558609188,-2.3952138,9.5219565,0.61843635,1
1569265713.98479,1569265713,984793356,0.977999985,0.064707078,-0.173000962,1.177000046,0.261070192,-0.124243245,1.205000043,0.05823534,0.134578228,0.283790084014281,0.3300220173015,-0.448479222113,0.64004546312,0.0921037105412,-3.36704235,13.3307391,-4.5351999,2
1569265714.15209,1569265714,152085163,0.977999985,0.064707078,-0.190441966,1.182000041,0.262179255,-0.126687318,1.202999949,0.058138683,0.134354874,0.290991303441746,0.331988820839287,-0.942407400429,0.784907791036,-0.414041772539,-6.62610375,7.88260935,0.1177974,6
1569265714.31131,1569265714,311307292,0.994000018,0.048038114,-0.182277173,1.192999959,0.25107947,-0.098854706,1.190999985,0.053696752,0.133014664,0.296287152547471,0.304511645106169,-2.03149285368,0.912316826432,0.928116422249,2.1399861,8.6973747,4.122909,8
1569265714.48504,1569265714,485040704,1.069000006,-0.014198745,-0.137105912,1.246000052,0.280415416,-0.076986015,1.210000038,0.058476981,0.131213322,0.34891391798125,0.306430471502899,-0.516547062941,-0.26752574792,0.125264966329,-0.38284155,8.8151721,4.0247445,6
1569265714.65218,1569265714,652179997,1.111999989,0.005062166,-0.148029283,1.279999971,0.283916622,-0.097763121,1.243999958,0.078272492,0.130866721,0.329409302578519,0.309608000207362,-0.0313455308852,0.4916924767,-0.0771932269028,0.48100605,8.6188431,4.78061115,6
1569265714.82982,1569265714,829817831,1.075000048,0.031037597,-0.127418622,1.307000041,0.292024553,-0.099825308,1.264000058,0.09182702,0.137069121,0.350284996726449,0.313124609777837,0.492253244715,-0.37224550304,-0.330265968443,2.5915428,8.7955392,5.11437045,6
1569265714.98529,1569265714,985289606,1.101999998,0.031817146,-0.155630976,1.335000038,0.298280627,-0.101963878,1.279999971,0.10751646,0.134653866,0.358011120992604,0.308875268606695,2.30215967904,-0.997073375256,-0.499562905887,-0.83439825,10.3858041,3.2983272,6
1569265715.15675,1569265715,156750359,1.144999981,-0.018921031,-0.150565952,1.307000041,0.268714756,-0.112538859,1.256000042,0.101427756,0.130092859,0.332301708098444,0.299092110973579,0.651078206647,0.224657101144,-0.785796903215,-3.30814365,7.7942613,-1.6884294,6
1569265715.32125,1569265715,321246890,1.174999952,-0.023226893,-0.18879956,1.271999955,0.234708652,-0.099214278,1.18599999,0.078468911,0.128610745,0.289767611557031,0.289328691547691,0.0768648827388,-0.0353969574038,-0.0771932269028,-2.4541125,10.1305764,-0.8442147,1
1569265715.49319,1569265715,493188893,1.182000041,-0.019532453,-0.189924315,1.258999944,0.218021169,-0.087994769,1.128000021,0.054514077,0.122321174,0.269722710825571,0.296864185849829,0.0663929072268,-0.0196889941358,-0.401824467775,-2.8664034,8.6777418,0.50063895,1
1569265715.66586,1569265715,665855802,1.179999948,-0.02332573,-0.195342049,1.248999953,0.2122394,-0.079196267,1.09800005,0.047723591,0.119067952,0.271554366266331,0.298622039797155,0.101299492267,-0.00398103086781,-0.0876652024148,-2.8860363,9.7575513,0.2159619,1
1569265715.82975,1569265715,829754004,1.184000015,-0.023404801,-0.197923735,1.253999949,0.21105589,-0.081546307,1.090000033,0.049143121,0.118200429,0.27095297033267,0.304976188834322,0.0262503344308,0.0955027364962,-0.126062445959,-3.0823653,9.35507685,-0.24541125,1
1569265715.99638,1569265715,996380277,1.184000015,-0.023404801,-0.203682289,1.248999953,0.210214362,-0.079196267,1.090000033,0.052677609,0.118200429,0.272579667132765,0.298436356192582,-0.186679834313,-0.187240602328,-0.572866734471,-1.14852465,5.7720726,-0.87366405,6
1569265716.16968,1569265716,169676833,1.184000015,-0.027244098,-0.207521319,1.241000056,0.198807597,-0.076677077,1.07099998,0.048286498,0.116140053,0.267336097732665,0.297884327727409,-0.0767240914372,-0.421114722096,4.3733963657,5.8309713,19.60345065,-4.1621748,2
1569265716.32434,1569265716,324337101,1.167999983,-0.036344472,-0.210397705,1.223999977,0.180208191,-0.131188899,1.041000009,0.033431541,0.109511465,0.23728693627829,0.33610867067506,0.932076216219,0.121682675276,-0.642679904551,-0.38284155,12.77120145,3.7106181,8
1569265716.48269,1569265716,482689874,1.184000015,-0.031083396,-0.215199381,1.233999968,0.209690481,-0.158268183,1.059999943,0.034041721,0.108073264,0.2524147706679,0.363409221098739,-0.680608012629,-0.8173044623,-0.614754636519,-0.10798095,5.33033235,5.48739555,8
1569265716.63849,1569265716,638487448,1.174999952,-0.032752175,-0.19070448,1.213999987,0.239752844,-0.134053394,1.152999997,0.042636566,0.121293679,0.281050411234659,0.328295527721961,1.20958356729,-0.602628964304,0.0135638942012,-1.0601766,10.2483738,4.8100605,1
1569265716.80855,1569265716,808552211,1.136000037,-0.00587953,-0.195424899,1.207000017,0.246198162,-0.135237232,1.210000038,0.058476981,0.131213322,0.268713072296362,0.325951130768007,2.14158938785,-0.272761735676,-0.349464590215,-1.2172398,10.39562055,2.2577835,1
1569265716.98102,1569265716,981017673,1.128000021,0.001477293,-0.194048658,1.202999949,0.245382264,-0.150391608,1.243999958,0.07020478,0.136917084,0.258883298212184,0.338990318648367,2.93571419751,-0.56423172076,-0.265688786119,-2.6308086,9.1881972,-1.1583411,1
1569265717.14428,1569265717,144280918,1.128000021,0.003306148,-0.186733752,1.222000003,0.247276545,-0.138899013,1.256000042,0.070881993,0.138237834,0.265792613673774,0.330266366123442,-3.80649270296,2.11833933956,1.75365715845,-2.42466315,8.00040675,0.81476535,2
1569265717.61371,1569265717,613714408,1.024999976,0.066154867,-0.173006192,1.243999958,0.27794838,-0.111147836,1.228999972,0.043454345,0.141243577,0.310876085397227,0.34483891512809,-1.09774170386,0.128663992284,-0.576357392975,-1.8847584,7.78444485,-7.1463756,6
1569265717.7815,1569265717,781504217,1.031999946,0.093377978,-0.16749534,1.261000037,0.259257317,-0.14333196,1.246000052,0.062236961,0.145217329,0.283797226410178,0.349718047018984,-12.2294516731,-0.222147187368,-0.569376075967,-1.99273935,8.74645695,-0.04908225,8
1569265717.94965,1569265717,949653858,1.031999946,0.093377978,-0.179206982,1.246000052,0.256173372,-0.155767202,1.271999955,0.090345874,0.148247555,0.269903332624988,0.347274713336169,-2.62141414085,-0.243091138392,-0.387861833759,3.8087826,2.77805535,10.209108,6
1569265718.12213,1569265718,122129980,1.023000002,0.102515325,-0.184278131,1.299000025,0.307085931,-0.128697649,1.27699995,0.117616624,0.142619431,0.348014849560418,0.331655814806242,1.1327890802,-0.27625239418,0.284089928261,-2.11053675,4.15235835,9.06058335,6
1569265718.2782,1569265718,278196668,1.027999997,0.106349818,-0.183512196,1.317999959,0.311577559,-0.134853587,1.300999999,0.134592533,0.149518222,0.358588990162525,0.3353804165752,2.12413609533,-0.0476142621678,-0.436731052815,-2.6504415,2.95475145,11.0140569,6
1569265718.45766,1569265718,457659805,1.01699996,0.106860727,-0.178250998,1.274000049,0.297044724,-0.142744184,1.300999999,0.134592533,0.149518222,0.321682657756576,0.335465386622244,0.605699646095,-0.393189454064,-0.218564896315,1.1387082,3.20997915,10.5625002,6
1569265718.61889,1569265718,618885700,1.003000021,0.09075398,-0.177423269,1.27699995,0.303955525,-0.116166577,1.27699995,0.115546197,0.150900573,0.352538284725468,0.326837784667768,0.766269937279,-0.436822685364,-0.297104712655,-0.28467705,6.19417995,6.95986305,6
1569265718.78763,1569265718,787628311,0.991999984,0.047941457,-0.17547746,1.248999953,0.291215748,-0.073121585,1.243999958,0.07020478,0.142967448,0.368385789457966,0.309136406961671,0.0157783589188,-0.798105840528,-0.0702119098948,-1.6491636,6.39050895,6.0665661,6
1569265718.96012,1569265718,960121154,0.98299998,-0.036962908,-0.165917158,1.151000023,0.232909411,-0.048724107,1.210000038,0.017279111,0.135136649,0.338805687988157,0.289451560101136,-0.748675853457,0.969912691748,0.441169560941,-3.92658,6.94023015,4.48611765,6
1569265719.12372,1569265719,123724745,0.991999984,-0.194920063,-0.164219752,1.111999989,0.181747675,-0.029045282,1.18599999,-0.038827468,0.128610745,0.417792679914114,0.281042375286887,-0.218095760849,1.5860139177,0.303288550033,-1.6491636,7.3819704,7.8335271,6
1569265719.2851,1569265719,285098066,0.92900002,-0.42504102,-0.099570654,1.139999986,0.169689268,-0.039017547,1.144999981,-0.078326382,0.120452091,0.633949351197647,0.294902234713089,0.118752784787,0.830286351588,0.732639546025,-3.36704235,7.07766045,6.4199583,4
1569265719.62296,1569265719,622957847,0.913999975,-0.403359234,-0.096481159,1.212000012,0.160756022,-0.051306359,1.103999972,-0.113110475,0.119718596,0.639586434079857,0.340464979185532,-0.523528379949,0.1862598576,0.486548121493,-1.69824585,7.5979323,6.41014185,4
1569265719.79112,1569265719,791123028,0.957000017,-0.129081726,-0.127395704,1.261000037,0.167255238,-0.059513673,1.120000005,-0.098406807,0.123269409,0.429929736730809,0.351947419713516,-0.497348441169,-0.361773527528,-0.0265786785948,-1.1190753,6.54757215,6.282528,6
1569265719.96553,1569265719,965527766,1.075000048,-0.000335043,-0.174474314,1.287999988,0.193807364,-0.073316686,1.157999992,-0.054808248,0.13308385,0.305439215455946,0.348297147205115,0.0663929072268,-0.45951196564,-0.340737943955,-0.91292985,4.93767435,8.86425435,6
1569265720.13433,1569265720,134334426,1.034000039,0.018118687,-0.164467275,1.315000057,0.24690707,-0.094040647,1.210000038,0.021202719,0.135136649,0.36914095443774,0.338363253105598,-0.0121469091132,-0.749236621472,-0.490836259627,0.71660085,3.5535549,9.06058335,6
1569265720.29049,1569265720,290492294,1.082999945,0.031268574,-0.172261178,1.35800004,0.296814263,-0.105922163,1.264000058,0.087728307,0.141167536,0.387995399596005,0.337055266928652,2.06828555927,-0.4682386119,-0.119081128951,0.3337593,6.3610596,7.2838059,6
1569265720.44972,1569265720,449716757,1.166000009,-0.053296424,-0.153327435,1.386000037,0.307428479,-0.108106129,1.27699995,0.117616624,0.138478845,0.424932270462842,0.329717619588534,4.12951940588,-2.28163570473,-1.31812232507,2.16943545,7.98077385,6.7537176,4
1569265720.60347,1569265720,603470470,1.223999977,-0.081746057,-0.151032537,1.371000052,0.299655646,-0.118049555,1.271999955,0.127467737,0.133812279,0.410078234246733,0.320755481071868,1.54643211292,-3.12462973344,-2.06861390343,-5.21253495,8.96241885,3.11181465,4
1569265720.77074,1569265720,770742921,1.235999942,-0.040464375,-0.180566698,1.274000049,0.243339971,-0.130351648,1.235999942,0.105824538,0.128021315,0.290706838906486,0.2951458799553,0.898914960431,-0.0493595914198,0.716931582757,-5.88987,9.3648933,2.75842245,8
1569265720.93855,1569265720,938554531,1.213999987,-0.037775848,-0.195066094,1.246000052,0.209709436,-0.115366593,1.174999952,0.064405724,0.119798191,0.261963700569781,0.285406129147143,1.7872875497,-1.07735852085,-0.263943456867,-0.6086199,9.4434249,1.6295307,1
1569265721.10345,1569265721,103448205,1.217000008,-0.045761809,-0.19752115,1.258999944,0.232309908,-0.098200299,1.116000056,0.048505943,0.113782793,0.298249066826195,0.314912204926412,-0.0313455308852,-0.475219928908,-0.267434115371,-2.42466315,9.78700065,-0.1177974,1
1569265721.58384,1569265721,583843933,1.192999959,-0.021648468,-0.193625912,1.256000042,0.223610803,-0.100002542,1.052999973,0.054303981,0.09882389,0.26997491713049,0.330765442650219,-0.335032820733,-0.0109623478758,-0.0318146663508,-2.32649865,10.16002575,0.08834805,1
1569265721.74558,1569265721,745575654,1.207000017,-0.021902515,-0.195898131,1.251000047,0.228805467,-0.099604443,1.046000004,0.059030704,0.098166943,0.27214512530478,0.331605200354381,0.0227596759268,-0.0982288104758,-0.242999505843,-2.44429605,9.11948205,0.8834805,1
1569265721.91403,1569265721,914028713,1.197999954,-0.0217392,-0.198321849,1.251000047,0.228805467,-0.097576313,1.034999967,0.061766066,0.09713459,0.275193210388768,0.335366265139356,-0.183189175809,0.0379068711802,0.0973396982972,-3.60263715,9.5023236,1.56081555,1
1569265722.08412,1569265722,84119855,1.197999954,-0.0217392,-0.202206269,1.225999951,0.222245276,-0.109539583,1.029999971,0.05812775,0.093325645,0.262487216936782,0.326350816196088,-0.324560845221,0.0693227977162,0.0606877840052,-2.6111757,9.0703998,-0.55953765,1
1569265722.24507,1569265722,245074704,1.192999959,-0.023582708,-0.209098756,1.223999977,0.213944718,-0.11729835,1.01699996,0.057394098,0.092147753,0.256529908119795,0.333503783670098,-0.108140017973,0.191495845356,-0.126062445959,-0.9227463,8.13783705,-1.0209108,1
1569265722.4222,1569265722,422203004,1.190999985,-0.021612175,-0.208748221,1.225999951,0.214294299,-0.113514796,1.013000011,0.052241154,0.091785319,0.256800053217176,0.337310440786241,-0.122102651989,-0.117427432248,0.0484704792412,-2.9842008,9.53177295,0.95219565,1
1569265722.5891,1569265722,589100144,1.190999985,-0.021612175,-0.208748221,1.246000052,0.221830472,-0.09718632,1.014999986,0.052344292,0.095257595,0.273377737760603,0.345139473435775,-0.319324857465,-0.0895021642158,0.0746504180212,-2.4541125,9.6397539,0.83439825,1
1569265722.75674,1569265722,756741004,1.197999954,-0.0217392,-0.209975123,1.238999963,0.228619516,-0.09864901,1.018000007,0.052499007,0.092238359,0.277045106166591,0.341024048838441,-0.0435628356492,0.0274348956682,0.0729050887692,-1.81604325,9.41397555,1.10925885,1
1569265722.92795,1569265722,927947041,1.197999954,-0.0217392,-0.211917326,1.230999947,0.227143362,-0.10200347,1.024999976,0.054521859,0.096196093,0.274066752719976,0.333941968197127,-0.0243642138772,-0.0266703111438,0.146208917353,-2.552277,9.68883615,1.2368727,1
1569265723.25282,1569265723,252818506,1.200000048,-0.027612261,-0.212271109,1.222000003,0.211613879,-0.123050049,1.011999965,0.053830363,0.091694713,0.256268495189762,0.339280071162101,-0.0837054084452,-0.0441236036638,0.659335717441,-1.5313662,9.47287425,0.8049489,8
1569265723.43084,1569265723,430841720,1.192999959,-0.023582708,-0.211032867,1.217000008,0.191016495,-0.154114813,1,0.051570732,0.088986211,0.22331252797679,0.354446374167519,0.0611569194708,0.0501241759442,-0.670605172583,-2.1007203,10.3858041,1.8062268,8
1569265723.58888,1569265723,588881337,1.192999959,-0.029385431,-0.212966979,1.233999968,0.207689762,-0.158268183,1.021999955,0.052705288,0.092600785,0.246733877199376,0.363179613687831,-0.315834198961,1.64710044152,0.151444905109,2.75842245,10.27782315,1.83567615,8
1569265723.76043,1569265723,760427360,1.179999948,-0.019499402,-0.210646287,1.253999949,0.247652441,-0.140503302,1.069000006,0.062061898,0.103791639,0.285947802423811,0.358258072845863,7.05294590298,-0.169787309808,-0.536214820179,-3.0234666,8.55012795,-4.3388709,8
1569265723.9326,1569265723,932604502,1.222000003,-0.040006042,-0.196351543,1.26699996,0.274870425,-0.121419124,1.144999981,0.075756244,0.116739519,0.326782883605607,0.333541588391767,1.01061603256,0.362538112052,0.484802792241,-2.44429605,7.7353626,-10.012779,6
1569265724.09509,1569265724,95094962,1.152999997,-0.037747107,-0.185264587,1.269000053,0.27736178,-0.117496148,1.210000038,0.097713046,0.121404983,0.342552455812068,0.304677566930816,-1.31765318961,0.402680684848,-0.356445907223,-0.18651255,6.0076674,-9.45324135,6
