rosbagTimestamp,header,seq,stamp,secs,nsecs,frame_id,orientation,x,y,z,w,orientation_covariance,angular_velocity,x,y,z,angular_velocity_covariance,linear_acceleration,x,y,z,linear_acceleration_covariance
1555442022888152153,,0,,1555442022,884974956,"""knife_link""",,-0.656521132161,-0.265476830924,0.0782767403585,-0.701694240526,"[0.0, 0.0, 0.0, 0.0, 0.0, 0.0, 0.0, 0.0, 0.0]",,-0.151843644924,-0.12217304764,-0.024434609528,"[0.0, 0.0, 0.0, 0.0, 0.0, 0.0, 0.0, 0.0, 0.0]",,-4.6726302,8.64829245,-0.02944935,"[0.0, 0.0, 0.0, 0.0, 0.0, 0.0, 0.0, 0.0, 0.0]"
1555442022950105218,,1,,1555442022,887676954,"""knife_link""",,-0.654124914609,-0.270587646007,0.0726997094336,-0.702579300979,"[0.0, 0.0, 0.0, 0.0, 0.0, 0.0, 0.0, 0.0, 0.0]",,0.013962634016,-0.06108652382,0.013962634016,"[0.0, 0.0, 0.0, 0.0, 0.0, 0.0, 0.0, 0.0, 0.0]",,-4.62354795,8.53049505,0.7067844,"[0.0, 0.0, 0.0, 0.0, 0.0, 0.0, 0.0, 0.0, 0.0]"
1555442023012864540,,2,,1555442022,949443101,"""knife_link""",,-0.649508006161,-0.274724847286,0.0669494354814,-0.705821068902,"[0.0, 0.0, 0.0, 0.0, 0.0, 0.0, 0.0, 0.0, 0.0]",,-0.10471975512,-0.05235987756,0.00872664626,"[0.0, 0.0, 0.0, 0.0, 0.0, 0.0, 0.0, 0.0, 0.0]",,-4.62354795,8.72682405,0.34357575,"[0.0, 0.0, 0.0, 0.0, 0.0, 0.0, 0.0, 0.0, 0.0]"
1555442023014665717,,3,,1555442023,12175083,"""knife_link""",,-0.646671714187,-0.278935717429,0.0605483696046,-0.707350305402,"[0.0, 0.0, 0.0, 0.0, 0.0, 0.0, 0.0, 0.0, 0.0]",,-0.033161255788,-0.012217304764,0.033161255788,"[0.0, 0.0, 0.0, 0.0, 0.0, 0.0, 0.0, 0.0, 0.0]",,-4.6137315,8.64829245,0.55953765,"[0.0, 0.0, 0.0, 0.0, 0.0, 0.0, 0.0, 0.0, 0.0]"
1555442023118534539,,4,,1555442023,14302015,"""knife_link""",,-0.644306812492,-0.28401558913,0.0549559617166,-0.707943301952,"[0.0, 0.0, 0.0, 0.0, 0.0, 0.0, 0.0, 0.0, 0.0]",,-0.239110107524,0.06108652382,-0.015707963268,"[0.0, 0.0, 0.0, 0.0, 0.0, 0.0, 0.0, 0.0, 0.0]",,-2.50319475,6.84206565,-0.38284155,"[0.0, 0.0, 0.0, 0.0, 0.0, 0.0, 0.0, 0.0, 0.0]"
1555442023288434129,,5,,1555442023,117990016,"""knife_link""",,-0.644503176681,-0.297267955029,0.058492744255,-0.70201568147,"[0.0, 0.0, 0.0, 0.0, 0.0, 0.0, 0.0, 0.0, 0.0]",,0.16580627894,0.045378560552,-0.219911485752,"[0.0, 0.0, 0.0, 0.0, 0.0, 0.0, 0.0, 0.0, 0.0]",,-4.54501635,8.35379895,1.26632205,"[0.0, 0.0, 0.0, 0.0, 0.0, 0.0, 0.0, 0.0, 0.0]"
1555442023289613514,,6,,1555442023,287925004,"""knife_link""",,-0.637943161333,-0.319563113718,0.0546940963983,-0.698510196832,"[0.0, 0.0, 0.0, 0.0, 0.0, 0.0, 0.0, 0.0, 0.0]",,-0.013962634016,0.13962634016,-0.158824961932,"[0.0, 0.0, 0.0, 0.0, 0.0, 0.0, 0.0, 0.0, 0.0]",,-5.21253495,7.70591325,-0.87366405,"[0.0, 0.0, 0.0, 0.0, 0.0, 0.0, 0.0, 0.0, 0.0]"
1555442023324038888,,7,,1555442023,289320945,"""knife_link""",,-0.635545474838,-0.324471895452,0.0489053694308,-0.698862077463,"[0.0, 0.0, 0.0, 0.0, 0.0, 0.0, 0.0, 0.0, 0.0]",,0.129154364648,0.085521133348,0.44505895926,"[0.0, 0.0, 0.0, 0.0, 0.0, 0.0, 0.0, 0.0, 0.0]",,-5.4579462,10.65084825,2.05163805,"[0.0, 0.0, 0.0, 0.0, 0.0, 0.0, 0.0, 0.0, 0.0]"
1555442023356367684,,8,,1555442023,323390960,"""knife_link""",,-0.631346964201,-0.327577992141,0.038800645285,-0.701846265064,"[0.0, 0.0, 0.0, 0.0, 0.0, 0.0, 0.0, 0.0, 0.0]",,-0.23561944902,0.05235987756,0.211184839492,"[0.0, 0.0, 0.0, 0.0, 0.0, 0.0, 0.0, 0.0, 0.0]",,-4.5351999,9.23727945,0.50063895,"[0.0, 0.0, 0.0, 0.0, 0.0, 0.0, 0.0, 0.0, 0.0]"
1555442023389932269,,9,,1555442023,355796098,"""knife_link""",,-0.632632824511,-0.327717972495,0.0285834739034,-0.701113132722,"[0.0, 0.0, 0.0, 0.0, 0.0, 0.0, 0.0, 0.0, 0.0]",,0.11344640138,0.015707963268,0.467748239536,"[0.0, 0.0, 0.0, 0.0, 0.0, 0.0, 0.0, 0.0, 0.0]",,-4.3781367,6.1647306,0.6478857,"[0.0, 0.0, 0.0, 0.0, 0.0, 0.0, 0.0, 0.0, 0.0]"
1555442023423050781,,10,,1555442023,389301061,"""knife_link""",,-0.635817309433,-0.323186541276,0.0118598873683,-0.700818201558,"[0.0, 0.0, 0.0, 0.0, 0.0, 0.0, 0.0, 0.0, 0.0]",,0.054105206812,0.036651914292,0.940732466828,"[0.0, 0.0, 0.0, 0.0, 0.0, 0.0, 0.0, 0.0, 0.0]",,-3.93639645,6.6555531,0.3533922,"[0.0, 0.0, 0.0, 0.0, 0.0, 0.0, 0.0, 0.0, 0.0]"
1555442023456458673,,11,,1555442023,422485113,"""knife_link""",,-0.642981240739,-0.31394237137,-0.0127268934137,-0.698464986739,"[0.0, 0.0, 0.0, 0.0, 0.0, 0.0, 0.0, 0.0, 0.0]",,0.134390352404,0.172787595948,1.54112572952,"[0.0, 0.0, 0.0, 0.0, 0.0, 0.0, 0.0, 0.0, 0.0]",,-3.58300425,4.70207955,1.38411945,"[0.0, 0.0, 0.0, 0.0, 0.0, 0.0, 0.0, 0.0, 0.0]"
1555442023489548923,,12,,1555442023,455849885,"""knife_link""",,-0.655969667338,-0.296537274333,-0.0456437657265,-0.692593738864,"[0.0, 0.0, 0.0, 0.0, 0.0, 0.0, 0.0, 0.0, 0.0]",,0.310668606856,0.181514242208,2.27067335685,"[0.0, 0.0, 0.0, 0.0, 0.0, 0.0, 0.0, 0.0, 0.0]",,-2.01237225,9.29617815,-0.91292985,"[0.0, 0.0, 0.0, 0.0, 0.0, 0.0, 0.0, 0.0, 0.0]"
1555442023523099221,,13,,1555442023,489058017,"""knife_link""",,-0.664618598372,-0.279815278181,-0.0721609672047,-0.689041597878,"[0.0, 0.0, 0.0, 0.0, 0.0, 0.0, 0.0, 0.0, 0.0]",,0.143116998664,-0.0872664626,1.95127810374,"[0.0, 0.0, 0.0, 0.0, 0.0, 0.0, 0.0, 0.0, 0.0]",,-0.3533922,18.454926,0.2159619,"[0.0, 0.0, 0.0, 0.0, 0.0, 0.0, 0.0, 0.0, 0.0]"
1555442023556445549,,14,,1555442023,522511959,"""knife_link""",,-0.659942705366,-0.28711706914,-0.0795442783789,-0.689718871729,"[0.0, 0.0, 0.0, 0.0, 0.0, 0.0, 0.0, 0.0, 0.0]",,-0.15707963268,0.123918376892,-0.101229096616,"[0.0, 0.0, 0.0, 0.0, 0.0, 0.0, 0.0, 0.0, 0.0]",,-1.24668915,10.405437,-0.06871515,"[0.0, 0.0, 0.0, 0.0, 0.0, 0.0, 0.0, 0.0, 0.0]"
1555442023627020000,,15,,1555442023,555867910,"""knife_link""",,-0.651285594282,-0.296883158701,-0.0807425019613,-0.693662823811,"[0.0, 0.0, 0.0, 0.0, 0.0, 0.0, 0.0, 0.0, 0.0]",,-0.347320521148,-0.057595865316,-0.507890812332,"[0.0, 0.0, 0.0, 0.0, 0.0, 0.0, 0.0, 0.0, 0.0]",,-1.2368727,11.3085504,-1.50191685,"[0.0, 0.0, 0.0, 0.0, 0.0, 0.0, 0.0, 0.0, 0.0]"
1555442023669470878,,16,,1555442023,626420021,"""knife_link""",,-0.586412604203,-0.306432500644,-0.0851687533995,-0.744960175866,"[0.0, 0.0, 0.0, 0.0, 0.0, 0.0, 0.0, 0.0, 0.0]",,-2.16769893098,-0.233874119768,-0.795870138912,"[0.0, 0.0, 0.0, 0.0, 0.0, 0.0, 0.0, 0.0, 0.0]",,-1.73751165,10.43488635,1.374303,"[0.0, 0.0, 0.0, 0.0, 0.0, 0.0, 0.0, 0.0, 0.0]"
1555442023712542496,,17,,1555442023,668957948,"""knife_link""",,-0.573847729839,-0.318215133548,-0.101590185041,-0.747741496804,"[0.0, 0.0, 0.0, 0.0, 0.0, 0.0, 0.0, 0.0, 0.0]",,-0.5672320069,0.516617458592,0.006981317008,"[0.0, 0.0, 0.0, 0.0, 0.0, 0.0, 0.0, 0.0, 0.0]",,-2.1792519,7.09729335,0.7067844,"[0.0, 0.0, 0.0, 0.0, 0.0, 0.0, 0.0, 0.0, 0.0]"
1555442023775758792,,18,,1555442023,711833000,"""knife_link""",,-0.582368777012,-0.327960850472,-0.109088573707,-0.735790711551,"[0.0, 0.0, 0.0, 0.0, 0.0, 0.0, 0.0, 0.0, 0.0]",,0.72431163958,0.354301838156,0.118682389136,"[0.0, 0.0, 0.0, 0.0, 0.0, 0.0, 0.0, 0.0, 0.0]",,-2.4541125,8.60902665,2.7093402,"[0.0, 0.0, 0.0, 0.0, 0.0, 0.0, 0.0, 0.0, 0.0]"
1555442023839896050,,19,,1555442023,775229930,"""knife_link""",,-0.556881980363,-0.323990478025,-0.132878395876,-0.753163967543,"[0.0, 0.0, 0.0, 0.0, 0.0, 0.0, 0.0, 0.0, 0.0]",,-1.07861347774,0.036651914292,0.22689280276,"[0.0, 0.0, 0.0, 0.0, 0.0, 0.0, 0.0, 0.0, 0.0]",,0.196329,10.69011405,2.79768825,"[0.0, 0.0, 0.0, 0.0, 0.0, 0.0, 0.0, 0.0, 0.0]"
1555442023881975914,,20,,1555442023,839194059,"""knife_link""",,-0.558200059612,-0.322925046793,-0.139585310207,-0.751430667977,"[0.0, 0.0, 0.0, 0.0, 0.0, 0.0, 0.0, 0.0, 0.0]",,0.066322511576,-0.12217304764,0.143116998664,"[0.0, 0.0, 0.0, 0.0, 0.0, 0.0, 0.0, 0.0, 0.0]",,-2.0025558,11.0140569,1.32522075,"[0.0, 0.0, 0.0, 0.0, 0.0, 0.0, 0.0, 0.0, 0.0]"
1555442023903610648,,21,,1555442023,881546974,"""knife_link""",,-0.548698999086,-0.326408356425,-0.146402480095,-0.755614522809,"[0.0, 0.0, 0.0, 0.0, 0.0, 0.0, 0.0, 0.0, 0.0]",,-0.415388361976,-0.024434609528,-0.115191730632,"[0.0, 0.0, 0.0, 0.0, 0.0, 0.0, 0.0, 0.0, 0.0]",,-2.14980255,9.7968171,1.7276952,"[0.0, 0.0, 0.0, 0.0, 0.0, 0.0, 0.0, 0.0, 0.0]"
1555442023988465666,,22,,1555442023,903115034,"""knife_link""",,-0.549057395388,-0.329681923691,-0.149296132186,-0.753363438638,"[0.0, 0.0, 0.0, 0.0, 0.0, 0.0, 0.0, 0.0, 0.0]",,0.324631240872,-0.2181661565,-0.094247779608,"[0.0, 0.0, 0.0, 0.0, 0.0, 0.0, 0.0, 0.0, 0.0]",,-2.28723285,8.80535565,1.4921004,"[0.0, 0.0, 0.0, 0.0, 0.0, 0.0, 0.0, 0.0, 0.0]"
1555442024009588453,,23,,1555442023,987917900,"""knife_link""",,-0.553756391127,-0.328797595375,-0.146739240079,-0.750808628069,"[0.0, 0.0, 0.0, 0.0, 0.0, 0.0, 0.0, 0.0, 0.0]",,0.20071286398,-0.211184839492,-0.031415926536,"[0.0, 0.0, 0.0, 0.0, 0.0, 0.0, 0.0, 0.0, 0.0]",,-2.28723285,9.0703998,2.2185177,"[0.0, 0.0, 0.0, 0.0, 0.0, 0.0, 0.0, 0.0, 0.0]"
1555442024115616341,,24,,1555442024,9133100,"""knife_link""",,-0.554801307678,-0.331984725569,-0.150452445603,-0.74789418543,"[0.0, 0.0, 0.0, 0.0, 0.0, 0.0, 0.0, 0.0, 0.0]",,0.38397243544,-0.16580627894,0.0,"[0.0, 0.0, 0.0, 0.0, 0.0, 0.0, 0.0, 0.0, 0.0]",,-2.26759995,9.47287425,1.48228395,"[0.0, 0.0, 0.0, 0.0, 0.0, 0.0, 0.0, 0.0, 0.0]"
1555442024116274231,,25,,1555442024,115125894,"""knife_link""",,-0.5704408349,-0.331955807165,-0.147122855145,-0.73672074863,"[0.0, 0.0, 0.0, 0.0, 0.0, 0.0, 0.0, 0.0, 0.0]",,0.415388361976,-0.143116998664,0.054105206812,"[0.0, 0.0, 0.0, 0.0, 0.0, 0.0, 0.0, 0.0, 0.0]",,-2.28723285,9.0115011,2.1792519,"[0.0, 0.0, 0.0, 0.0, 0.0, 0.0, 0.0, 0.0, 0.0]"
1555442024179589052,,26,,1555442024,115967988,"""knife_link""",,-0.568135866284,-0.336003074022,-0.15320617188,-0.735426026591,"[0.0, 0.0, 0.0, 0.0, 0.0, 0.0, 0.0, 0.0, 0.0]",,-0.080285145592,0.073303828584,0.082030474844,"[0.0, 0.0, 0.0, 0.0, 0.0, 0.0, 0.0, 0.0, 0.0]",,-2.13016965,9.81645,1.08962595,"[0.0, 0.0, 0.0, 0.0, 0.0, 0.0, 0.0, 0.0, 0.0]"
1555442024221990065,,27,,1555442024,179069995,"""knife_link""",,-0.573019891152,-0.340787054555,-0.155793079908,-0.728862747055,"[0.0, 0.0, 0.0, 0.0, 0.0, 0.0, 0.0, 0.0, 0.0]",,0.310668606856,-0.022689280276,0.012217304764,"[0.0, 0.0, 0.0, 0.0, 0.0, 0.0, 0.0, 0.0, 0.0]",,-2.16943545,9.6397539,1.44301815,"[0.0, 0.0, 0.0, 0.0, 0.0, 0.0, 0.0, 0.0, 0.0]"
1555442024286310175,,28,,1555442024,221457004,"""knife_link""",,-0.571541278343,-0.346274482138,-0.161891820217,-0.726103015223,"[0.0, 0.0, 0.0, 0.0, 0.0, 0.0, 0.0, 0.0, 0.0]",,0.085521133348,0.071558499332,-0.005235987756,"[0.0, 0.0, 0.0, 0.0, 0.0, 0.0, 0.0, 0.0, 0.0]",,-2.1792519,9.53177295,1.26632205,"[0.0, 0.0, 0.0, 0.0, 0.0, 0.0, 0.0, 0.0, 0.0]"
1555442024328239087,,29,,1555442024,285768032,"""knife_link""",,-0.577241175069,-0.353133579694,-0.160605363698,-0.718536859075,"[0.0, 0.0, 0.0, 0.0, 0.0, 0.0, 0.0, 0.0, 0.0]",,0.385717764692,-0.038397243544,-0.092502450356,"[0.0, 0.0, 0.0, 0.0, 0.0, 0.0, 0.0, 0.0, 0.0]",,-2.16943545,10.08149415,0.75586665,"[0.0, 0.0, 0.0, 0.0, 0.0, 0.0, 0.0, 0.0, 0.0]"
1555442024455141638,,30,,1555442024,327677011,"""knife_link""",,-0.572645905767,-0.362393039589,-0.159766588803,-0.717790072771,"[0.0, 0.0, 0.0, 0.0, 0.0, 0.0, 0.0, 0.0, 0.0]",,0.068067840828,-0.0,-0.385717764692,"[0.0, 0.0, 0.0, 0.0, 0.0, 0.0, 0.0, 0.0, 0.0]",,-2.8271376,11.90735385,1.24668915,"[0.0, 0.0, 0.0, 0.0, 0.0, 0.0, 0.0, 0.0, 0.0]"
1555442024456039908,,31,,1555442024,454761028,"""knife_link""",,-0.546602139217,-0.385670807503,-0.164219550605,-0.724924871171,"[0.0, 0.0, 0.0, 0.0, 0.0, 0.0, 0.0, 0.0, 0.0]",,-0.284488668076,0.221656815004,-0.336848545636,"[0.0, 0.0, 0.0, 0.0, 0.0, 0.0, 0.0, 0.0, 0.0]",,-3.62227005,11.14167075,2.0025558,"[0.0, 0.0, 0.0, 0.0, 0.0, 0.0, 0.0, 0.0, 0.0]"
1555442024489978553,,32,,1555442024,455811023,"""knife_link""",,-0.544227858515,-0.389175100853,-0.16989308851,-0.723529624389,"[0.0, 0.0, 0.0, 0.0, 0.0, 0.0, 0.0, 0.0, 0.0]",,0.464257581032,0.333357887132,0.813323431432,"[0.0, 0.0, 0.0, 0.0, 0.0, 0.0, 0.0, 0.0, 0.0]",,-3.01365015,10.61158245,1.75714455,"[0.0, 0.0, 0.0, 0.0, 0.0, 0.0, 0.0, 0.0, 0.0]"
1555442024523166955,,33,,1555442024,489435911,"""knife_link""",,-0.543713059975,-0.396451643939,-0.170356052838,-0.71984791289,"[0.0, 0.0, 0.0, 0.0, 0.0, 0.0, 0.0, 0.0, 0.0]",,0.324631240872,0.040142572796,-0.268780704808,"[0.0, 0.0, 0.0, 0.0, 0.0, 0.0, 0.0, 0.0, 0.0]",,-2.5130112,8.9526024,1.08962595,"[0.0, 0.0, 0.0, 0.0, 0.0, 0.0, 0.0, 0.0, 0.0]"
1555442024561930820,,34,,1555442024,522710084,"""knife_link""",,-0.537469329965,-0.407540678983,-0.160035242047,-0.720712172524,"[0.0, 0.0, 0.0, 0.0, 0.0, 0.0, 0.0, 0.0, 0.0]",,0.228638132012,-0.195476876224,-1.00530964915,"[0.0, 0.0, 0.0, 0.0, 0.0, 0.0, 0.0, 0.0, 0.0]",,-1.8062268,6.478857,0.9620121,"[0.0, 0.0, 0.0, 0.0, 0.0, 0.0, 0.0, 0.0, 0.0]"
1555442024625678850,,35,,1555442024,561558961,"""knife_link""",,-0.529869080599,-0.415140133895,-0.157292287412,-0.722604015333,"[0.0, 0.0, 0.0, 0.0, 0.0, 0.0, 0.0, 0.0, 0.0]",,-0.089011791852,-0.089011791852,-0.54977871438,"[0.0, 0.0, 0.0, 0.0, 0.0, 0.0, 0.0, 0.0, 0.0]",,-2.13016965,8.1672864,-0.40247445,"[0.0, 0.0, 0.0, 0.0, 0.0, 0.0, 0.0, 0.0, 0.0]"
1555442024689628247,,36,,1555442024,625160932,"""knife_link""",,-0.524920377728,-0.42227865101,-0.136166850613,-0.726359364737,"[0.0, 0.0, 0.0, 0.0, 0.0, 0.0, 0.0, 0.0, 0.0]",,0.223402144256,-0.403171057212,-0.729547627336,"[0.0, 0.0, 0.0, 0.0, 0.0, 0.0, 0.0, 0.0, 0.0]",,-2.40503025,8.31453315,0.2355948,"[0.0, 0.0, 0.0, 0.0, 0.0, 0.0, 0.0, 0.0, 0.0]"
1555442024753108747,,37,,1555442024,689085006,"""knife_link""",,-0.520720548136,-0.432218897123,-0.124613571288,-0.72560898118,"[0.0, 0.0, 0.0, 0.0, 0.0, 0.0, 0.0, 0.0, 0.0]",,0.216420827248,-0.125663706144,-0.50614548308,"[0.0, 0.0, 0.0, 0.0, 0.0, 0.0, 0.0, 0.0, 0.0]",,-2.77805535,7.656831,0.53990475,"[0.0, 0.0, 0.0, 0.0, 0.0, 0.0, 0.0, 0.0, 0.0]"
1555442024754091334,,38,,1555442024,752636909,"""knife_link""",,-0.519078472071,-0.441717426731,-0.11824543847,-0.72212275344,"[0.0, 0.0, 0.0, 0.0, 0.0, 0.0, 0.0, 0.0, 0.0]",,0.246091424532,-0.024434609528,-0.347320521148,"[0.0, 0.0, 0.0, 0.0, 0.0, 0.0, 0.0, 0.0, 0.0]",,-4.2014406,9.59067165,0.16687965,"[0.0, 0.0, 0.0, 0.0, 0.0, 0.0, 0.0, 0.0, 0.0]"
1555442024859970214,,39,,1555442024,753789901,"""knife_link""",,-0.516520941475,-0.445014348883,-0.123326603697,-0.721081753428,"[0.0, 0.0, 0.0, 0.0, 0.0, 0.0, 0.0, 0.0, 0.0]",,0.207694180988,0.10471975512,-0.125663706144,"[0.0, 0.0, 0.0, 0.0, 0.0, 0.0, 0.0, 0.0, 0.0]",,-4.01492805,8.7170076,0.40247445,"[0.0, 0.0, 0.0, 0.0, 0.0, 0.0, 0.0, 0.0, 0.0]"
1555442024860672887,,40,,1555442024,859505891,"""knife_link""",,-0.513704480486,-0.455804155928,-0.109739882923,-0.718545361312,"[0.0, 0.0, 0.0, 0.0, 0.0, 0.0, 0.0, 0.0, 0.0]",,0.190240888468,-0.064577182324,-0.328121899376,"[0.0, 0.0, 0.0, 0.0, 0.0, 0.0, 0.0, 0.0, 0.0]",,-4.2210735,8.6581089,0.32394285,"[0.0, 0.0, 0.0, 0.0, 0.0, 0.0, 0.0, 0.0, 0.0]"
1555442024923072127,,41,,1555442024,860392093,"""knife_link""",,-0.511369241946,-0.458966821315,-0.115098324904,-0.717358579044,"[0.0, 0.0, 0.0, 0.0, 0.0, 0.0, 0.0, 0.0, 0.0]",,0.015707963268,0.050614548308,0.019198621772,"[0.0, 0.0, 0.0, 0.0, 0.0, 0.0, 0.0, 0.0, 0.0]",,-3.9069471,9.45324135,-0.4122909,"[0.0, 0.0, 0.0, 0.0, 0.0, 0.0, 0.0, 0.0, 0.0]"
1555442024966108208,,42,,1555442024,922611951,"""knife_link""",,-0.511443348545,-0.463529451988,-0.117760125745,-0.713931860301,"[0.0, 0.0, 0.0, 0.0, 0.0, 0.0, 0.0, 0.0, 0.0]",,0.153588974176,0.027925268032,-0.038397243544,"[0.0, 0.0, 0.0, 0.0, 0.0, 0.0, 0.0, 0.0, 0.0]",,-3.91676355,9.2470959,0.85403115,"[0.0, 0.0, 0.0, 0.0, 0.0, 0.0, 0.0, 0.0, 0.0]"
1555442025029917793,,43,,1555442024,965218067,"""knife_link""",,-0.508711606281,-0.467594827645,-0.121460244071,-0.712611386315,"[0.0, 0.0, 0.0, 0.0, 0.0, 0.0, 0.0, 0.0, 0.0]",,0.031415926536,-0.0,-0.073303828584,"[0.0, 0.0, 0.0, 0.0, 0.0, 0.0, 0.0, 0.0, 0.0]",,-3.9462129,8.5206786,-0.392658,"[0.0, 0.0, 0.0, 0.0, 0.0, 0.0, 0.0, 0.0, 0.0]"
1555442025072131297,,44,,1555442025,29287099,"""knife_link""",,-0.508699106508,-0.470798113519,-0.124792103353,-0.709930479896,"[0.0, 0.0, 0.0, 0.0, 0.0, 0.0, 0.0, 0.0, 0.0]",,0.120427718388,0.003490658504,0.00872664626,"[0.0, 0.0, 0.0, 0.0, 0.0, 0.0, 0.0, 0.0, 0.0]",,-4.5548328,8.98205175,1.0012779,"[0.0, 0.0, 0.0, 0.0, 0.0, 0.0, 0.0, 0.0, 0.0]"
1555442025093074598,,45,,1555442025,71609020,"""knife_link""",,-0.50496867953,-0.47357378316,-0.129871529416,-0.709836523747,"[0.0, 0.0, 0.0, 0.0, 0.0, 0.0, 0.0, 0.0, 0.0]",,-0.073303828584,-0.01745329252,-0.02617993878,"[0.0, 0.0, 0.0, 0.0, 0.0, 0.0, 0.0, 0.0, 0.0]",,-4.09345965,9.08021625,-0.26504415,"[0.0, 0.0, 0.0, 0.0, 0.0, 0.0, 0.0, 0.0, 0.0]"
1555442025178553012,,46,,1555442025,92612981,"""knife_link""",,-0.502638644458,-0.476421891231,-0.134487414473,-0.708724001288,"[0.0, 0.0, 0.0, 0.0, 0.0, 0.0, 0.0, 0.0, 0.0]",,0.054105206812,-0.001745329252,0.006981317008,"[0.0, 0.0, 0.0, 0.0, 0.0, 0.0, 0.0, 0.0, 0.0]",,-4.28978865,8.60902665,0.59880345,"[0.0, 0.0, 0.0, 0.0, 0.0, 0.0, 0.0, 0.0, 0.0]"
1555442025200770976,,47,,1555442025,178150892,"""knife_link""",,-0.501804171889,-0.479360945755,-0.136846947946,-0.706879459029,"[0.0, 0.0, 0.0, 0.0, 0.0, 0.0, 0.0, 0.0, 0.0]",,0.066322511576,-0.027925268032,-0.020943951024,"[0.0, 0.0, 0.0, 0.0, 0.0, 0.0, 0.0, 0.0, 0.0]",,-4.2603393,9.19801365,-0.0981645,"[0.0, 0.0, 0.0, 0.0, 0.0, 0.0, 0.0, 0.0, 0.0]"
1555442025263423899,,48,,1555442025,199743986,"""knife_link""",,-0.500128362706,-0.482500984555,-0.140484651976,-0.705215203523,"[0.0, 0.0, 0.0, 0.0, 0.0, 0.0, 0.0, 0.0, 0.0]",,0.16580627894,-0.006981317008,-0.0436332313,"[0.0, 0.0, 0.0, 0.0, 0.0, 0.0, 0.0, 0.0, 0.0]",,-4.15235835,8.8740708,0.5693541,"[0.0, 0.0, 0.0, 0.0, 0.0, 0.0, 0.0, 0.0, 0.0]"
1555442025348231177,,49,,1555442025,262840032,"""knife_link""",,-0.49681216072,-0.486363852096,-0.143004042485,-0.704398838847,"[0.0, 0.0, 0.0, 0.0, 0.0, 0.0, 0.0, 0.0, 0.0]",,0.024434609528,-0.003490658504,-0.07853981634,"[0.0, 0.0, 0.0, 0.0, 0.0, 0.0, 0.0, 0.0, 0.0]",,-4.2603393,8.8544379,0.61843635,"[0.0, 0.0, 0.0, 0.0, 0.0, 0.0, 0.0, 0.0, 0.0]"
1555442025348876604,,50,,1555442025,347557067,"""knife_link""",,-0.497535665106,-0.491399333867,-0.143185064695,-0.700344910648,"[0.0, 0.0, 0.0, 0.0, 0.0, 0.0, 0.0, 0.0, 0.0]",,0.150098315672,0.012217304764,-0.048869219056,"[0.0, 0.0, 0.0, 0.0, 0.0, 0.0, 0.0, 0.0, 0.0]",,-4.4566683,8.442147,0.14724675,"[0.0, 0.0, 0.0, 0.0, 0.0, 0.0, 0.0, 0.0, 0.0]"
1555442025418228370,,51,,1555442025,348551988,"""knife_link""",,-0.495168892289,-0.49406559873,-0.147797780402,-0.699187219827,"[0.0, 0.0, 0.0, 0.0, 0.0, 0.0, 0.0, 0.0, 0.0]",,-0.027925268032,-0.036651914292,-0.102974425868,"[0.0, 0.0, 0.0, 0.0, 0.0, 0.0, 0.0, 0.0, 0.0]",,-4.23088995,9.6986526,-0.40247445,"[0.0, 0.0, 0.0, 0.0, 0.0, 0.0, 0.0, 0.0, 0.0]"
1555442025518385804,,52,,1555442025,417723894,"""knife_link""",,-0.493301697278,-0.498327679509,-0.147116013788,-0.69762442459,"[0.0, 0.0, 0.0, 0.0, 0.0, 0.0, 0.0, 0.0, 0.0]",,0.116937059884,-0.036651914292,-0.109955742876,"[0.0, 0.0, 0.0, 0.0, 0.0, 0.0, 0.0, 0.0, 0.0]",,-4.34868735,7.9316916,0.69696795,"[0.0, 0.0, 0.0, 0.0, 0.0, 0.0, 0.0, 0.0, 0.0]"
1555442025539649915,,53,,1555442025,517842054,"""knife_link""",,-0.489074177037,-0.499933512544,-0.155666998519,-0.697596386146,"[0.0, 0.0, 0.0, 0.0, 0.0, 0.0, 0.0, 0.0, 0.0]",,-0.07853981634,0.01745329252,0.048869219056,"[0.0, 0.0, 0.0, 0.0, 0.0, 0.0, 0.0, 0.0, 0.0]",,-4.56464925,8.86425435,-0.2944935,"[0.0, 0.0, 0.0, 0.0, 0.0, 0.0, 0.0, 0.0, 0.0]"
1555442025582262725,,54,,1555442025,539220094,"""knife_link""",,-0.486630731331,-0.502860835077,-0.159565158699,-0.696319231387,"[0.0, 0.0, 0.0, 0.0, 0.0, 0.0, 0.0, 0.0, 0.0]",,0.068067840828,-0.006981317008,-0.041887902048,"[0.0, 0.0, 0.0, 0.0, 0.0, 0.0, 0.0, 0.0, 0.0]",,-4.5548328,9.17838075,0.24541125,"[0.0, 0.0, 0.0, 0.0, 0.0, 0.0, 0.0, 0.0, 0.0]"
1555442025645707168,,55,,1555442025,581590890,"""knife_link""",,-0.483496926253,-0.506596040891,-0.163337219456,-0.694918791225,"[0.0, 0.0, 0.0, 0.0, 0.0, 0.0, 0.0, 0.0, 0.0]",,0.024434609528,0.036651914292,-0.05235987756,"[0.0, 0.0, 0.0, 0.0, 0.0, 0.0, 0.0, 0.0, 0.0]",,-4.4763012,8.41269765,0.42210735,"[0.0, 0.0, 0.0, 0.0, 0.0, 0.0, 0.0, 0.0, 0.0]"
1555442025646631706,,56,,1555442025,645149946,"""knife_link""",,-0.479092937305,-0.50960598326,-0.1683255251,-0.694577725564,"[0.0, 0.0, 0.0, 0.0, 0.0, 0.0, 0.0, 0.0, 0.0]",,-0.064577182324,0.00872664626,-0.02617993878,"[0.0, 0.0, 0.0, 0.0, 0.0, 0.0, 0.0, 0.0, 0.0]",,-4.6137315,9.0900327,-0.55953765,"[0.0, 0.0, 0.0, 0.0, 0.0, 0.0, 0.0, 0.0, 0.0]"
1555442025709718020,,57,,1555442025,646320104,"""knife_link""",,-0.476277202982,-0.512078432155,-0.17270137134,-0.693620891827,"[0.0, 0.0, 0.0, 0.0, 0.0, 0.0, 0.0, 0.0, 0.0]",,0.027925268032,-0.019198621772,-0.048869219056,"[0.0, 0.0, 0.0, 0.0, 0.0, 0.0, 0.0, 0.0, 0.0]",,-4.48611765,8.5795773,0.53990475,"[0.0, 0.0, 0.0, 0.0, 0.0, 0.0, 0.0, 0.0, 0.0]"
1555442025815740238,,58,,1555442025,709161996,"""knife_link""",,-0.469996113177,-0.515399063155,-0.179732881257,-0.693659535142,"[0.0, 0.0, 0.0, 0.0, 0.0, 0.0, 0.0, 0.0, 0.0]",,-0.134390352404,0.064577182324,-0.01745329252,"[0.0, 0.0, 0.0, 0.0, 0.0, 0.0, 0.0, 0.0, 0.0]",,-4.58428215,8.7562734,0.4711896,"[0.0, 0.0, 0.0, 0.0, 0.0, 0.0, 0.0, 0.0, 0.0]"
1555442025816902671,,59,,1555442025,815201044,"""knife_link""",,-0.466747202996,-0.518907555801,-0.183793102643,-0.692172010738,"[0.0, 0.0, 0.0, 0.0, 0.0, 0.0, 0.0, 0.0, 0.0]",,-0.003490658504,0.019198621772,-0.019198621772,"[0.0, 0.0, 0.0, 0.0, 0.0, 0.0, 0.0, 0.0, 0.0]",,-4.0051116,8.2261851,-0.0981645,"[0.0, 0.0, 0.0, 0.0, 0.0, 0.0, 0.0, 0.0, 0.0]"
1555442025879498166,,60,,1555442025,816560983,"""knife_link""",,-0.46411869097,-0.521149997739,-0.187968738745,-0.691132602185,"[0.0, 0.0, 0.0, 0.0, 0.0, 0.0, 0.0, 0.0, 0.0]",,0.031415926536,-0.012217304764,0.020943951024,"[0.0, 0.0, 0.0, 0.0, 0.0, 0.0, 0.0, 0.0, 0.0]",,-4.8296934,9.37470975,0.53990475,"[0.0, 0.0, 0.0, 0.0, 0.0, 0.0, 0.0, 0.0, 0.0]"
1555442025985599892,,61,,1555442025,879039049,"""knife_link""",,-0.461207520912,-0.524147022025,-0.192531711645,-0.689557149167,"[0.0, 0.0, 0.0, 0.0, 0.0, 0.0, 0.0, 0.0, 0.0]",,-0.015707963268,0.024434609528,0.0,"[0.0, 0.0, 0.0, 0.0, 0.0, 0.0, 0.0, 0.0, 0.0]",,-4.38795315,8.0887548,-0.55953765,"[0.0, 0.0, 0.0, 0.0, 0.0, 0.0, 0.0, 0.0, 0.0]"
1555442025986579854,,62,,1555442025,985188961,"""knife_link""",,-0.45946409078,-0.524811529208,-0.199242727526,-0.688308029607,"[0.0, 0.0, 0.0, 0.0, 0.0, 0.0, 0.0, 0.0, 0.0]",,-0.019198621772,-0.0,0.059341194568,"[0.0, 0.0, 0.0, 0.0, 0.0, 0.0, 0.0, 0.0, 0.0]",,-4.66281375,8.55012795,0.36320865,"[0.0, 0.0, 0.0, 0.0, 0.0, 0.0, 0.0, 0.0, 0.0]"
1555442026049366617,,63,,1555442025,986154079,"""knife_link""",,-0.45715838894,-0.526994057953,-0.20299783575,-0.687077396648,"[0.0, 0.0, 0.0, 0.0, 0.0, 0.0, 0.0, 0.0, 0.0]",,0.071558499332,-0.019198621772,0.062831853072,"[0.0, 0.0, 0.0, 0.0, 0.0, 0.0, 0.0, 0.0, 0.0]",,-4.70207955,9.04095045,-0.04908225,"[0.0, 0.0, 0.0, 0.0, 0.0, 0.0, 0.0, 0.0, 0.0]"
1555442026053383857,,64,,1555442026,48835992,"""knife_link""",,-0.454744301022,-0.528867608375,-0.207066306773,-0.686024939852,"[0.0, 0.0, 0.0, 0.0, 0.0, 0.0, 0.0, 0.0, 0.0]",,0.005235987756,0.00872664626,0.01745329252,"[0.0, 0.0, 0.0, 0.0, 0.0, 0.0, 0.0, 0.0, 0.0]",,-4.7707947,8.1869193,1.2172398,"[0.0, 0.0, 0.0, 0.0, 0.0, 0.0, 0.0, 0.0, 0.0]"
1555442026155512196,,65,,1555442026,53013086,"""knife_link""",,-0.452546542379,-0.531268641328,-0.211078142164,-0.684398477221,"[0.0, 0.0, 0.0, 0.0, 0.0, 0.0, 0.0, 0.0, 0.0]",,0.029670597284,-0.031415926536,0.048869219056,"[0.0, 0.0, 0.0, 0.0, 0.0, 0.0, 0.0, 0.0, 0.0]",,-4.46648475,9.2667288,-0.8245818,"[0.0, 0.0, 0.0, 0.0, 0.0, 0.0, 0.0, 0.0, 0.0]"
1555442026156342438,,66,,1555442026,155030965,"""knife_link""",,-0.460773616039,-0.534470511905,-0.208448079301,-0.677184129245,"[0.0, 0.0, 0.0, 0.0, 0.0, 0.0, 0.0, 0.0, 0.0]",,0.280998009572,-0.012217304764,0.0436332313,"[0.0, 0.0, 0.0, 0.0, 0.0, 0.0, 0.0, 0.0, 0.0]",,-4.515567,8.4617799,1.67861295,"[0.0, 0.0, 0.0, 0.0, 0.0, 0.0, 0.0, 0.0, 0.0]"
1555442026219684169,,67,,1555442026,155949115,"""knife_link""",,-0.458476547669,-0.536852565714,-0.212181616559,-0.675697816719,"[0.0, 0.0, 0.0, 0.0, 0.0, 0.0, 0.0, 0.0, 0.0]",,-0.029670597284,0.080285145592,0.059341194568,"[0.0, 0.0, 0.0, 0.0, 0.0, 0.0, 0.0, 0.0, 0.0]",,-3.64190295,7.74517905,-0.9227463,"[0.0, 0.0, 0.0, 0.0, 0.0, 0.0, 0.0, 0.0, 0.0]"
1555442026262371849,,68,,1555442026,219144105,"""knife_link""",,-0.454807782428,-0.540415733689,-0.214251000318,-0.674683054987,"[0.0, 0.0, 0.0, 0.0, 0.0, 0.0, 0.0, 0.0, 0.0]",,0.010471975512,0.010471975512,-0.09599310886,"[0.0, 0.0, 0.0, 0.0, 0.0, 0.0, 0.0, 0.0, 0.0]",,-3.4161246,9.0900327,-0.0392658,"[0.0, 0.0, 0.0, 0.0, 0.0, 0.0, 0.0, 0.0, 0.0]"
1555442026326094172,,69,,1555442026,261816024,"""knife_link""",,-0.44787609763,-0.543268329037,-0.218044275903,-0.675813004894,"[0.0, 0.0, 0.0, 0.0, 0.0, 0.0, 0.0, 0.0, 0.0]",,-0.1745329252,0.027925268032,-0.101229096616,"[0.0, 0.0, 0.0, 0.0, 0.0, 0.0, 0.0, 0.0, 0.0]",,-6.37087605,7.76481195,0.7656831,"[0.0, 0.0, 0.0, 0.0, 0.0, 0.0, 0.0, 0.0, 0.0]"
1555442026368835331,,70,,1555442026,325249910,"""knife_link""",,-0.447412367833,-0.548858144326,-0.218422173708,-0.671467545418,"[0.0, 0.0, 0.0, 0.0, 0.0, 0.0, 0.0, 0.0, 0.0]",,0.171042266696,0.06981317008,-0.045378560552,"[0.0, 0.0, 0.0, 0.0, 0.0, 0.0, 0.0, 0.0, 0.0]",,-6.4003254,9.11948205,0.2159619,"[0.0, 0.0, 0.0, 0.0, 0.0, 0.0, 0.0, 0.0, 0.0]"
1555442026431926974,,71,,1555442026,368112087,"""knife_link""",,-0.447044392201,-0.550593654741,-0.220942071662,-0.669464367783,"[0.0, 0.0, 0.0, 0.0, 0.0, 0.0, 0.0, 0.0, 0.0]",,0.089011791852,-0.029670597284,0.027925268032,"[0.0, 0.0, 0.0, 0.0, 0.0, 0.0, 0.0, 0.0, 0.0]",,-4.50575055,9.17838075,-0.7067844,"[0.0, 0.0, 0.0, 0.0, 0.0, 0.0, 0.0, 0.0, 0.0]"
1555442026495910475,,72,,1555442026,431377887,"""knife_link""",,-0.447609993985,-0.552959845989,-0.218701415496,-0.667870041901,"[0.0, 0.0, 0.0, 0.0, 0.0, 0.0, 0.0, 0.0, 0.0]",,0.18325957146,-0.082030474844,-0.075049157836,"[0.0, 0.0, 0.0, 0.0, 0.0, 0.0, 0.0, 0.0, 0.0]",,-4.4370354,8.74645695,0.55953765,"[0.0, 0.0, 0.0, 0.0, 0.0, 0.0, 0.0, 0.0, 0.0]"
1555442026601854246,,73,,1555442026,495287895,"""knife_link""",,-0.445065035082,-0.558235775052,-0.219200863361,-0.665011966435,"[0.0, 0.0, 0.0, 0.0, 0.0, 0.0, 0.0, 0.0, 0.0]",,0.097738438112,0.055850536064,-0.085521133348,"[0.0, 0.0, 0.0, 0.0, 0.0, 0.0, 0.0, 0.0, 0.0]",,-3.75970035,6.4199583,0.0785316,"[0.0, 0.0, 0.0, 0.0, 0.0, 0.0, 0.0, 0.0, 0.0]"
1555442026602723682,,74,,1555442026,601301908,"""knife_link""",,-0.443371816283,-0.56350965043,-0.218363373723,-0.661963551424,"[0.0, 0.0, 0.0, 0.0, 0.0, 0.0, 0.0, 0.0, 0.0]",,0.092502450356,0.024434609528,-0.066322511576,"[0.0, 0.0, 0.0, 0.0, 0.0, 0.0, 0.0, 0.0, 0.0]",,-5.0652882,9.3648933,0.5300883,"[0.0, 0.0, 0.0, 0.0, 0.0, 0.0, 0.0, 0.0, 0.0]"
1555442026636247341,,75,,1555442026,602318048,"""knife_link""",,-0.440402679061,-0.565494109569,-0.221871713019,-0.661086102774,"[0.0, 0.0, 0.0, 0.0, 0.0, 0.0, 0.0, 0.0, 0.0]",,0.045378560552,0.0436332313,0.10471975512,"[0.0, 0.0, 0.0, 0.0, 0.0, 0.0, 0.0, 0.0, 0.0]",,-5.7524397,8.86425435,0.57917055,"[0.0, 0.0, 0.0, 0.0, 0.0, 0.0, 0.0, 0.0, 0.0]"
1555442026669678336,,76,,1555442026,635775089,"""knife_link""",,-0.438949157316,-0.567491543644,-0.225809229106,-0.659004686807,"[0.0, 0.0, 0.0, 0.0, 0.0, 0.0, 0.0, 0.0, 0.0]",,0.03490658504,0.040142572796,0.05235987756,"[0.0, 0.0, 0.0, 0.0, 0.0, 0.0, 0.0, 0.0, 0.0]",,-4.6333644,9.35507685,-0.5693541,"[0.0, 0.0, 0.0, 0.0, 0.0, 0.0, 0.0, 0.0, 0.0]"
1555442026771858472,,77,,1555442026,669153928,"""knife_link""",,-0.438182118927,-0.569836295486,-0.228581699745,-0.656531365237,"[0.0, 0.0, 0.0, 0.0, 0.0, 0.0, 0.0, 0.0, 0.0]",,0.137881010908,0.019198621772,0.045378560552,"[0.0, 0.0, 0.0, 0.0, 0.0, 0.0, 0.0, 0.0, 0.0]",,-3.42594105,7.50958425,0.1374303,"[0.0, 0.0, 0.0, 0.0, 0.0, 0.0, 0.0, 0.0, 0.0]"
1555442026773094062,,78,,1555442026,771312952,"""knife_link""",,-0.439151026729,-0.573744677402,-0.22834889477,-0.652549004392,"[0.0, 0.0, 0.0, 0.0, 0.0, 0.0, 0.0, 0.0, 0.0]",,0.129154364648,0.013962634016,-0.013962634016,"[0.0, 0.0, 0.0, 0.0, 0.0, 0.0, 0.0, 0.0, 0.0]",,-4.38795315,8.4028812,0.67733505,"[0.0, 0.0, 0.0, 0.0, 0.0, 0.0, 0.0, 0.0, 0.0]"
1555442026878256121,,79,,1555442026,772727012,"""knife_link""",,-0.436753972154,-0.576012860686,-0.231353871189,-0.651099484271,"[0.0, 0.0, 0.0, 0.0, 0.0, 0.0, 0.0, 0.0, 0.0]",,-0.059341194568,0.09599310886,-0.015707963268,"[0.0, 0.0, 0.0, 0.0, 0.0, 0.0, 0.0, 0.0, 0.0]",,-4.9671237,8.03967255,-1.38411945,"[0.0, 0.0, 0.0, 0.0, 0.0, 0.0, 0.0, 0.0, 0.0]"
1555442026878901297,,80,,1555442026,877789974,"""knife_link""",,-0.438875904805,-0.576425808854,-0.23715774331,-0.647207410231,"[0.0, 0.0, 0.0, 0.0, 0.0, 0.0, 0.0, 0.0, 0.0]",,0.05235987756,0.019198621772,0.10471975512,"[0.0, 0.0, 0.0, 0.0, 0.0, 0.0, 0.0, 0.0, 0.0]",,-4.6922631,8.96241885,0.53990475,"[0.0, 0.0, 0.0, 0.0, 0.0, 0.0, 0.0, 0.0, 0.0]"
1555442026984359651,,81,,1555442026,878599882,"""knife_link""",,-0.434586002597,-0.579537107273,-0.237897845524,-0.647052055661,"[0.0, 0.0, 0.0, 0.0, 0.0, 0.0, 0.0, 0.0, 0.0]",,0.083775804096,-0.001745329252,-0.003490658504,"[0.0, 0.0, 0.0, 0.0, 0.0, 0.0, 0.0, 0.0, 0.0]",,-8.6973747,3.3768588,-0.0588987,"[0.0, 0.0, 0.0, 0.0, 0.0, 0.0, 0.0, 0.0, 0.0]"
1555442026984986182,,82,,1555442026,983839035,"""knife_link""",,-0.451445657652,-0.571053050649,-0.262643018135,-0.633335516576,"[0.0, 0.0, 0.0, 0.0, 0.0, 0.0, 0.0, 0.0, 0.0]",,0.048869219056,0.109955742876,0.626573201468,"[0.0, 0.0, 0.0, 0.0, 0.0, 0.0, 0.0, 0.0, 0.0]",,-4.3585038,6.35124315,-0.2355948,"[0.0, 0.0, 0.0, 0.0, 0.0, 0.0, 0.0, 0.0, 0.0]"
1555442027027162827,,83,,1555442026,984720945,"""knife_link""",,-0.449012667962,-0.572861888558,-0.266325882399,-0.631891925104,"[0.0, 0.0, 0.0, 0.0, 0.0, 0.0, 0.0, 0.0, 0.0]",,0.125663706144,0.006981317008,1.0035643199,"[0.0, 0.0, 0.0, 0.0, 0.0, 0.0, 0.0, 0.0, 0.0]",,-3.533922,7.90224225,-0.1570632,"[0.0, 0.0, 0.0, 0.0, 0.0, 0.0, 0.0, 0.0, 0.0]"
1555442027048282267,,84,,1555442027,26680946,"""knife_link""",,-0.465403394775,-0.561070891035,-0.289045810075,-0.620525305723,"[0.0, 0.0, 0.0, 0.0, 0.0, 0.0, 0.0, 0.0, 0.0]",,0.068067840828,0.036651914292,1.54287105877,"[0.0, 0.0, 0.0, 0.0, 0.0, 0.0, 0.0, 0.0, 0.0]",,-3.1805298,4.6137315,-0.2159619,"[0.0, 0.0, 0.0, 0.0, 0.0, 0.0, 0.0, 0.0, 0.0]"
1555442027090470214,,85,,1555442027,47863006,"""knife_link""",,-0.47654245431,-0.552278639929,-0.304362607989,-0.612583868524,"[0.0, 0.0, 0.0, 0.0, 0.0, 0.0, 0.0, 0.0, 0.0]",,0.150098315672,-0.172787595948,2.12232037043,"[0.0, 0.0, 0.0, 0.0, 0.0, 0.0, 0.0, 0.0, 0.0]",,-1.9240242,13.9000932,-2.6111757,"[0.0, 0.0, 0.0, 0.0, 0.0, 0.0, 0.0, 0.0, 0.0]"
1555442027154567998,,86,,1555442027,90050935,"""knife_link""",,-0.468691141132,-0.532607525632,-0.331675571759,-0.62181118755,"[0.0, 0.0, 0.0, 0.0, 0.0, 0.0, 0.0, 0.0, 0.0]",,-1.34215819479,-0.321140582368,0.900589894032,"[0.0, 0.0, 0.0, 0.0, 0.0, 0.0, 0.0, 0.0, 0.0]",,-1.6687965,11.49506295,-0.26504415,"[0.0, 0.0, 0.0, 0.0, 0.0, 0.0, 0.0, 0.0, 0.0]"
1555442027218162491,,87,,1555442027,153908014,"""knife_link""",,-0.450942960986,-0.506288845556,-0.3629040167,-0.639236048315,"[0.0, 0.0, 0.0, 0.0, 0.0, 0.0, 0.0, 0.0, 0.0]",,-1.33692220703,-0.329867228628,0.511381470836,"[0.0, 0.0, 0.0, 0.0, 0.0, 0.0, 0.0, 0.0, 0.0]",,-1.0601766,12.94789755,1.5902649,"[0.0, 0.0, 0.0, 0.0, 0.0, 0.0, 0.0, 0.0, 0.0]"
1555442027240229934,,88,,1555442027,217742919,"""knife_link""",,-0.401653489068,-0.478070094627,-0.39733338116,-0.67249508813,"[0.0, 0.0, 0.0, 0.0, 0.0, 0.0, 0.0, 0.0, 0.0]",,-2.27940000311,-0.211184839492,-0.116937059884,"[0.0, 0.0, 0.0, 0.0, 0.0, 0.0, 0.0, 0.0, 0.0]",,-1.89457485,10.72937985,1.9043913,"[0.0, 0.0, 0.0, 0.0, 0.0, 0.0, 0.0, 0.0, 0.0]"
1555442027303660280,,89,,1555442027,239713907,"""knife_link""",,-0.375926472145,-0.467245129159,-0.416237647417,-0.683452630173,"[0.0, 0.0, 0.0, 0.0, 0.0, 0.0, 0.0, 0.0, 0.0]",,-3.04909020324,-0.024434609528,-0.16580627894,"[0.0, 0.0, 0.0, 0.0, 0.0, 0.0, 0.0, 0.0, 0.0]",,-1.81604325,8.8937037,1.89457485,"[0.0, 0.0, 0.0, 0.0, 0.0, 0.0, 0.0, 0.0, 0.0]"
1555442027345863635,,90,,1555442027,303062915,"""knife_link""",,-0.304748613349,-0.411586372725,-0.474363727706,-0.716033514778,"[0.0, 0.0, 0.0, 0.0, 0.0, 0.0, 0.0, 0.0, 0.0]",,-3.50113047951,-0.239110107524,0.336848545636,"[0.0, 0.0, 0.0, 0.0, 0.0, 0.0, 0.0, 0.0, 0.0]",,-1.5902649,8.9329695,2.79768825,"[0.0, 0.0, 0.0, 0.0, 0.0, 0.0, 0.0, 0.0, 0.0]"
1555442027473127472,,91,,1555442027,345276117,"""knife_link""",,-0.269713117244,-0.391201632334,-0.481881222416,-0.736210978408,"[0.0, 0.0, 0.0, 0.0, 0.0, 0.0, 0.0, 0.0, 0.0]",,-1.98618468878,-0.466002910284,-0.780162175644,"[0.0, 0.0, 0.0, 0.0, 0.0, 0.0, 0.0, 0.0, 0.0]",,-2.67989085,8.1476535,5.3401488,"[0.0, 0.0, 0.0, 0.0, 0.0, 0.0, 0.0, 0.0, 0.0]"
1555442027473707256,,92,,1555442027,472564935,"""knife_link""",,-0.210370413626,-0.320681121039,-0.475202607811,-0.791890389644,"[0.0, 0.0, 0.0, 0.0, 0.0, 0.0, 0.0, 0.0, 0.0]",,-1.38404609684,-0.830776723952,-0.647517152492,"[0.0, 0.0, 0.0, 0.0, 0.0, 0.0, 0.0, 0.0, 0.0]",,0.02944935,4.5940986,5.62482585,"[0.0, 0.0, 0.0, 0.0, 0.0, 0.0, 0.0, 0.0, 0.0]"
1555442027515968628,,93,,1555442027,473479032,"""knife_link""",,-0.207313217069,-0.321934484622,-0.481711480974,-0.788247084827,"[0.0, 0.0, 0.0, 0.0, 0.0, 0.0, 0.0, 0.0, 0.0]",,-1.35786615806,-0.539306738868,-0.333357887132,"[0.0, 0.0, 0.0, 0.0, 0.0, 0.0, 0.0, 0.0, 0.0]",,-2.05163805,6.7733505,10.31708895,"[0.0, 0.0, 0.0, 0.0, 0.0, 0.0, 0.0, 0.0, 0.0]"
1555442027579447616,,94,,1555442027,515423059,"""knife_link""",,-0.17453671766,-0.306445724605,-0.489095852131,-0.797755099945,"[0.0, 0.0, 0.0, 0.0, 0.0, 0.0, 0.0, 0.0, 0.0]",,-1.66504410641,-0.15707963268,-0.596902604184,"[0.0, 0.0, 0.0, 0.0, 0.0, 0.0, 0.0, 0.0, 0.0]",,-0.91292985,5.4383133,5.4775791,"[0.0, 0.0, 0.0, 0.0, 0.0, 0.0, 0.0, 0.0, 0.0]"
1555442027707154150,,95,,1555442027,578857898,"""knife_link""",,-0.170535719437,-0.294312228648,-0.487921462828,-0.803884647556,"[0.0, 0.0, 0.0, 0.0, 0.0, 0.0, 0.0, 0.0, 0.0]",,-0.211184839492,-0.446804288512,-0.308923277604,"[0.0, 0.0, 0.0, 0.0, 0.0, 0.0, 0.0, 0.0, 0.0]",,-1.9436571,4.95730725,8.3243496,"[0.0, 0.0, 0.0, 0.0, 0.0, 0.0, 0.0, 0.0, 0.0]"
1555442028026488202,,96,,1555442027,706372976,"""knife_link""",,-0.145039359874,-0.262622514163,-0.491604450246,-0.817507225436,"[0.0, 0.0, 0.0, 0.0, 0.0, 0.0, 0.0, 0.0, 0.0]",,-0.586430628672,-0.32288591162,-0.211184839492,"[0.0, 0.0, 0.0, 0.0, 0.0, 0.0, 0.0, 0.0, 0.0]",,-1.24668915,5.7524397,7.13655915,"[0.0, 0.0, 0.0, 0.0, 0.0, 0.0, 0.0, 0.0, 0.0]"
1555442028046687453,,97,,1555442028,25964975,"""knife_link""",,-0.140473440843,-0.216465534262,-0.489967903041,-0.83267120695,"[0.0, 0.0, 0.0, 0.0, 0.0, 0.0, 0.0, 0.0, 0.0]",,-0.162315620436,-0.274016692564,-0.068067840828,"[0.0, 0.0, 0.0, 0.0, 0.0, 0.0, 0.0, 0.0, 0.0]",,-1.99273935,4.6922631,9.2078301,"[0.0, 0.0, 0.0, 0.0, 0.0, 0.0, 0.0, 0.0, 0.0]"
1555442028061409334,,98,,1555442028,46216964,"""knife_link""",,-0.134516987486,-0.213716608181,-0.497866619916,-0.829674165102,"[0.0, 0.0, 0.0, 0.0, 0.0, 0.0, 0.0, 0.0, 0.0]",,-0.595157274932,-0.080285145592,-0.11344640138,"[0.0, 0.0, 0.0, 0.0, 0.0, 0.0, 0.0, 0.0, 0.0]",,-0.4319238,5.0652882,8.2850838,"[0.0, 0.0, 0.0, 0.0, 0.0, 0.0, 0.0, 0.0, 0.0]"
1555442028094384677,,99,,1555442028,60909986,"""knife_link""",,-0.133960805691,-0.214265479702,-0.505225327326,-0.825161908582,"[0.0, 0.0, 0.0, 0.0, 0.0, 0.0, 0.0, 0.0, 0.0]",,0.048869219056,-0.167551608192,0.048869219056,"[0.0, 0.0, 0.0, 0.0, 0.0, 0.0, 0.0, 0.0, 0.0]",,-2.1399861,5.0063895,8.0887548,"[0.0, 0.0, 0.0, 0.0, 0.0, 0.0, 0.0, 0.0, 0.0]"
1555442028127486097,,100,,1555442028,93877077,"""knife_link""",,-0.129461879829,-0.210543631718,-0.512676835356,-0.822236865692,"[0.0, 0.0, 0.0, 0.0, 0.0, 0.0, 0.0, 0.0, 0.0]",,-0.312413936108,-0.171042266696,-0.062831853072,"[0.0, 0.0, 0.0, 0.0, 0.0, 0.0, 0.0, 0.0, 0.0]",,-1.3546701,4.711896,8.23600155,"[0.0, 0.0, 0.0, 0.0, 0.0, 0.0, 0.0, 0.0, 0.0]"
1555442028161459286,,101,,1555442028,127054929,"""knife_link""",,-0.12632246413,-0.205446156645,-0.523589753408,-0.817121950447,"[0.0, 0.0, 0.0, 0.0, 0.0, 0.0, 0.0, 0.0, 0.0]",,-0.321140582368,-0.2181661565,0.207694180988,"[0.0, 0.0, 0.0, 0.0, 0.0, 0.0, 0.0, 0.0, 0.0]",,-1.38411945,5.2027185,9.0703998,"[0.0, 0.0, 0.0, 0.0, 0.0, 0.0, 0.0, 0.0, 0.0]"
1555442028194260465,,102,,1555442028,160815000,"""knife_link""",,-0.122961724151,-0.204371306591,-0.530331268342,-0.813548725803,"[0.0, 0.0, 0.0, 0.0, 0.0, 0.0, 0.0, 0.0, 0.0]",,-0.18325957146,-0.076794487088,-0.080285145592,"[0.0, 0.0, 0.0, 0.0, 0.0, 0.0, 0.0, 0.0, 0.0]",,-1.8847584,5.62482585,8.56976085,"[0.0, 0.0, 0.0, 0.0, 0.0, 0.0, 0.0, 0.0, 0.0]"
1555442028227696411,,103,,1555442028,193691968,"""knife_link""",,-0.120689901051,-0.202761373632,-0.538971772134,-0.808598294575,"[0.0, 0.0, 0.0, 0.0, 0.0, 0.0, 0.0, 0.0, 0.0]",,-0.125663706144,-0.07853981634,0.076794487088,"[0.0, 0.0, 0.0, 0.0, 0.0, 0.0, 0.0, 0.0, 0.0]",,-0.93256275,3.83823195,8.2850838,"[0.0, 0.0, 0.0, 0.0, 0.0, 0.0, 0.0, 0.0, 0.0]"
1555442028261151892,,104,,1555442028,227183103,"""knife_link""",,-0.128304116475,-0.204779642156,-0.539453684701,-0.806593499798,"[0.0, 0.0, 0.0, 0.0, 0.0, 0.0, 0.0, 0.0, 0.0]",,0.51487212934,-0.336848545636,-0.335103216384,"[0.0, 0.0, 0.0, 0.0, 0.0, 0.0, 0.0, 0.0, 0.0]",,-1.20742335,4.9278579,7.76481195,"[0.0, 0.0, 0.0, 0.0, 0.0, 0.0, 0.0, 0.0, 0.0]"
1555442028294314516,,105,,1555442028,260520935,"""knife_link""",,-0.149243380083,-0.213200178778,-0.534401295369,-0.804168734022,"[0.0, 0.0, 0.0, 0.0, 0.0, 0.0, 0.0, 0.0, 0.0]",,1.46607657168,-0.518362787844,-0.443313630008,"[0.0, 0.0, 0.0, 0.0, 0.0, 0.0, 0.0, 0.0, 0.0]",,-0.57917055,6.8322492,9.5219565,"[0.0, 0.0, 0.0, 0.0, 0.0, 0.0, 0.0, 0.0, 0.0]"
1555442028327718261,,106,,1555442028,293771028,"""knife_link""",,-0.184516529939,-0.2376941542,-0.519632975773,-0.799647866081,"[0.0, 0.0, 0.0, 0.0, 0.0, 0.0, 0.0, 0.0, 0.0]",,2.83441470525,-0.27925268032,-0.774926187888,"[0.0, 0.0, 0.0, 0.0, 0.0, 0.0, 0.0, 0.0, 0.0]",,-1.65898005,5.4186804,9.74773485,"[0.0, 0.0, 0.0, 0.0, 0.0, 0.0, 0.0, 0.0, 0.0]"
1555442028360711789,,107,,1555442028,327097892,"""knife_link""",,-0.214929059828,-0.265398460645,-0.511003512585,-0.788824800862,"[0.0, 0.0, 0.0, 0.0, 0.0, 0.0, 0.0, 0.0, 0.0]",,2.66337243855,0.158824961932,-0.336848545636,"[0.0, 0.0, 0.0, 0.0, 0.0, 0.0, 0.0, 0.0, 0.0]",,-2.748606,6.8126163,9.8360829,"[0.0, 0.0, 0.0, 0.0, 0.0, 0.0, 0.0, 0.0, 0.0]"
1555442028394472561,,108,,1555442028,360232114,"""knife_link""",,-0.227522965619,-0.271591238391,-0.514734382896,-0.780717627834,"[0.0, 0.0, 0.0, 0.0, 0.0, 0.0, 0.0, 0.0, 0.0]",,0.952949771592,-0.23561944902,0.23561944902,"[0.0, 0.0, 0.0, 0.0, 0.0, 0.0, 0.0, 0.0, 0.0]",,-3.54373845,5.54629425,8.00040675,"[0.0, 0.0, 0.0, 0.0, 0.0, 0.0, 0.0, 0.0, 0.0]"
1555442028427807508,,109,,1555442028,393922090,"""knife_link""",,-0.222307728522,-0.273853458039,-0.527684948325,-0.772743264397,"[0.0, 0.0, 0.0, 0.0, 0.0, 0.0, 0.0, 0.0, 0.0]",,-0.228638132012,0.233874119768,0.446804288512,"[0.0, 0.0, 0.0, 0.0, 0.0, 0.0, 0.0, 0.0, 0.0]",,-4.1425419,6.72426825,6.0469332,"[0.0, 0.0, 0.0, 0.0, 0.0, 0.0, 0.0, 0.0, 0.0]"
1555442028461049470,,110,,1555442028,427229881,"""knife_link""",,-0.209394997356,-0.269556200046,-0.533606015831,-0.773794423583,"[0.0, 0.0, 0.0, 0.0, 0.0, 0.0, 0.0, 0.0, 0.0]",,-0.834267382456,-0.080285145592,-0.198967534728,"[0.0, 0.0, 0.0, 0.0, 0.0, 0.0, 0.0, 0.0, 0.0]",,-4.21125705,6.4003254,4.66281375,"[0.0, 0.0, 0.0, 0.0, 0.0, 0.0, 0.0, 0.0, 0.0]"
1555442028494439189,,111,,1555442028,460422039,"""knife_link""",,-0.194872566504,-0.252134326029,-0.542384166796,-0.777349586782,"[0.0, 0.0, 0.0, 0.0, 0.0, 0.0, 0.0, 0.0, 0.0]",,-1.38055543833,-0.595157274932,-0.055850536064,"[0.0, 0.0, 0.0, 0.0, 0.0, 0.0, 0.0, 0.0, 0.0]",,-2.7289731,5.95858515,6.21381285,"[0.0, 0.0, 0.0, 0.0, 0.0, 0.0, 0.0, 0.0, 0.0]"
1555442028527509029,,112,,1555442028,493884086,"""knife_link""",,-0.176954464075,-0.24660697564,-0.561660663187,-0.769681373452,"[0.0, 0.0, 0.0, 0.0, 0.0, 0.0, 0.0, 0.0, 0.0]",,-1.11002940427,0.4799655443,0.521853446348,"[0.0, 0.0, 0.0, 0.0, 0.0, 0.0, 0.0, 0.0, 0.0]",,1.0012779,4.5744657,7.9709574,"[0.0, 0.0, 0.0, 0.0, 0.0, 0.0, 0.0, 0.0, 0.0]"
1555442028561125592,,113,,1555442028,527059078,"""knife_link""",,-0.165705997948,-0.250507154378,-0.606896001386,-0.735843007272,"[0.0, 0.0, 0.0, 0.0, 0.0, 0.0, 0.0, 0.0, 0.0]",,-0.659734457256,1.39102741384,2.60228591473,"[0.0, 0.0, 0.0, 0.0, 0.0, 0.0, 0.0, 0.0, 0.0]",,2.4933783,5.4383133,6.25307865,"[0.0, 0.0, 0.0, 0.0, 0.0, 0.0, 0.0, 0.0, 0.0]"
1555442028594674638,,114,,1555442028,560563087,"""knife_link""",,-0.151356750001,-0.25080901452,-0.650263725761,-0.700958671695,"[0.0, 0.0, 0.0, 0.0, 0.0, 0.0, 0.0, 0.0, 0.0]",,-0.85521133348,1.25140107368,2.57261531745,"[0.0, 0.0, 0.0, 0.0, 0.0, 0.0, 0.0, 0.0, 0.0]",,3.533922,7.01876175,8.6188431,"[0.0, 0.0, 0.0, 0.0, 0.0, 0.0, 0.0, 0.0, 0.0]"
1555442028627697151,,115,,1555442028,594070911,"""knife_link""",,-0.149428007839,-0.259721548476,-0.681738792192,-0.66741906397,"[0.0, 0.0, 0.0, 0.0, 0.0, 0.0, 0.0, 0.0, 0.0]",,0.171042266696,1.11177473352,2.05250720035,"[0.0, 0.0, 0.0, 0.0, 0.0, 0.0, 0.0, 0.0, 0.0]",,3.58300425,5.0063895,8.1083877,"[0.0, 0.0, 0.0, 0.0, 0.0, 0.0, 0.0, 0.0, 0.0]"
1555442028663729509,,116,,1555442028,627085924,"""knife_link""",,-0.14830889428,-0.261728868327,-0.707196436652,-0.639824719238,"[0.0, 0.0, 0.0, 0.0, 0.0, 0.0, 0.0, 0.0, 0.0]",,-0.054105206812,0.633554518476,1.70867733771,"[0.0, 0.0, 0.0, 0.0, 0.0, 0.0, 0.0, 0.0, 0.0]",,2.3952138,5.74262325,8.55012795,"[0.0, 0.0, 0.0, 0.0, 0.0, 0.0, 0.0, 0.0, 0.0]"
1555442028727192416,,117,,1555442028,663126945,"""knife_link""",,-0.158296985592,-0.293794455096,-0.719583469659,-0.608955263299,"[0.0, 0.0, 0.0, 0.0, 0.0, 0.0, 0.0, 0.0, 0.0]",,1.76278254452,1.10653874577,1.19380520837,"[0.0, 0.0, 0.0, 0.0, 0.0, 0.0, 0.0, 0.0, 0.0]",,0.38284155,5.72299035,8.7170076,"[0.0, 0.0, 0.0, 0.0, 0.0, 0.0, 0.0, 0.0, 0.0]"
1555442028748522992,,118,,1555442028,726702928,"""knife_link""",,-0.159291312289,-0.337492122203,-0.723956750572,-0.580182702759,"[0.0, 0.0, 0.0, 0.0, 0.0, 0.0, 0.0, 0.0, 0.0]",,1.14842664782,0.98611102738,0.370009801424,"[0.0, 0.0, 0.0, 0.0, 0.0, 0.0, 0.0, 0.0, 0.0]",,-0.7656831,6.3021609,7.4016033,"[0.0, 0.0, 0.0, 0.0, 0.0, 0.0, 0.0, 0.0, 0.0]"
1555442028818729897,,119,,1555442028,748095989,"""knife_link""",,-0.164435974742,-0.381640861523,-0.715665201893,-0.561368312096,"[0.0, 0.0, 0.0, 0.0, 0.0, 0.0, 0.0, 0.0, 0.0]",,3.94269878027,2.23402144256,-0.010471975512,"[0.0, 0.0, 0.0, 0.0, 0.0, 0.0, 0.0, 0.0, 0.0]",,-0.981645,7.15619205,8.2065522,"[0.0, 0.0, 0.0, 0.0, 0.0, 0.0, 0.0, 0.0, 0.0]"
1555442028854664222,,120,,1555442028,818085908,"""knife_link""",,-0.171151707729,-0.501867713876,-0.670114613415,-0.519405713867,"[0.0, 0.0, 0.0, 0.0, 0.0, 0.0, 0.0, 0.0, 0.0]",,3.27772833526,2.02283660307,-0.41015237422,"[0.0, 0.0, 0.0, 0.0, 0.0, 0.0, 0.0, 0.0, 0.0]",,-1.1190753,8.245818,2.3166822,"[0.0, 0.0, 0.0, 0.0, 0.0, 0.0, 0.0, 0.0, 0.0]"
1555442029002971187,,121,,1555442028,854078054,"""knife_link""",,-0.191814329905,-0.545647961131,-0.634868324447,-0.512267289577,"[0.0, 0.0, 0.0, 0.0, 0.0, 0.0, 0.0, 0.0, 0.0]",,3.16777259238,0.347320521148,-0.614355896704,"[0.0, 0.0, 0.0, 0.0, 0.0, 0.0, 0.0, 0.0, 0.0]",,-2.52282765,10.31708895,-0.73623375,"[0.0, 0.0, 0.0, 0.0, 0.0, 0.0, 0.0, 0.0, 0.0]"
1555442029003556461,,122,,1555442029,2510070,"""knife_link""",,-0.237149693221,-0.59372599855,-0.486942560961,-0.595093609423,"[0.0, 0.0, 0.0, 0.0, 0.0, 0.0, 0.0, 0.0, 0.0]",,1.64060949688,-1.08035880699,-1.56905099755,"[0.0, 0.0, 0.0, 0.0, 0.0, 0.0, 0.0, 0.0, 0.0]",,-2.03200515,10.3269054,2.95475145,"[0.0, 0.0, 0.0, 0.0, 0.0, 0.0, 0.0, 0.0, 0.0]"
1555442029037488894,,123,,1555442029,3313064,"""knife_link""",,-0.236370040011,-0.594444489037,-0.487499443803,-0.594229960479,"[0.0, 0.0, 0.0, 0.0, 0.0, 0.0, 0.0, 0.0, 0.0]",,0.879645943008,-0.50614548308,-0.869173967496,"[0.0, 0.0, 0.0, 0.0, 0.0, 0.0, 0.0, 0.0, 0.0]",,-3.4553904,7.47031845,0.3337593,"[0.0, 0.0, 0.0, 0.0, 0.0, 0.0, 0.0, 0.0, 0.0]"
1555442029173062073,,124,,1555442029,36845922,"""knife_link""",,-0.250121624457,-0.599805138305,-0.476976802294,-0.591748341033,"[0.0, 0.0, 0.0, 0.0, 0.0, 0.0, 0.0, 0.0, 0.0]",,1.05243353896,-0.35779249666,0.076794487088,"[0.0, 0.0, 0.0, 0.0, 0.0, 0.0, 0.0, 0.0, 0.0]",,-3.9069471,8.5206786,0.16687965,"[0.0, 0.0, 0.0, 0.0, 0.0, 0.0, 0.0, 0.0, 0.0]"
1555442029173760689,,125,,1555442029,172559022,"""knife_link""",,-0.29720538585,-0.623732965246,-0.460208763548,-0.557524923785,"[0.0, 0.0, 0.0, 0.0, 0.0, 0.0, 0.0, 0.0, 0.0]",,0.862192650488,0.101229096616,0.413643032724,"[0.0, 0.0, 0.0, 0.0, 0.0, 0.0, 0.0, 0.0, 0.0]",,-3.40630815,9.81645,0.2552277,"[0.0, 0.0, 0.0, 0.0, 0.0, 0.0, 0.0, 0.0, 0.0]"
1555442029207668828,,126,,1555442029,173443078,"""knife_link""",,-0.296685103843,-0.623705546332,-0.461649915367,-0.556640544942,"[0.0, 0.0, 0.0, 0.0, 0.0, 0.0, 0.0, 0.0, 0.0]",,0.202458193232,0.129154364648,0.040142572796,"[0.0, 0.0, 0.0, 0.0, 0.0, 0.0, 0.0, 0.0, 0.0]",,-2.8271376,10.10112705,1.4135688,"[0.0, 0.0, 0.0, 0.0, 0.0, 0.0, 0.0, 0.0, 0.0]"
1555442029241281773,,127,,1555442029,207175970,"""knife_link""",,-0.301608840285,-0.625801509853,-0.457808371024,-0.554811745683,"[0.0, 0.0, 0.0, 0.0, 0.0, 0.0, 0.0, 0.0, 0.0]",,0.443313630008,-0.18325957146,0.036651914292,"[0.0, 0.0, 0.0, 0.0, 0.0, 0.0, 0.0, 0.0, 0.0]",,-3.4161246,9.57103875,0.18651255,"[0.0, 0.0, 0.0, 0.0, 0.0, 0.0, 0.0, 0.0, 0.0]"
1555442029279616677,,128,,1555442029,240725040,"""knife_link""",,-0.310718273413,-0.625747051342,-0.445472262354,-0.559865381835,"[0.0, 0.0, 0.0, 0.0, 0.0, 0.0, 0.0, 0.0, 0.0]",,0.726056968832,-0.75049157836,-0.242600766028,"[0.0, 0.0, 0.0, 0.0, 0.0, 0.0, 0.0, 0.0, 0.0]",,-3.22961205,9.6593868,0.6871515,"[0.0, 0.0, 0.0, 0.0, 0.0, 0.0, 0.0, 0.0, 0.0]"
1555442029322016178,,129,,1555442029,279222011,"""knife_link""",,-0.322150832173,-0.620007498102,-0.428859606459,-0.572615911039,"[0.0, 0.0, 0.0, 0.0, 0.0, 0.0, 0.0, 0.0, 0.0]",,0.589921287176,-1.21300383014,-0.354301838156,"[0.0, 0.0, 0.0, 0.0, 0.0, 0.0, 0.0, 0.0, 0.0]",,-2.83695405,9.02131755,0.48100605,"[0.0, 0.0, 0.0, 0.0, 0.0, 0.0, 0.0, 0.0, 0.0]"
1555442029342875152,,130,,1555442029,321563959,"""knife_link""",,-0.330634009353,-0.623762873498,-0.410677203753,-0.577014093261,"[0.0, 0.0, 0.0, 0.0, 0.0, 0.0, 0.0, 0.0, 0.0]",,0.834267382456,-0.589921287176,-0.420624349732,"[0.0, 0.0, 0.0, 0.0, 0.0, 0.0, 0.0, 0.0, 0.0]",,-3.4161246,9.6004881,0.2748606,"[0.0, 0.0, 0.0, 0.0, 0.0, 0.0, 0.0, 0.0, 0.0]"
1555442029407200561,,131,,1555442029,342550039,"""knife_link""",,-0.340772413596,-0.624660848902,-0.394604242972,-0.581343682695,"[0.0, 0.0, 0.0, 0.0, 0.0, 0.0, 0.0, 0.0, 0.0]",,1.48527519345,-1.36135681656,-0.570722665404,"[0.0, 0.0, 0.0, 0.0, 0.0, 0.0, 0.0, 0.0, 0.0]",,-2.46392895,8.4814128,-1.0209108,"[0.0, 0.0, 0.0, 0.0, 0.0, 0.0, 0.0, 0.0, 0.0]"
1555442029449661498,,132,,1555442029,406573057,"""knife_link""",,-0.368293173671,-0.622806569106,-0.380035021699,-0.576233891739,"[0.0, 0.0, 0.0, 0.0, 0.0, 0.0, 0.0, 0.0, 0.0]",,0.86393797974,-0.516617458592,0.354301838156,"[0.0, 0.0, 0.0, 0.0, 0.0, 0.0, 0.0, 0.0, 0.0]",,-4.32905445,10.5036015,0.02944935,"[0.0, 0.0, 0.0, 0.0, 0.0, 0.0, 0.0, 0.0, 0.0]"
1555442029513299463,,133,,1555442029,449095010,"""knife_link""",,-0.37219712832,-0.627313877177,-0.375081399795,-0.572066902294,"[0.0, 0.0, 0.0, 0.0, 0.0, 0.0, 0.0, 0.0, 0.0]",,0.415388361976,-0.073303828584,-0.027925268032,"[0.0, 0.0, 0.0, 0.0, 0.0, 0.0, 0.0, 0.0, 0.0]",,-3.74006745,8.84462145,-3.1805298,"[0.0, 0.0, 0.0, 0.0, 0.0, 0.0, 0.0, 0.0, 0.0]"
1555442029619547352,,134,,1555442029,512775897,"""knife_link""",,-0.365068427553,-0.61797512223,-0.385427531118,-0.579894309133,"[0.0, 0.0, 0.0, 0.0, 0.0, 0.0, 0.0, 0.0, 0.0]",,-0.48869219056,-0.198967534728,0.068067840828,"[0.0, 0.0, 0.0, 0.0, 0.0, 0.0, 0.0, 0.0, 0.0]",,-4.1818077,8.47159635,-0.0196329,"[0.0, 0.0, 0.0, 0.0, 0.0, 0.0, 0.0, 0.0, 0.0]"
1555442029662681697,,135,,1555442029,618978023,"""knife_link""",,-0.272831178358,-0.612523905893,-0.486882683559,-0.559752503591,"[0.0, 0.0, 0.0, 0.0, 0.0, 0.0, 0.0, 0.0, 0.0]",,-2.09264977315,1.53414441251,0.221656815004,"[0.0, 0.0, 0.0, 0.0, 0.0, 0.0, 0.0, 0.0, 0.0]",,-4.2014406,8.33416605,1.44301815,"[0.0, 0.0, 0.0, 0.0, 0.0, 0.0, 0.0, 0.0, 0.0]"
1555442029663903070,,136,,1555442029,662105083,"""knife_link""",,-0.236854522513,-0.620903572478,-0.53093805942,-0.525816950952,"[0.0, 0.0, 0.0, 0.0, 0.0, 0.0, 0.0, 0.0, 0.0]",,-1.6109388996,2.51676478138,0.783652834148,"[0.0, 0.0, 0.0, 0.0, 0.0, 0.0, 0.0, 0.0, 0.0]",,-4.21125705,9.66920325,-1.18779045,"[0.0, 0.0, 0.0, 0.0, 0.0, 0.0, 0.0, 0.0, 0.0]"
1555442029705185724,,137,,1555442029,663480043,"""knife_link""",,-0.236161975073,-0.621438441825,-0.53083714765,-0.525598427725,"[0.0, 0.0, 0.0, 0.0, 0.0, 0.0, 0.0, 0.0, 0.0]",,-0.097738438112,1.4398966329,-0.675442420524,"[0.0, 0.0, 0.0, 0.0, 0.0, 0.0, 0.0, 0.0, 0.0]",,-4.15235835,11.25946815,-0.57917055,"[0.0, 0.0, 0.0, 0.0, 0.0, 0.0, 0.0, 0.0, 0.0]"
1555442029789327889,,138,,1555442029,704333066,"""knife_link""",,-0.244480745931,-0.624881650681,-0.519011467551,-0.529508436252,"[0.0, 0.0, 0.0, 0.0, 0.0, 0.0, 0.0, 0.0, 0.0]",,0.609119908948,-0.363028484416,-0.190240888468,"[0.0, 0.0, 0.0, 0.0, 0.0, 0.0, 0.0, 0.0, 0.0]",,-1.61971425,12.63377115,5.01620595,"[0.0, 0.0, 0.0, 0.0, 0.0, 0.0, 0.0, 0.0, 0.0]"
1555442029790260653,,139,,1555442029,788769006,"""knife_link""",,-0.223318606972,-0.605179798163,-0.53407337777,-0.546490474604,"[0.0, 0.0, 0.0, 0.0, 0.0, 0.0, 0.0, 0.0, 0.0]",,-0.836012711708,-0.127409035396,-0.230383461264,"[0.0, 0.0, 0.0, 0.0, 0.0, 0.0, 0.0, 0.0, 0.0]",,-2.93511855,10.39562055,2.34613155,"[0.0, 0.0, 0.0, 0.0, 0.0, 0.0, 0.0, 0.0, 0.0]"
1555442029853323051,,140,,1555442029,789794921,"""knife_link""",,-0.224699836698,-0.60413321005,-0.534490063273,-0.546674876105,"[0.0, 0.0, 0.0, 0.0, 0.0, 0.0, 0.0, 0.0, 0.0]",,-0.013962634016,-1.01752695392,0.904080552536,"[0.0, 0.0, 0.0, 0.0, 0.0, 0.0, 0.0, 0.0, 0.0]",,-2.4933783,9.06058335,2.4148467,"[0.0, 0.0, 0.0, 0.0, 0.0, 0.0, 0.0, 0.0, 0.0]"
1555442029895874838,,141,,1555442029,852663040,"""knife_link""",,-0.26047803784,-0.590067961398,-0.530523738055,-0.550014141723,"[0.0, 0.0, 0.0, 0.0, 0.0, 0.0, 0.0, 0.0, 0.0]",,0.441568300756,-0.970403064112,0.635299847728,"[0.0, 0.0, 0.0, 0.0, 0.0, 0.0, 0.0, 0.0, 0.0]",,-2.46392895,9.90479805,1.38411945,"[0.0, 0.0, 0.0, 0.0, 0.0, 0.0, 0.0, 0.0, 0.0]"
1555442029960699932,,142,,1555442029,895210981,"""knife_link""",,-0.276526008135,-0.581100457202,-0.519121080085,-0.5624668254,"[0.0, 0.0, 0.0, 0.0, 0.0, 0.0, 0.0, 0.0, 0.0]",,0.342084533392,-1.19205987912,-0.092502450356,"[0.0, 0.0, 0.0, 0.0, 0.0, 0.0, 0.0, 0.0, 0.0]",,-2.3363151,8.86425435,-0.00981645,"[0.0, 0.0, 0.0, 0.0, 0.0, 0.0, 0.0, 0.0, 0.0]"
1555442030002482519,,143,,1555442029,960031032,"""knife_link""",,-0.296149736157,-0.578100212781,-0.487849350771,-0.583179636741,"[0.0, 0.0, 0.0, 0.0, 0.0, 0.0, 0.0, 0.0, 0.0]",,0.684169066784,-1.07337748998,-0.516617458592,"[0.0, 0.0, 0.0, 0.0, 0.0, 0.0, 0.0, 0.0, 0.0]",,-3.32777655,9.0115011,0.2944935,"[0.0, 0.0, 0.0, 0.0, 0.0, 0.0, 0.0, 0.0, 0.0]"
1555442030044744414,,144,,1555442030,1852989,"""knife_link""",,-0.29515000228,-0.579498491981,-0.481325440599,-0.587702130487,"[0.0, 0.0, 0.0, 0.0, 0.0, 0.0, 0.0, 0.0, 0.0]",,0.10471975512,-0.280998009572,-0.354301838156,"[0.0, 0.0, 0.0, 0.0, 0.0, 0.0, 0.0, 0.0, 0.0]",,-3.6713523,8.5403115,-1.06999305,"[0.0, 0.0, 0.0, 0.0, 0.0, 0.0, 0.0, 0.0, 0.0]"
1555442030129699308,,145,,1555442030,44228076,"""knife_link""",,-0.295867157395,-0.584422116422,-0.470245458916,-0.591424233001,"[0.0, 0.0, 0.0, 0.0, 0.0, 0.0, 0.0, 0.0, 0.0]",,0.406661715716,-0.24434609528,-0.460766922528,"[0.0, 0.0, 0.0, 0.0, 0.0, 0.0, 0.0, 0.0, 0.0]",,-3.6713523,8.3047167,0.42210735,"[0.0, 0.0, 0.0, 0.0, 0.0, 0.0, 0.0, 0.0, 0.0]"
1555442030193253035,,146,,1555442030,129151105,"""knife_link""",,-0.293272152922,-0.584973880716,-0.458891278847,-0.601012310522,"[0.0, 0.0, 0.0, 0.0, 0.0, 0.0, 0.0, 0.0, 0.0]",,0.068067840828,-0.22689280276,-0.319395253116,"[0.0, 0.0, 0.0, 0.0, 0.0, 0.0, 0.0, 0.0, 0.0]",,-3.56337135,8.72682405,0.196329,"[0.0, 0.0, 0.0, 0.0, 0.0, 0.0, 0.0, 0.0, 0.0]"
1555442030194109186,,147,,1555442030,192643880,"""knife_link""",,-0.28704580024,-0.59588578779,-0.449639276379,-0.600291060746,"[0.0, 0.0, 0.0, 0.0, 0.0, 0.0, 0.0, 0.0, 0.0]",,0.221656815004,0.14835298642,-0.404916386464,"[0.0, 0.0, 0.0, 0.0, 0.0, 0.0, 0.0, 0.0, 0.0]",,-3.89713065,9.620121,-0.6675186,"[0.0, 0.0, 0.0, 0.0, 0.0, 0.0, 0.0, 0.0, 0.0]"
1555442030257843510,,148,,1555442030,193794012,"""knife_link""",,-0.285966250429,-0.596326710902,-0.450957338481,-0.599379042301,"[0.0, 0.0, 0.0, 0.0, 0.0, 0.0, 0.0, 0.0, 0.0]",,-0.012217304764,-0.438077642252,-0.345575191896,"[0.0, 0.0, 0.0, 0.0, 0.0, 0.0, 0.0, 0.0, 0.0]",,-3.8873142,9.00168465,1.177974,"[0.0, 0.0, 0.0, 0.0, 0.0, 0.0, 0.0, 0.0, 0.0]"
1555442030363218809,,149,,1555442030,257070064,"""knife_link""",,-0.291345273604,-0.602742615422,-0.437601111532,-0.60027038765,"[0.0, 0.0, 0.0, 0.0, 0.0, 0.0, 0.0, 0.0, 0.0]",,0.448549617764,-0.164060949688,-0.240855436776,"[0.0, 0.0, 0.0, 0.0, 0.0, 0.0, 0.0, 0.0, 0.0]",,-3.95602935,8.70719115,-0.40247445,"[0.0, 0.0, 0.0, 0.0, 0.0, 0.0, 0.0, 0.0, 0.0]"
1555442030363665484,,150,,1555442030,362692117,"""knife_link""",,-0.281655357269,-0.607125172634,-0.438581322694,-0.599763043092,"[0.0, 0.0, 0.0, 0.0, 0.0, 0.0, 0.0, 0.0, 0.0]",,-0.073303828584,0.101229096616,-0.14835298642,"[0.0, 0.0, 0.0, 0.0, 0.0, 0.0, 0.0, 0.0, 0.0]",,-2.58172635,10.27782315,-0.1570632,"[0.0, 0.0, 0.0, 0.0, 0.0, 0.0, 0.0, 0.0, 0.0]"
1555442030405736622,,151,,1555442030,363423109,"""knife_link""",,-0.280830360421,-0.607976207368,-0.439717734036,-0.598454304283,"[0.0, 0.0, 0.0, 0.0, 0.0, 0.0, 0.0, 0.0, 0.0]",,0.033161255788,0.064577182324,-0.068067840828,"[0.0, 0.0, 0.0, 0.0, 0.0, 0.0, 0.0, 0.0, 0.0]",,-4.05419385,8.6581089,-0.0588987,"[0.0, 0.0, 0.0, 0.0, 0.0, 0.0, 0.0, 0.0, 0.0]"
1555442030470143564,,152,,1555442030,405251026,"""knife_link""",,-0.27906090154,-0.60875009921,-0.440835872597,-0.597672203951,"[0.0, 0.0, 0.0, 0.0, 0.0, 0.0, 0.0, 0.0, 0.0]",,-0.036651914292,0.013962634016,-0.036651914292,"[0.0, 0.0, 0.0, 0.0, 0.0, 0.0, 0.0, 0.0, 0.0]",,-4.2014406,8.8151721,0.0785316,"[0.0, 0.0, 0.0, 0.0, 0.0, 0.0, 0.0, 0.0, 0.0]"
1555442030512630379,,153,,1555442030,469398021,"""knife_link""",,-0.279158927917,-0.609678871939,-0.441568396921,-0.596136995091,"[0.0, 0.0, 0.0, 0.0, 0.0, 0.0, 0.0, 0.0, 0.0]",,0.033161255788,-0.001745329252,0.012217304764,"[0.0, 0.0, 0.0, 0.0, 0.0, 0.0, 0.0, 0.0, 0.0]",,-4.1032761,8.78572275,0.42210735,"[0.0, 0.0, 0.0, 0.0, 0.0, 0.0, 0.0, 0.0, 0.0]"
1555442030554321936,,154,,1555442030,511878013,"""knife_link""",,-0.280138824858,-0.610286426307,-0.444123951903,-0.593149755137,"[0.0, 0.0, 0.0, 0.0, 0.0, 0.0, 0.0, 0.0, 0.0]",,0.022689280276,0.036651914292,0.118682389136,"[0.0, 0.0, 0.0, 0.0, 0.0, 0.0, 0.0, 0.0, 0.0]",,-3.62227005,9.00168465,-0.00981645,"[0.0, 0.0, 0.0, 0.0, 0.0, 0.0, 0.0, 0.0, 0.0]"
1555442030597273590,,155,,1555442030,553816080,"""knife_link""",,-0.284277989012,-0.612217862808,-0.442553067058,-0.590357600324,"[0.0, 0.0, 0.0, 0.0, 0.0, 0.0, 0.0, 0.0, 0.0]",,0.268780704808,-0.045378560552,0.07853981634,"[0.0, 0.0, 0.0, 0.0, 0.0, 0.0, 0.0, 0.0, 0.0]",,-3.83823195,9.19801365,0.46137315,"[0.0, 0.0, 0.0, 0.0, 0.0, 0.0, 0.0, 0.0, 0.0]"
1555442030640278654,,156,,1555442030,596668004,"""knife_link""",,-0.282111836758,-0.612169219839,-0.44410118046,-0.590284591834,"[0.0, 0.0, 0.0, 0.0, 0.0, 0.0, 0.0, 0.0, 0.0]",,-0.076794487088,-0.024434609528,-0.033161255788,"[0.0, 0.0, 0.0, 0.0, 0.0, 0.0, 0.0, 0.0, 0.0]",,-4.319238,8.68755825,0.10798095,"[0.0, 0.0, 0.0, 0.0, 0.0, 0.0, 0.0, 0.0, 0.0]"
1555442030724666588,,157,,1555442030,639708995,"""knife_link""",,-0.280391608474,-0.614168017987,-0.440058027408,-0.592053311867,"[0.0, 0.0, 0.0, 0.0, 0.0, 0.0, 0.0, 0.0, 0.0]",,0.11344640138,-0.089011791852,-0.24434609528,"[0.0, 0.0, 0.0, 0.0, 0.0, 0.0, 0.0, 0.0, 0.0]",,-4.15235835,8.78572275,0.3533922,"[0.0, 0.0, 0.0, 0.0, 0.0, 0.0, 0.0, 0.0, 0.0]"
1555442030752528042,,158,,1555442030,724155902,"""knife_link""",,-0.28127731385,-0.614580065649,-0.440770813435,-0.590673772606,"[0.0, 0.0, 0.0, 0.0, 0.0, 0.0, 0.0, 0.0, 0.0]",,0.027925268032,-0.022689280276,0.020943951024,"[0.0, 0.0, 0.0, 0.0, 0.0, 0.0, 0.0, 0.0, 0.0]",,-4.1621748,9.31581105,0.0,"[0.0, 0.0, 0.0, 0.0, 0.0, 0.0, 0.0, 0.0, 0.0]"
1555442030809747759,,159,,1555442030,751864910,"""knife_link""",,-0.281280648145,-0.615716841028,-0.440866491263,-0.589415562684,"[0.0, 0.0, 0.0, 0.0, 0.0, 0.0, 0.0, 0.0, 0.0]",,0.10471975512,-0.015707963268,-0.019198621772,"[0.0, 0.0, 0.0, 0.0, 0.0, 0.0, 0.0, 0.0, 0.0]",,-4.17199125,9.3452604,0.3730251,"[0.0, 0.0, 0.0, 0.0, 0.0, 0.0, 0.0, 0.0, 0.0]"
1555442030873938537,,160,,1555442030,809015989,"""knife_link""",,-0.280009641438,-0.615082629084,-0.442732324108,-0.58928435351,"[0.0, 0.0, 0.0, 0.0, 0.0, 0.0, 0.0, 0.0, 0.0]",,-0.054105206812,-0.033161255788,0.010471975512,"[0.0, 0.0, 0.0, 0.0, 0.0, 0.0, 0.0, 0.0, 0.0]",,-4.1818077,8.03967255,0.22577835,"[0.0, 0.0, 0.0, 0.0, 0.0, 0.0, 0.0, 0.0, 0.0]"
1555442030915906281,,161,,1555442030,872989892,"""knife_link""",,-0.284643415173,-0.613729823199,-0.449186738734,-0.583562425162,"[0.0, 0.0, 0.0, 0.0, 0.0, 0.0, 0.0, 0.0, 0.0]",,0.00872664626,0.02617993878,0.284488668076,"[0.0, 0.0, 0.0, 0.0, 0.0, 0.0, 0.0, 0.0, 0.0]",,-4.30942155,10.0716777,0.0981645,"[0.0, 0.0, 0.0, 0.0, 0.0, 0.0, 0.0, 0.0, 0.0]"
1555442030979890032,,162,,1555442030,915378093,"""knife_link""",,-0.284124273653,-0.614720126262,-0.448658517616,-0.58317930181,"[0.0, 0.0, 0.0, 0.0, 0.0, 0.0, 0.0, 0.0, 0.0]",,0.05235987756,-0.040142572796,-0.055850536064,"[0.0, 0.0, 0.0, 0.0, 0.0, 0.0, 0.0, 0.0, 0.0]",,-3.93639645,8.72682405,0.1570632,"[0.0, 0.0, 0.0, 0.0, 0.0, 0.0, 0.0, 0.0, 0.0]"
1555442031001044278,,163,,1555442030,979181051,"""knife_link""",,-0.283278232447,-0.619677314768,-0.440121695439,-0.584847297837,"[0.0, 0.0, 0.0, 0.0, 0.0, 0.0, 0.0, 0.0, 0.0]",,0.225147473508,-0.05235987756,-0.249582083036,"[0.0, 0.0, 0.0, 0.0, 0.0, 0.0, 0.0, 0.0, 0.0]",,-4.44685185,8.94278595,0.5104554,"[0.0, 0.0, 0.0, 0.0, 0.0, 0.0, 0.0, 0.0, 0.0]"
1555442031086248859,,164,,1555442031,473976,"""knife_link""",,-0.282561747846,-0.619899062677,-0.440800472239,-0.584447563448,"[0.0, 0.0, 0.0, 0.0, 0.0, 0.0, 0.0, 0.0, 0.0]",,-0.03490658504,-0.073303828584,-0.029670597284,"[0.0, 0.0, 0.0, 0.0, 0.0, 0.0, 0.0, 0.0, 0.0]",,-4.2407064,8.9133366,-0.40247445,"[0.0, 0.0, 0.0, 0.0, 0.0, 0.0, 0.0, 0.0, 0.0]"
1555442031149550335,,165,,1555442031,85449934,"""knife_link""",,-0.282992509588,-0.621872762256,-0.439668901126,-0.58299293689,"[0.0, 0.0, 0.0, 0.0, 0.0, 0.0, 0.0, 0.0, 0.0]",,0.07853981634,0.003490658504,-0.015707963268,"[0.0, 0.0, 0.0, 0.0, 0.0, 0.0, 0.0, 0.0, 0.0]",,-4.2799722,8.84462145,1.24668915,"[0.0, 0.0, 0.0, 0.0, 0.0, 0.0, 0.0, 0.0, 0.0]"
1555442031150424709,,166,,1555442031,149065971,"""knife_link""",,-0.275442263595,-0.619773339837,-0.447099770305,-0.583193245885,"[0.0, 0.0, 0.0, 0.0, 0.0, 0.0, 0.0, 0.0, 0.0]",,-0.307177948352,0.073303828584,-0.012217304764,"[0.0, 0.0, 0.0, 0.0, 0.0, 0.0, 0.0, 0.0, 0.0]",,-3.70080165,8.3636154,-0.40247445,"[0.0, 0.0, 0.0, 0.0, 0.0, 0.0, 0.0, 0.0, 0.0]"
1555442031213655032,,167,,1555442031,150007009,"""knife_link""",,-0.274637048379,-0.62018669903,-0.448309252872,-0.582204228595,"[0.0, 0.0, 0.0, 0.0, 0.0, 0.0, 0.0, 0.0, 0.0]",,0.109955742876,0.027925268032,0.038397243544,"[0.0, 0.0, 0.0, 0.0, 0.0, 0.0, 0.0, 0.0, 0.0]",,-4.17199125,9.2667288,0.77549955,"[0.0, 0.0, 0.0, 0.0, 0.0, 0.0, 0.0, 0.0, 0.0]"
1555442031255778267,,168,,1555442031,213001966,"""knife_link""",,-0.270530387517,-0.61921120196,-0.45264425962,-0.581810940968,"[0.0, 0.0, 0.0, 0.0, 0.0, 0.0, 0.0, 0.0, 0.0]",,-0.158824961932,0.038397243544,-0.003490658504,"[0.0, 0.0, 0.0, 0.0, 0.0, 0.0, 0.0, 0.0, 0.0]",,-3.9854787,8.98205175,0.1570632,"[0.0, 0.0, 0.0, 0.0, 0.0, 0.0, 0.0, 0.0, 0.0]"
