rosbagTimestamp,header,seq,stamp,secs,nsecs,frame_id,orientation,x,y,z,w,orientation_covariance,angular_velocity,x,y,z,angular_velocity_covariance,linear_acceleration,x,y,z,linear_acceleration_covariance
1569261684419772440,,26945,,1569261684,362994909,"""knife_link""",,-0.652658147927,-0.178694231151,-0.16392152754,-0.717799029329,"[0.0, 0.0, 0.0, 0.0, 0.0, 0.0, 0.0, 0.0, 0.0]",,-0.644730975399,0.212922209901,0.790050188905,"[0.0, 0.0, 0.0, 0.0, 0.0, 0.0, 0.0, 0.0, 0.0]",,0.40247445,9.0900327,1.8062268,"[0.0, 0.0, 0.0, 0.0, 0.0, 0.0, 0.0, 0.0, 0.0]"
1569261684457152223,,26946,,1569261684,419116020,"""knife_link""",,-0.639130153189,-0.164749016212,-0.181980863372,-0.728871301608,"[0.0, 0.0, 0.0, 0.0, 0.0, 0.0, 0.0, 0.0, 0.0]",,-0.756432047527,-0.0104799343548,0.610281275949,"[0.0, 0.0, 0.0, 0.0, 0.0, 0.0, 0.0, 0.0, 0.0]",,0.87366405,9.7575513,3.70080165,"[0.0, 0.0, 0.0, 0.0, 0.0, 0.0, 0.0, 0.0, 0.0]"
1569261684513243933,,26947,,1569261684,456505060,"""knife_link""",,-0.611336908561,-0.144538329562,-0.205655945746,-0.750387558198,"[0.0, 0.0, 0.0, 0.0, 0.0, 0.0, 0.0, 0.0, 0.0]",,-2.19283802192,-0.0226972391188,1.12864406379,"[0.0, 0.0, 0.0, 0.0, 0.0, 0.0, 0.0, 0.0, 0.0]",,1.2761385,9.88516515,5.33033235,"[0.0, 0.0, 0.0, 0.0, 0.0, 0.0, 0.0, 0.0, 0.0]"
1569261684569727596,,26948,,1569261684,512835025,"""knife_link""",,-0.561121702031,-0.0889162064906,-0.235850431206,-0.78842305765,"[0.0, 0.0, 0.0, 0.0, 0.0, 0.0, 0.0, 0.0, 0.0]",,-2.7426167363,-0.743518220195,1.45676596317,"[0.0, 0.0, 0.0, 0.0, 0.0, 0.0, 0.0, 0.0, 0.0]",,1.4528346,9.8753487,6.25307865,"[0.0, 0.0, 0.0, 0.0, 0.0, 0.0, 0.0, 0.0, 0.0]"
1569261684607635147,,26949,,1569261684,569051980,"""knife_link""",,-0.467827792677,-0.0185372878582,-0.250696914005,-0.847316105515,"[0.0, 0.0, 0.0, 0.0, 0.0, 0.0, 0.0, 0.0, 0.0]",,-4.4408220985,-1.19206783796,0.994253711389,"[0.0, 0.0, 0.0, 0.0, 0.0, 0.0, 0.0, 0.0, 0.0]",,1.67861295,6.41014185,7.5586665,"[0.0, 0.0, 0.0, 0.0, 0.0, 0.0, 0.0, 0.0, 0.0]"
1569261684663732006,,26950,,1569261684,606996059,"""knife_link""",,-0.389196985678,0.0309393635224,-0.250118400992,-0.886007476046,"[0.0, 0.0, 0.0, 0.0, 0.0, 0.0, 0.0, 0.0, 0.0]",,-5.15815242107,-1.33867549513,0.535232118113,"[0.0, 0.0, 0.0, 0.0, 0.0, 0.0, 0.0, 0.0, 0.0]",,1.3939359,5.17326915,6.56720505,"[0.0, 0.0, 0.0, 0.0, 0.0, 0.0, 0.0, 0.0, 0.0]"
1569261684719760929,,26951,,1569261684,663094997,"""knife_link""",,-0.29568731083,0.0720255571661,-0.242650339386,-0.92114176223,"[0.0, 0.0, 0.0, 0.0, 0.0, 0.0, 0.0, 0.0, 0.0]",,-3.85439146983,-0.591674575271,0.0849371710969,"[0.0, 0.0, 0.0, 0.0, 0.0, 0.0, 0.0, 0.0, 0.0]",,1.3939359,4.58428215,7.5782994,"[0.0, 0.0, 0.0, 0.0, 0.0, 0.0, 0.0, 0.0, 0.0]"
1569261684757331458,,26952,,1569261684,719065904,"""knife_link""",,-0.23162570187,0.116371971884,-0.244748406573,-0.934294020035,"[0.0, 0.0, 0.0, 0.0, 0.0, 0.0, 0.0, 0.0, 0.0]",,-2.56110249409,-0.767952829723,0.728963665085,"[0.0, 0.0, 0.0, 0.0, 0.0, 0.0, 0.0, 0.0, 0.0]",,3.6320865,2.5326441,8.6973747,"[0.0, 0.0, 0.0, 0.0, 0.0, 0.0, 0.0, 0.0, 0.0]"
1569261684813816745,,26953,,1569261684,756658077,"""knife_link""",,-0.228174164083,0.095818884669,-0.260204200359,-0.93330009445,"[0.0, 0.0, 0.0, 0.0, 0.0, 0.0, 0.0, 0.0, 0.0]",,0.212225687333,1.29502634614,0.906987248789,"[0.0, 0.0, 0.0, 0.0, 0.0, 0.0, 0.0, 0.0, 0.0]",,-0.83439825,6.27271155,6.11564835,"[0.0, 0.0, 0.0, 0.0, 0.0, 0.0, 0.0, 0.0, 0.0]"
1569261684869611148,,26954,,1569261684,813038110,"""knife_link""",,-0.259023919407,0.0832017425266,-0.267735955626,-0.924284337896,"[0.0, 0.0, 0.0, 0.0, 0.0, 0.0, 0.0, 0.0, 0.0]",,1.29432982357,0.176270295609,0.250743450037,"[0.0, 0.0, 0.0, 0.0, 0.0, 0.0, 0.0, 0.0, 0.0]",,0.61843635,3.4946562,9.1489314,"[0.0, 0.0, 0.0, 0.0, 0.0, 0.0, 0.0, 0.0, 0.0]"
1569261684907647580,,26955,,1569261684,868948936,"""knife_link""",,-0.24746952837,0.0619686147069,-0.268851953317,-0.928782725139,"[0.0, 0.0, 0.0, 0.0, 0.0, 0.0, 0.0, 0.0, 0.0]",,-0.185709382123,0.886619301173,-0.0686518030791,"[0.0, 0.0, 0.0, 0.0, 0.0, 0.0, 0.0, 0.0, 0.0]",,1.9829229,3.03328305,11.39689845,"[0.0, 0.0, 0.0, 0.0, 0.0, 0.0, 0.0, 0.0, 0.0]"
1569261684963876156,,26956,,1569261684,906852960,"""knife_link""",,-0.236729738925,0.0603294825727,-0.293945143328,-0.924075558034,"[0.0, 0.0, 0.0, 0.0, 0.0, 0.0, 0.0, 0.0, 0.0]",,-0.309627759015,0.628310571877,1.48643656045,"[0.0, 0.0, 0.0, 0.0, 0.0, 0.0, 0.0, 0.0, 0.0]",,5.33033235,4.7315289,9.423792,"[0.0, 0.0, 0.0, 0.0, 0.0, 0.0, 0.0, 0.0, 0.0]"
1569261685019726414,,26957,,1569261684,963115930,"""knife_link""",,-0.21165206022,0.062489467809,-0.371254506638,-0.901924920999,"[0.0, 0.0, 0.0, 0.0, 0.0, 0.0, 0.0, 0.0, 0.0]",,-0.459726074687,0.848222057629,2.97694774166,"[0.0, 0.0, 0.0, 0.0, 0.0, 0.0, 0.0, 0.0, 0.0]",,3.56337135,8.0691219,9.08021625,"[0.0, 0.0, 0.0, 0.0, 0.0, 0.0, 0.0, 0.0, 0.0]"
1569261685057604589,,26958,,1569261685,19140958,"""knife_link""",,-0.215694799347,0.0444940885629,-0.406794877328,-0.88657428194,"[0.0, 0.0, 0.0, 0.0, 0.0, 0.0, 0.0, 0.0, 0.0]",,0.606670098285,0.794116850817,1.33982890328,"[0.0, 0.0, 0.0, 0.0, 0.0, 0.0, 0.0, 0.0, 0.0]",,1.48228395,3.0627324,8.49122925,"[0.0, 0.0, 0.0, 0.0, 0.0, 0.0, 0.0, 0.0, 0.0]"
1569261685113513437,,26959,,1569261685,56873083,"""knife_link""",,-0.231783676344,0.0480327594269,-0.415759949271,-0.878130312644,"[0.0, 0.0, 0.0, 0.0, 0.0, 0.0, 0.0, 0.0, 0.0]",,0.926065351401,-0.385725723535,0.765615579377,"[0.0, 0.0, 0.0, 0.0, 0.0, 0.0, 0.0, 0.0, 0.0]",,1.8454926,0.785316,9.02131755,"[0.0, 0.0, 0.0, 0.0, 0.0, 0.0, 0.0, 0.0, 0.0]"
1569261685169919676,,26960,,1569261685,113084077,"""knife_link""",,-0.240739357302,0.0475622863252,-0.425504637216,-0.871050052795,"[0.0, 0.0, 0.0, 0.0, 0.0, 0.0, 0.0, 0.0, 0.0]",,0.449590465605,-0.0261878976228,0.481126911301,"[0.0, 0.0, 0.0, 0.0, 0.0, 0.0, 0.0, 0.0, 0.0]",,2.05163805,0.8049489,10.29745605,"[0.0, 0.0, 0.0, 0.0, 0.0, 0.0, 0.0, 0.0, 0.0]"
1569261685207417709,,26961,,1569261685,169226884,"""knife_link""",,-0.252168885295,0.0439116323263,-0.420714266769,-0.870334491774,"[0.0, 0.0, 0.0, 0.0, 0.0, 0.0, 0.0, 0.0, 0.0]",,0.489733038401,-0.0785477751828,-0.101813058867,"[0.0, 0.0, 0.0, 0.0, 0.0, 0.0, 0.0, 0.0, 0.0]",,1.9436571,1.2368727,9.227463,"[0.0, 0.0, 0.0, 0.0, 0.0, 0.0, 0.0, 0.0, 0.0]"
1569261685263873161,,26962,,1569261685,206679105,"""knife_link""",,-0.262998441893,0.046846621299,-0.412927431832,-0.870705547057,"[0.0, 0.0, 0.0, 0.0, 0.0, 0.0, 0.0, 0.0, 0.0]",,0.515912977181,-0.471246856883,-0.243184728279,"[0.0, 0.0, 0.0, 0.0, 0.0, 0.0, 0.0, 0.0, 0.0]",,1.67861295,2.14980255,10.23855735,"[0.0, 0.0, 0.0, 0.0, 0.0, 0.0, 0.0, 0.0, 0.0]"
1569261685319986842,,26963,,1569261685,263079881,"""knife_link""",,-0.266803907374,0.0502638424551,-0.403582731486,-0.87373348339,"[0.0, 0.0, 0.0, 0.0, 0.0, 0.0, 0.0, 0.0, 0.0]",,0.0725993471732,-0.246099383375,-0.248420716035,"[0.0, 0.0, 0.0, 0.0, 0.0, 0.0, 0.0, 0.0, 0.0]",,1.48228395,2.8467705,9.66920325,"[0.0, 0.0, 0.0, 0.0, 0.0, 0.0, 0.0, 0.0, 0.0]"
1569261685357150910,,26964,,1569261685,319169044,"""knife_link""",,-0.266705408955,0.0588991740681,-0.398991189064,-0.875331447612,"[0.0, 0.0, 0.0, 0.0, 0.0, 0.0, 0.0, 0.0, 0.0]",,-0.115896212043,-0.303695248691,-0.0162919255191,"[0.0, 0.0, 0.0, 0.0, 0.0, 0.0, 0.0, 0.0, 0.0]",,1.570632,3.2394285,8.1083877,"[0.0, 0.0, 0.0, 0.0, 0.0, 0.0, 0.0, 0.0, 0.0]"
1569261685413858744,,26965,,1569261685,356597900,"""knife_link""",,-0.268553931363,0.0643345066535,-0.396730999638,-0.875410972703,"[0.0, 0.0, 0.0, 0.0, 0.0, 0.0, 0.0, 0.0, 0.0]",,0.0167488111092,-0.324639199715,0.0831918418449,"[0.0, 0.0, 0.0, 0.0, 0.0, 0.0, 0.0, 0.0, 0.0]",,1.22705625,3.3768588,8.09857125,"[0.0, 0.0, 0.0, 0.0, 0.0, 0.0, 0.0, 0.0, 0.0]"
1569261685469986371,,26966,,1569261685,413244009,"""knife_link""",,-0.266248419234,0.0618625434308,-0.39546398878,-0.87686546206,"[0.0, 0.0, 0.0, 0.0, 0.0, 0.0, 0.0, 0.0, 0.0]",,-0.0199031031828,0.0994758085212,-0.0145465962671,"[0.0, 0.0, 0.0, 0.0, 0.0, 0.0, 0.0, 0.0, 0.0]",,1.5509991,3.4750233,8.6777418,"[0.0, 0.0, 0.0, 0.0, 0.0, 0.0, 0.0, 0.0, 0.0]"
1569261685507500254,,26967,,1569261685,469393968,"""knife_link""",,-0.252804255797,0.0570153513968,-0.40075497803,-0.878768857857,"[0.0, 0.0, 0.0, 0.0, 0.0, 0.0, 0.0, 0.0, 0.0]",,-0.321845063779,0.411889744629,0.191402255469,"[0.0, 0.0, 0.0, 0.0, 0.0, 0.0, 0.0, 0.0, 0.0]",,2.1203532,3.26887785,8.68755825,"[0.0, 0.0, 0.0, 0.0, 0.0, 0.0, 0.0, 0.0, 0.0]"
1569261685564480658,,26968,,1569261685,506762981,"""knife_link""",,-0.241243204684,0.0508967892495,-0.403649683756,-0.881066493428,"[0.0, 0.0, 0.0, 0.0, 0.0, 0.0, 0.0, 0.0, 0.0]",,-0.377695599843,0.640527876641,0.186166267713,"[0.0, 0.0, 0.0, 0.0, 0.0, 0.0, 0.0, 0.0, 0.0]",,2.5915428,3.5731878,8.92315305,"[0.0, 0.0, 0.0, 0.0, 0.0, 0.0, 0.0, 0.0, 0.0]"
1569261685620066952,,26969,,1569261685,563719034,"""knife_link""",,-0.229463020219,0.0437030032129,-0.39973895488,-0.886366480534,"[0.0, 0.0, 0.0, 0.0, 0.0, 0.0, 0.0, 0.0, 0.0]",,-0.267739856967,0.422361720141,-0.140210302411,"[0.0, 0.0, 0.0, 0.0, 0.0, 0.0, 0.0, 0.0, 0.0]",,3.2786943,2.7682389,8.74645695,"[0.0, 0.0, 0.0, 0.0, 0.0, 0.0, 0.0, 0.0, 0.0]"
1569261685657564795,,26970,,1569261685,619246006,"""knife_link""",,-0.224025432509,0.0427949724866,-0.393068277017,-0.89077411588,"[0.0, 0.0, 0.0, 0.0, 0.0, 0.0, 0.0, 0.0, 0.0]",,-0.161274772595,0.118674430293,-0.175116887451,"[0.0, 0.0, 0.0, 0.0, 0.0, 0.0, 0.0, 0.0, 0.0]",,3.5928207,2.93511855,9.49250715,"[0.0, 0.0, 0.0, 0.0, 0.0, 0.0, 0.0, 0.0, 0.0]"
1569261685713650133,,26971,,1569261685,656820058,"""knife_link""",,-0.221364190744,0.0417803933637,-0.386519080448,-0.894346294361,"[0.0, 0.0, 0.0, 0.0, 0.0, 0.0, 0.0, 0.0, 0.0]",,-0.107169565783,0.109947784033,-0.229222094263,"[0.0, 0.0, 0.0, 0.0, 0.0, 0.0, 0.0, 0.0, 0.0]",,3.24924495,3.48483975,9.9931461,"[0.0, 0.0, 0.0, 0.0, 0.0, 0.0, 0.0, 0.0, 0.0]"
1569261685770097890,,26972,,1569261685,713059902,"""knife_link""",,-0.220606169301,0.0477847535799,-0.374216376147,-0.899450743073,"[0.0, 0.0, 0.0, 0.0, 0.0, 0.0, 0.0, 0.0, 0.0]",,-0.138585492319,-0.223410103099,-0.306016581351,"[0.0, 0.0, 0.0, 0.0, 0.0, 0.0, 0.0, 0.0, 0.0]",,2.79768825,3.9462129,9.29617815,"[0.0, 0.0, 0.0, 0.0, 0.0, 0.0, 0.0, 0.0, 0.0]"
1569261685807742057,,26973,,1569261685,769376993,"""knife_link""",,-0.231828518254,0.0591501319788,-0.361307842742,-0.901228851504,"[0.0, 0.0, 0.0, 0.0, 0.0, 0.0, 0.0, 0.0, 0.0]",,0.205244370325,-0.584693258263,-0.264128679303,"[0.0, 0.0, 0.0, 0.0, 0.0, 0.0, 0.0, 0.0, 0.0]",,1.96329,3.62227005,9.3256275,"[0.0, 0.0, 0.0, 0.0, 0.0, 0.0, 0.0, 0.0, 0.0]"
1569261685863881827,,26974,,1569261685,806931972,"""knife_link""",,-0.237608302102,0.0659498161024,-0.354119149232,-0.902104508733,"[0.0, 0.0, 0.0, 0.0, 0.0, 0.0, 0.0, 0.0, 0.0]",,0.159865809773,-0.504408112671,-0.162899582687,"[0.0, 0.0, 0.0, 0.0, 0.0, 0.0, 0.0, 0.0, 0.0]",,1.56081555,3.533922,8.90352015,"[0.0, 0.0, 0.0, 0.0, 0.0, 0.0, 0.0, 0.0, 0.0]"
1569261685919563779,,26975,,1569261685,863204002,"""knife_link""",,-0.244074483976,0.0717646033772,-0.34866273846,-0.902059744575,"[0.0, 0.0, 0.0, 0.0, 0.0, 0.0, 0.0, 0.0, 0.0]",,0.151139163513,-0.314167224203,-0.0616704860711,"[0.0, 0.0, 0.0, 0.0, 0.0, 0.0, 0.0, 0.0, 0.0]",,1.22705625,3.60263715,8.98205175,"[0.0, 0.0, 0.0, 0.0, 0.0, 0.0, 0.0, 0.0, 0.0]"
1569261685957428950,,26976,,1569261685,919085025,"""knife_link""",,-0.248324297512,0.0761886987283,-0.34605377467,-0.901541519004,"[0.0, 0.0, 0.0, 0.0, 0.0, 0.0, 0.0, 0.0, 0.0]",,0.102269944457,-0.223410103099,0.0308319642849,"[0.0, 0.0, 0.0, 0.0, 0.0, 0.0, 0.0, 0.0, 0.0]",,1.03072725,3.81859905,8.29490025,"[0.0, 0.0, 0.0, 0.0, 0.0, 0.0, 0.0, 0.0, 0.0]"
1569261686013768795,,26977,,1569261685,956743955,"""knife_link""",,-0.251449235604,0.0745732238222,-0.342424404172,-0.902196011757,"[0.0, 0.0, 0.0, 0.0, 0.0, 0.0, 0.0, 0.0, 0.0]",,0.196517724065,-0.0401505316388,-0.129738326899,"[0.0, 0.0, 0.0, 0.0, 0.0, 0.0, 0.0, 0.0, 0.0]",,1.0994424,3.36704235,8.45196345,"[0.0, 0.0, 0.0, 0.0, 0.0, 0.0, 0.0, 0.0, 0.0]"
1569261686069760598,,26978,,1569261686,13192892,"""knife_link""",,-0.25140705112,0.0728590538621,-0.342305981372,-0.902392746001,"[0.0, 0.0, 0.0, 0.0, 0.0, 0.0, 0.0, 0.0, 0.0]",,0.0446740791412,0.0610785649772,0.0273413057809,"[0.0, 0.0, 0.0, 0.0, 0.0, 0.0, 0.0, 0.0, 0.0]",,1.61971425,2.83695405,7.90224225,"[0.0, 0.0, 0.0, 0.0, 0.0, 0.0, 0.0, 0.0, 0.0]"
1569261686107502478,,26979,,1569261686,69256067,"""knife_link""",,-0.252338155947,0.0680091087409,-0.346030919037,-0.901089795332,"[0.0, 0.0, 0.0, 0.0, 0.0, 0.0, 0.0, 0.0, 0.0]",,0.137176529497,0.176270295609,0.130315731649,"[0.0, 0.0, 0.0, 0.0, 0.0, 0.0, 0.0, 0.0, 0.0]",,1.9240242,3.15108045,8.3439825,"[0.0, 0.0, 0.0, 0.0, 0.0, 0.0, 0.0, 0.0, 0.0]"
1569261686163788251,,26980,,1569261686,106775045,"""knife_link""",,-0.250755705801,0.0626222044569,-0.345998181877,-0.901934195856,"[0.0, 0.0, 0.0, 0.0, 0.0, 0.0, 0.0, 0.0, 0.0]",,0.0708540179212,0.305424660257,-0.0145465962671,"[0.0, 0.0, 0.0, 0.0, 0.0, 0.0, 0.0, 0.0, 0.0]",,2.28723285,2.944935,9.423792,"[0.0, 0.0, 0.0, 0.0, 0.0, 0.0, 0.0, 0.0, 0.0]"
1569261686220047084,,26981,,1569261686,163260936,"""knife_link""",,-0.24538500531,0.0600450028827,-0.346822644683,-0.903268979835,"[0.0, 0.0, 0.0, 0.0, 0.0, 0.0, 0.0, 0.0, 0.0]",,-0.119386870547,0.176270295609,0.0517759153089,"[0.0, 0.0, 0.0, 0.0, 0.0, 0.0, 0.0, 0.0, 0.0]",,2.5326441,3.46520685,9.41397555,"[0.0, 0.0, 0.0, 0.0, 0.0, 0.0, 0.0, 0.0, 0.0]"
1569261686257656737,,26982,,1569261686,219364881,"""knife_link""",,-0.242455578301,0.0600348639046,-0.343869977365,-0.905187575221,"[0.0, 0.0, 0.0, 0.0, 0.0, 0.0, 0.0, 0.0, 0.0]",,-0.0914616025148,0.0331532969452,-0.0529438398111,"[0.0, 0.0, 0.0, 0.0, 0.0, 0.0, 0.0, 0.0, 0.0]",,2.34613155,3.68116875,9.1489314,"[0.0, 0.0, 0.0, 0.0, 0.0, 0.0, 0.0, 0.0, 0.0]"
1569261686313555836,,26983,,1569261686,256966114,"""knife_link""",,-0.244610403152,0.059768298602,-0.338923300541,-0.906490208167,"[0.0, 0.0, 0.0, 0.0, 0.0, 0.0, 0.0, 0.0, 0.0]",,0.102269944457,-0.0576038241588,-0.169880899695,"[0.0, 0.0, 0.0, 0.0, 0.0, 0.0, 0.0, 0.0, 0.0]",,2.1792519,4.28978865,8.9722353,"[0.0, 0.0, 0.0, 0.0, 0.0, 0.0, 0.0, 0.0, 0.0]"
1569261686370218325,,26984,,1569261686,312829017,"""knife_link""",,-0.2542498265,0.0640351378482,-0.333353988759,-0.905611199701,"[0.0, 0.0, 0.0, 0.0, 0.0, 0.0, 0.0, 0.0, 0.0]",,0.271566881901,-0.286241956171,-0.0791237785911,"[0.0, 0.0, 0.0, 0.0, 0.0, 0.0, 0.0, 0.0, 0.0]",,1.9829229,4.319238,8.0887548,"[0.0, 0.0, 0.0, 0.0, 0.0, 0.0, 0.0, 0.0, 0.0]"
1569261686407645385,,26985,,1569261686,369458913,"""knife_link""",,-0.274048640984,0.0613098269583,-0.329762382146,-0.901329694848,"[0.0, 0.0, 0.0, 0.0, 0.0, 0.0, 0.0, 0.0, 0.0]",,0.716625841161,-0.169304896287,-0.0721424615831,"[0.0, 0.0, 0.0, 0.0, 0.0, 0.0, 0.0, 0.0, 0.0]",,2.0810874,4.11309255,7.82371065,"[0.0, 0.0, 0.0, 0.0, 0.0, 0.0, 0.0, 0.0, 0.0]"
1569261686463337517,,26986,,1569261686,406804084,"""knife_link""",,-0.293798247142,0.0547412765749,-0.324751849722,-0.897341751351,"[0.0, 0.0, 0.0, 0.0, 0.0, 0.0, 0.0, 0.0, 0.0]",,1.13725019089,-0.0994917262068,-0.276345984067,"[0.0, 0.0, 0.0, 0.0, 0.0, 0.0, 0.0, 0.0, 0.0]",,2.28723285,4.3585038,7.78444485,"[0.0, 0.0, 0.0, 0.0, 0.0, 0.0, 0.0, 0.0, 0.0]"
1569261686520100494,,26987,,1569261686,462873935,"""knife_link""",,-0.327070091751,0.0356191958038,-0.315641621535,-0.89001505309,"[0.0, 0.0, 0.0, 0.0, 0.0, 0.0, 0.0, 0.0, 0.0]",,1.37461496917,0.118674430293,-0.475313518795,"[0.0, 0.0, 0.0, 0.0, 0.0, 0.0, 0.0, 0.0, 0.0]",,2.67989085,4.03456095,8.09857125,"[0.0, 0.0, 0.0, 0.0, 0.0, 0.0, 0.0, 0.0, 0.0]"
1569261686557842575,,26988,,1569261686,519294977,"""knife_link""",,-0.372046361106,0.0107544596377,-0.306007653536,-0.876256333936,"[0.0, 0.0, 0.0, 0.0, 0.0, 0.0, 0.0, 0.0, 0.0]",,1.87552446449,0.144854369073,-0.524182737851,"[0.0, 0.0, 0.0, 0.0, 0.0, 0.0, 0.0, 0.0, 0.0]",,2.9056692,4.54501635,7.78444485,"[0.0, 0.0, 0.0, 0.0, 0.0, 0.0, 0.0, 0.0, 0.0]"
1569261686613784785,,26989,,1569261686,557162046,"""knife_link""",,-0.406978023347,-0.00482617092098,-0.294142488941,-0.864769213598,"[0.0, 0.0, 0.0, 0.0, 0.0, 0.0, 0.0, 0.0, 0.0]",,2.12336121827,-0.150106274515,-0.773764820887,"[0.0, 0.0, 0.0, 0.0, 0.0, 0.0, 0.0, 0.0, 0.0]",,3.0038337,5.2616172,9.1881972,"[0.0, 0.0, 0.0, 0.0, 0.0, 0.0, 0.0, 0.0, 0.0]"
1569261686669840728,,26990,,1569261686,613188982,"""knife_link""",,-0.435790621193,-0.022211835015,-0.276551907189,-0.856219721506,"[0.0, 0.0, 0.0, 0.0, 0.0, 0.0, 0.0, 0.0, 0.0]",,1.19659138546,-0.0802931044348,-0.756311528367,"[0.0, 0.0, 0.0, 0.0, 0.0, 0.0, 0.0, 0.0, 0.0]",,2.62099215,5.99785095,9.4826907,"[0.0, 0.0, 0.0, 0.0, 0.0, 0.0, 0.0, 0.0, 0.0]"
1569261686707550888,,26991,,1569261686,669236898,"""knife_link""",,-0.467345623982,-0.0422348746888,-0.254279588409,-0.845663156359,"[0.0, 0.0, 0.0, 0.0, 0.0, 0.0, 0.0, 0.0, 0.0]",,1.36065233515,-0.116945018727,-0.913391161047,"[0.0, 0.0, 0.0, 0.0, 0.0, 0.0, 0.0, 0.0, 0.0]",,1.32522075,7.460502,7.48995135,"[0.0, 0.0, 0.0, 0.0, 0.0, 0.0, 0.0, 0.0, 0.0]"
1569261686763603465,,26992,,1569261686,706983089,"""knife_link""",,-0.488032772344,-0.0485046845779,-0.233394365689,-0.83964181575,"[0.0, 0.0, 0.0, 0.0, 0.0, 0.0, 0.0, 0.0, 0.0]",,1.228007312,-0.645779782083,-1.03730953794,"[0.0, 0.0, 0.0, 0.0, 0.0, 0.0, 0.0, 0.0, 0.0]",,0.8049489,7.2052743,6.35124315,"[0.0, 0.0, 0.0, 0.0, 0.0, 0.0, 0.0, 0.0, 0.0]"
1569261686820218255,,26993,,1569261686,762934923,"""knife_link""",,-0.508533651147,-0.0598161010554,-0.207541388946,-0.833511926477,"[0.0, 0.0, 0.0, 0.0, 0.0, 0.0, 0.0, 0.0, 0.0]",,0.899885412621,-0.380489735779,-0.939571099827,"[0.0, 0.0, 0.0, 0.0, 0.0, 0.0, 0.0, 0.0, 0.0]",,0.5693541,6.2432622,6.37087605,"[0.0, 0.0, 0.0, 0.0, 0.0, 0.0, 0.0, 0.0, 0.0]"
1569261686857679409,,26994,,1569261686,819453954,"""knife_link""",,-0.517825606653,-0.0694094367362,-0.187868147738,-0.83171180721,"[0.0, 0.0, 0.0, 0.0, 0.0, 0.0, 0.0, 0.0, 0.0]",,0.416429209817,-0.235627407863,-0.772019491635,"[0.0, 0.0, 0.0, 0.0, 0.0, 0.0, 0.0, 0.0, 0.0]",,0.59880345,7.13655915,4.42721895,"[0.0, 0.0, 0.0, 0.0, 0.0, 0.0, 0.0, 0.0, 0.0]"
1569261686914418121,,26995,,1569261686,857086896,"""knife_link""",,-0.542176646925,-0.0747958524552,-0.170914596973,-0.819291318474,"[0.0, 0.0, 0.0, 0.0, 0.0, 0.0, 0.0, 0.0, 0.0]",,1.57183717464,-0.596910563027,-0.777255479391,"[0.0, 0.0, 0.0, 0.0, 0.0, 0.0, 0.0, 0.0, 0.0]",,1.0405437,8.1476535,5.58556005,"[0.0, 0.0, 0.0, 0.0, 0.0, 0.0, 0.0, 0.0, 0.0]"
1569261686970051112,,26996,,1569261686,913593053,"""knife_link""",,-0.550393470582,-0.0830603147554,-0.154132151748,-0.816340181205,"[0.0, 0.0, 0.0, 0.0, 0.0, 0.0, 0.0, 0.0, 0.0]",,0.398975917297,-0.233882078611,-0.670790395019,"[0.0, 0.0, 0.0, 0.0, 0.0, 0.0, 0.0, 0.0, 0.0]",,1.2957714,8.80535565,4.5548328,"[0.0, 0.0, 0.0, 0.0, 0.0, 0.0, 0.0, 0.0, 0.0]"
1569261687007473654,,26997,,1569261686,969213962,"""knife_link""",,-0.574537522074,-0.0848491790061,-0.141807894547,-0.801621964267,"[0.0, 0.0, 0.0, 0.0, 0.0, 0.0, 0.0, 0.0, 0.0]",,1.03602109428,-0.397943028299,-0.300780593595,"[0.0, 0.0, 0.0, 0.0, 0.0, 0.0, 0.0, 0.0, 0.0]",,0.91292985,9.25691235,2.7682389,"[0.0, 0.0, 0.0, 0.0, 0.0, 0.0, 0.0, 0.0, 0.0]"
1569261687063871477,,26998,,1569261687,6869077,"""knife_link""",,-0.578266007362,-0.0957032672404,-0.135667126715,-0.798776401816,"[0.0, 0.0, 0.0, 0.0, 0.0, 0.0, 0.0, 0.0, 0.0]",,0.327417417965,0.0715505404892,-0.621921175963,"[0.0, 0.0, 0.0, 0.0, 0.0, 0.0, 0.0, 0.0, 0.0]",,0.1766961,9.4041591,2.16943545,"[0.0, 0.0, 0.0, 0.0, 0.0, 0.0, 0.0, 0.0, 0.0]"
1569261687119908705,,26999,,1569261687,63236951,"""knife_link""",,-0.598461223988,-0.0983581201149,-0.127906296133,-0.784735511494,"[0.0, 0.0, 0.0, 0.0, 0.0, 0.0, 0.0, 0.0, 0.0]",,0.889413437109,-0.267043334399,-0.150682277923,"[0.0, 0.0, 0.0, 0.0, 0.0, 0.0, 0.0, 0.0, 0.0]",,-1.81604325,10.51341795,2.1792519,"[0.0, 0.0, 0.0, 0.0, 0.0, 0.0, 0.0, 0.0, 0.0]"
1569261687157505453,,27000,,1569261687,119272947,"""knife_link""",,-0.614845789447,-0.110304205444,-0.114234876163,-0.772494679936,"[0.0, 0.0, 0.0, 0.0, 0.0, 0.0, 0.0, 0.0, 0.0]",,0.816109608525,-0.136143640499,-0.529418725607,"[0.0, 0.0, 0.0, 0.0, 0.0, 0.0, 0.0, 0.0, 0.0]",,-3.17071335,10.5428673,1.52154975,"[0.0, 0.0, 0.0, 0.0, 0.0, 0.0, 0.0, 0.0, 0.0]"
1569261687213463002,,27001,,1569261687,156810998,"""knife_link""",,-0.618645902035,-0.118191013834,-0.107792699987,-0.769213147297,"[0.0, 0.0, 0.0, 0.0, 0.0, 0.0, 0.0, 0.0, 0.0]",,0.343125381233,-0.113454360223,-0.471822860291,"[0.0, 0.0, 0.0, 0.0, 0.0, 0.0, 0.0, 0.0, 0.0]",,-2.4933783,9.2667288,1.4135688,"[0.0, 0.0, 0.0, 0.0, 0.0, 0.0, 0.0, 0.0, 0.0]"
1569261687270142332,,27002,,1569261687,212846994,"""knife_link""",,-0.634004900936,-0.120092694881,-0.0974899037942,-0.75770129265,"[0.0, 0.0, 0.0, 0.0, 0.0, 0.0, 0.0, 0.0, 0.0]",,0.734079133681,-0.335111175227,-0.204787484735,"[0.0, 0.0, 0.0, 0.0, 0.0, 0.0, 0.0, 0.0, 0.0]",,-2.73878955,9.61030455,1.6295307,"[0.0, 0.0, 0.0, 0.0, 0.0, 0.0, 0.0, 0.0, 0.0]"
1569261687307808120,,27003,,1569261687,269447088,"""knife_link""",,-0.651071771614,-0.134919274626,-0.0906457841619,-0.741407903488,"[0.0, 0.0, 0.0, 0.0, 0.0, 0.0, 0.0, 0.0, 0.0]",,0.878941461597,0.113438442537,-0.395028373203,"[0.0, 0.0, 0.0, 0.0, 0.0, 0.0, 0.0, 0.0, 0.0]",,-1.570632,10.55268375,-0.7656831,"[0.0, 0.0, 0.0, 0.0, 0.0, 0.0, 0.0, 0.0, 0.0]"
1569261687363631017,,27004,,1569261687,307051897,"""knife_link""",,-0.650862346171,-0.142377753766,-0.0895965380311,-0.740323741307,"[0.0, 0.0, 0.0, 0.0, 0.0, 0.0, 0.0, 0.0, 0.0]",,0.121468566229,0.0558425772212,-0.299035264343,"[0.0, 0.0, 0.0, 0.0, 0.0, 0.0, 0.0, 0.0, 0.0]",,-1.8454926,10.35635475,2.38539735,"[0.0, 0.0, 0.0, 0.0, 0.0, 0.0, 0.0, 0.0, 0.0]"
1569261687420090766,,27005,,1569261687,363087892,"""knife_link""",,-0.655681611035,-0.152213533256,-0.0832979450313,-0.73482931188,"[0.0, 0.0, 0.0, 0.0, 0.0, 0.0, 0.0, 0.0, 0.0]",,0.357088015249,-0.00698927585078,-0.354885800407,"[0.0, 0.0, 0.0, 0.0, 0.0, 0.0, 0.0, 0.0, 0.0]",,-1.6884294,9.0900327,2.159619,"[0.0, 0.0, 0.0, 0.0, 0.0, 0.0, 0.0, 0.0, 0.0]"
1569261687457585383,,27006,,1569261687,419549942,"""knife_link""",,-0.654629366137,-0.161310781621,-0.0830620159414,-0.733852796024,"[0.0, 0.0, 0.0, 0.0, 0.0, 0.0, 0.0, 0.0, 0.0]",,0.0376927621332,0.109947784033,-0.239694069775,"[0.0, 0.0, 0.0, 0.0, 0.0, 0.0, 0.0, 0.0, 0.0]",,-0.785316,8.92315305,0.73623375,"[0.0, 0.0, 0.0, 0.0, 0.0, 0.0, 0.0, 0.0, 0.0]"
1569261687514060501,,27007,,1569261687,456895112,"""knife_link""",,-0.659532872558,-0.164086299413,-0.082629106381,-0.728878938603,"[0.0, 0.0, 0.0, 0.0, 0.0, 0.0, 0.0, 0.0, 0.0]",,0.440863819345,-0.0768024459308,-0.0564344983151,"[0.0, 0.0, 0.0, 0.0, 0.0, 0.0, 0.0, 0.0, 0.0]",,-1.58044845,9.31581105,1.87494195,"[0.0, 0.0, 0.0, 0.0, 0.0, 0.0, 0.0, 0.0, 0.0]"
1569261687570119029,,27008,,1569261687,513401031,"""knife_link""",,-0.660932238209,-0.171369850669,-0.0841619088191,-0.725753211417,"[0.0, 0.0, 0.0, 0.0, 0.0, 0.0, 0.0, 0.0, 0.0]",,0.144157846505,0.108202454781,-0.110539705127,"[0.0, 0.0, 0.0, 0.0, 0.0, 0.0, 0.0, 0.0, 0.0]",,-2.05163805,9.7968171,0.9620121,"[0.0, 0.0, 0.0, 0.0, 0.0, 0.0, 0.0, 0.0, 0.0]"
1569261687607770189,,27009,,1569261687,569494962,"""knife_link""",,-0.659737546219,-0.173369999386,-0.0849655495754,-0.726271346541,"[0.0, 0.0, 0.0, 0.0, 0.0, 0.0, 0.0, 0.0, 0.0]",,-0.0181577739308,-0.0558584949068,-0.0319998887871,"[0.0, 0.0, 0.0, 0.0, 0.0, 0.0, 0.0, 0.0, 0.0]",,-1.9436571,9.227463,0.97182855,"[0.0, 0.0, 0.0, 0.0, 0.0, 0.0, 0.0, 0.0, 0.0]"
1569261687663737756,,27010,,1569261687,606959104,"""knife_link""",,-0.661870032072,-0.174937584734,-0.0866806456376,-0.723748138349,"[0.0, 0.0, 0.0, 0.0, 0.0, 0.0, 0.0, 0.0, 0.0]",,0.194772394813,-0.0558584949068,0.0273413057809,"[0.0, 0.0, 0.0, 0.0, 0.0, 0.0, 0.0, 0.0, 0.0]",,-1.18779045,9.0507669,0.7460502,"[0.0, 0.0, 0.0, 0.0, 0.0, 0.0, 0.0, 0.0, 0.0]"
1569261687720081739,,27011,,1569261687,663012981,"""knife_link""",,-0.660580178822,-0.187023313762,-0.0757549724561,-0.72313020377,"[0.0, 0.0, 0.0, 0.0, 0.0, 0.0, 0.0, 0.0, 0.0]",,0.107505932213,-0.0698211289228,-0.581778603167,"[0.0, 0.0, 0.0, 0.0, 0.0, 0.0, 0.0, 0.0, 0.0]",,-1.20742335,4.6333644,2.66025795,"[0.0, 0.0, 0.0, 0.0, 0.0, 0.0, 0.0, 0.0, 0.0]"
1569261687757862242,,27012,,1569261687,719471931,"""knife_link""",,-0.66831132712,-0.190915653035,-0.0763660578649,-0.714898180635,"[0.0, 0.0, 0.0, 0.0, 0.0, 0.0, 0.0, 0.0, 0.0]",,0.421665197573,0.0139546751732,-0.0075652792591,"[0.0, 0.0, 0.0, 0.0, 0.0, 0.0, 0.0, 0.0, 0.0]",,-2.5130112,11.3281833,1.34485365,"[0.0, 0.0, 0.0, 0.0, 0.0, 0.0, 0.0, 0.0, 0.0]"
1569261687813932882,,27013,,1569261687,757066965,"""knife_link""",,-0.667932964003,-0.196978906681,-0.0758603650284,-0.713659632415,"[0.0, 0.0, 0.0, 0.0, 0.0, 0.0, 0.0, 0.0, 0.0]",,0.128449883237,0.0366439554492,-0.232712752767,"[0.0, 0.0, 0.0, 0.0, 0.0, 0.0, 0.0, 0.0, 0.0]",,-2.01237225,9.5219565,1.56081555,"[0.0, 0.0, 0.0, 0.0, 0.0, 0.0, 0.0, 0.0, 0.0]"
1569261687870027537,,27014,,1569261687,813267946,"""knife_link""",,-0.663467186517,-0.205827893201,-0.0705694256163,-0.715867394818,"[0.0, 0.0, 0.0, 0.0, 0.0, 0.0, 0.0, 0.0, 0.0]",,-0.0827349562548,-0.0349145438828,-0.370593763675,"[0.0, 0.0, 0.0, 0.0, 0.0, 0.0, 0.0, 0.0, 0.0]",,-3.01365015,10.10112705,0.18651255,"[0.0, 0.0, 0.0, 0.0, 0.0, 0.0, 0.0, 0.0, 0.0]"
1569261687907376181,,27015,,1569261687,869451045,"""knife_link""",,-0.654884801402,-0.220902202827,-0.0629395984758,-0.71997688895,"[0.0, 0.0, 0.0, 0.0, 0.0, 0.0, 0.0, 0.0, 0.0]",,-0.196181357635,0.0663145527332,-0.609703871199,"[0.0, 0.0, 0.0, 0.0, 0.0, 0.0, 0.0, 0.0, 0.0]",,-3.9854787,10.2287409,0.2552277,"[0.0, 0.0, 0.0, 0.0, 0.0, 0.0, 0.0, 0.0, 0.0]"
1569261687963684266,,27016,,1569261687,906747102,"""knife_link""",,-0.64955228702,-0.234950304314,-0.05182329207,-0.721245122915,"[0.0, 0.0, 0.0, 0.0, 0.0, 0.0, 0.0, 0.0, 0.0]",,-0.0321204079468,-0.0261878976228,-0.977968343371,"[0.0, 0.0, 0.0, 0.0, 0.0, 0.0, 0.0, 0.0, 0.0]",,-3.8284155,10.1894751,0.1374303,"[0.0, 0.0, 0.0, 0.0, 0.0, 0.0, 0.0, 0.0, 0.0]"
1569261688019966834,,27017,,1569261687,962990045,"""knife_link""",,-0.642329378196,-0.249698231259,-0.0342475323198,-0.723803060053,"[0.0, 0.0, 0.0, 0.0, 0.0, 0.0, 0.0, 0.0, 0.0]",,-0.0268844201908,-0.150106274515,-0.859285954235,"[0.0, 0.0, 0.0, 0.0, 0.0, 0.0, 0.0, 0.0, 0.0]",,-3.01365015,8.47159635,0.8442147,"[0.0, 0.0, 0.0, 0.0, 0.0, 0.0, 0.0, 0.0, 0.0]"
1569261688076296048,,27018,,1569261688,19308090,"""knife_link""",,-0.641233860685,-0.260589724139,-0.0204393162514,-0.721452954762,"[0.0, 0.0, 0.0, 0.0, 0.0, 0.0, 0.0, 0.0, 0.0]",,0.210480358081,-0.120435677231,-0.655082431751,"[0.0, 0.0, 0.0, 0.0, 0.0, 0.0, 0.0, 0.0, 0.0]",,-1.26632205,9.1881972,0.91292985,"[0.0, 0.0, 0.0, 0.0, 0.0, 0.0, 0.0, 0.0, 0.0]"
1569261688113684657,,27019,,1569261688,75701951,"""knife_link""",,-0.640241262493,-0.266736718154,-0.0134682130224,-0.72025082869,"[0.0, 0.0, 0.0, 0.0, 0.0, 0.0, 0.0, 0.0, 0.0]",,0.114487249221,-0.0994917262068,-0.363612446667,"[0.0, 0.0, 0.0, 0.0, 0.0, 0.0, 0.0, 0.0, 0.0]",,-0.77549955,8.43233055,0.392658,"[0.0, 0.0, 0.0, 0.0, 0.0, 0.0, 0.0, 0.0, 0.0]"
1569261688170303654,,27020,,1569261688,113184928,"""knife_link""",,-0.638467538026,-0.269822441564,-0.0112236284463,-0.720714286718,"[0.0, 0.0, 0.0, 0.0, 0.0, 0.0, 0.0, 0.0, 0.0]",,0.0150034818572,-0.125671664987,-0.223986106507,"[0.0, 0.0, 0.0, 0.0, 0.0, 0.0, 0.0, 0.0, 0.0]",,-0.6086199,7.2052743,0.52027185,"[0.0, 0.0, 0.0, 0.0, 0.0, 0.0, 0.0, 0.0, 0.0]"
1569261688207613746,,27021,,1569261688,169589042,"""knife_link""",,-0.635514345612,-0.268632932022,-0.0148505390708,-0.723696984825,"[0.0, 0.0, 0.0, 0.0, 0.0, 0.0, 0.0, 0.0, 0.0]",,-0.133349504563,-0.0872744214428,0.0849371710969,"[0.0, 0.0, 0.0, 0.0, 0.0, 0.0, 0.0, 0.0, 0.0]",,-1.42338525,6.64573665,2.1203532,"[0.0, 0.0, 0.0, 0.0, 0.0, 0.0, 0.0, 0.0, 0.0]"
1569261688263776559,,27022,,1569261688,206729888,"""knife_link""",,-0.637709757358,-0.272679541858,-0.0196266736428,-0.720129798373,"[0.0, 0.0, 0.0, 0.0, 0.0, 0.0, 0.0, 0.0, 0.0]",,0.208735028829,0.202450234389,0.0744651955849,"[0.0, 0.0, 0.0, 0.0, 0.0, 0.0, 0.0, 0.0, 0.0]",,-3.34740945,5.0456553,0.99146145,"[0.0, 0.0, 0.0, 0.0, 0.0, 0.0, 0.0, 0.0, 0.0]"
1569261688320543032,,27023,,1569261688,262923002,"""knife_link""",,-0.659905894095,-0.232281440161,-0.0851369449796,-0.709451368379,"[0.0, 0.0, 0.0, 0.0, 0.0, 0.0, 0.0, 0.0, 0.0]",,0.177319102293,0.445051000417,2.82510409674,"[0.0, 0.0, 0.0, 0.0, 0.0, 0.0, 0.0, 0.0, 0.0]",,-3.05291595,14.79339015,-2.48356185,"[0.0, 0.0, 0.0, 0.0, 0.0, 0.0, 0.0, 0.0, 0.0]"
1569261688357360071,,27024,,1569261688,319818019,"""knife_link""",,-0.683234291321,-0.180091242366,-0.146636371183,-0.692283050661,"[0.0, 0.0, 0.0, 0.0, 0.0, 0.0, 0.0, 0.0, 0.0]",,0.336144064225,0.0977304792692,2.99614636343,"[0.0, 0.0, 0.0, 0.0, 0.0, 0.0, 0.0, 0.0, 0.0]",,-7.2249072,9.6986526,0.36320865,"[0.0, 0.0, 0.0, 0.0, 0.0, 0.0, 0.0, 0.0, 0.0]"
1569261688414141943,,27025,,1569261688,356846094,"""knife_link""",,-0.693870118788,-0.166683389958,-0.166697009707,-0.680421202432,"[0.0, 0.0, 0.0, 0.0, 0.0, 0.0, 0.0, 0.0, 0.0]",,0.538602257457,0.0785318574972,1.4445486584,"[0.0, 0.0, 0.0, 0.0, 0.0, 0.0, 0.0, 0.0, 0.0]",,-0.10798095,17.0413572,-1.7473281,"[0.0, 0.0, 0.0, 0.0, 0.0, 0.0, 0.0, 0.0, 0.0]"
1569261688470131061,,27026,,1569261688,413481950,"""knife_link""",,-0.688213804578,-0.169125438072,-0.169995308595,-0.68473348132,"[0.0, 0.0, 0.0, 0.0, 0.0, 0.0, 0.0, 0.0, 0.0]",,-0.262503869211,0.0209359921812,-0.0162919255191,"[0.0, 0.0, 0.0, 0.0, 0.0, 0.0, 0.0, 0.0, 0.0]",,-1.06999305,8.9722353,-0.8245818,"[0.0, 0.0, 0.0, 0.0, 0.0, 0.0, 0.0, 0.0, 0.0]"
1569261688508029385,,27027,,1569261688,469558954,"""knife_link""",,-0.606332422433,-0.138904024025,-0.182323807377,-0.761462208439,"[0.0, 0.0, 0.0, 0.0, 0.0, 0.0, 0.0, 0.0, 0.0]",,-4.24010923452,-0.541060026963,0.0797011833409,"[0.0, 0.0, 0.0, 0.0, 0.0, 0.0, 0.0, 0.0, 0.0]",,-0.4908225,8.9722353,-1.4332017,"[0.0, 0.0, 0.0, 0.0, 0.0, 0.0, 0.0, 0.0, 0.0]"
1569261688563863081,,27028,,1569261688,507278919,"""knife_link""",,-0.483736588569,-0.136490368658,-0.208827584475,-0.838904244896,"[0.0, 0.0, 0.0, 0.0, 0.0, 0.0, 0.0, 0.0, 0.0]",,-7.5824147521,1.2164865298,-0.489276152811,"[0.0, 0.0, 0.0, 0.0, 0.0, 0.0, 0.0, 0.0, 0.0]",,-2.7878718,3.70080165,7.74517905,"[0.0, 0.0, 0.0, 0.0, 0.0, 0.0, 0.0, 0.0, 0.0]"
1569261688619533352,,27029,,1569261688,563122987,"""knife_link""",,-0.517515969154,-0.127605048506,-0.256665840713,-0.806236205759,"[0.0, 0.0, 0.0, 0.0, 0.0, 0.0, 0.0, 0.0, 0.0]",,1.28211251881,0.436324354157,2.01003533605,"[0.0, 0.0, 0.0, 0.0, 0.0, 0.0, 0.0, 0.0, 0.0]",,-2.44429605,10.1305764,4.5744657,"[0.0, 0.0, 0.0, 0.0, 0.0, 0.0, 0.0, 0.0, 0.0]"
1569261688657279190,,27030,,1569261688,618912935,"""knife_link""",,-0.520473458233,-0.114917222287,-0.284036930995,-0.797009681954,"[0.0, 0.0, 0.0, 0.0, 0.0, 0.0, 0.0, 0.0, 0.0]",,0.00976749410119,0.104711796277,1.10071879576,"[0.0, 0.0, 0.0, 0.0, 0.0, 0.0, 0.0, 0.0, 0.0]",,-0.97182855,10.8569937,9.19801365,"[0.0, 0.0, 0.0, 0.0, 0.0, 0.0, 0.0, 0.0, 0.0]"
1569261688714160458,,27031,,1569261688,656620025,"""knife_link""",,-0.522301319313,-0.104785766251,-0.295637694097,-0.792981480783,"[0.0, 0.0, 0.0, 0.0, 0.0, 0.0, 0.0, 0.0, 0.0]",,0.00453150634519,-0.193739505815,0.812739469181,"[0.0, 0.0, 0.0, 0.0, 0.0, 0.0, 0.0, 0.0, 0.0]",,0.9031134,8.17710285,7.4997678,"[0.0, 0.0, 0.0, 0.0, 0.0, 0.0, 0.0, 0.0, 0.0]"
1569261688770195832,,27032,,1569261688,713304996,"""knife_link""",,-0.491516102266,-0.0466878353482,-0.315567947136,-0.810338841463,"[0.0, 0.0, 0.0, 0.0, 0.0, 0.0, 0.0, 0.0, 0.0]",,-1.83155486676,-1.08211209508,1.32412094002,"[0.0, 0.0, 0.0, 0.0, 0.0, 0.0, 0.0, 0.0, 0.0]",,0.87366405,7.2445401,7.8138942,"[0.0, 0.0, 0.0, 0.0, 0.0, 0.0, 0.0, 0.0, 0.0]"
1569261688807390789,,27033,,1569261688,769450902,"""knife_link""",,-0.435755053771,0.00892200266043,-0.323234295501,-0.839974714616,"[0.0, 0.0, 0.0, 0.0, 0.0, 0.0, 0.0, 0.0, 0.0]",,-2.76530601658,-0.979137669215,0.737690311345,"[0.0, 0.0, 0.0, 0.0, 0.0, 0.0, 0.0, 0.0, 0.0]",,1.24668915,4.95730725,6.9304137,"[0.0, 0.0, 0.0, 0.0, 0.0, 0.0, 0.0, 0.0, 0.0]"
1569261688863690789,,27034,,1569261688,806679010,"""knife_link""",,-0.378353717073,0.0407547249998,-0.319394757095,-0.867856270535,"[0.0, 0.0, 0.0, 0.0, 0.0, 0.0, 0.0, 0.0, 0.0]",,-3.82646620179,-0.562003977987,0.0727198663329,"[0.0, 0.0, 0.0, 0.0, 0.0, 0.0, 0.0, 0.0, 0.0]",,1.7473281,4.4174025,6.27271155,"[0.0, 0.0, 0.0, 0.0, 0.0, 0.0, 0.0, 0.0, 0.0]"
1569261688919943570,,27035,,1569261688,863116025,"""knife_link""",,-0.333506985056,0.0835408287864,-0.320424722739,-0.882678887196,"[0.0, 0.0, 0.0, 0.0, 0.0, 0.0, 0.0, 0.0, 0.0]",,-2.06717431578,-0.778424805235,0.498580203821,"[0.0, 0.0, 0.0, 0.0, 0.0, 0.0, 0.0, 0.0, 0.0]",,2.93511855,3.62227005,5.1438198,"[0.0, 0.0, 0.0, 0.0, 0.0, 0.0, 0.0, 0.0, 0.0]"
1569261688957342829,,27036,,1569261688,919173002,"""knife_link""",,-0.317466125985,0.0905911112483,-0.38284178037,-0.862809759227,"[0.0, 0.0, 0.0, 0.0, 0.0, 0.0, 0.0, 0.0, 0.0]",,-0.156038784839,0.628310571877,2.39749843,"[0.0, 0.0, 0.0, 0.0, 0.0, 0.0, 0.0, 0.0, 0.0]",,1.16815755,5.4579462,7.50958425,"[0.0, 0.0, 0.0, 0.0, 0.0, 0.0, 0.0, 0.0, 0.0]"
1569261689014370952,,27037,,1569261688,956712961,"""knife_link""",,-0.314665863644,0.0715727443023,-0.405759427448,-0.855115210698,"[0.0, 0.0, 0.0, 0.0, 0.0, 0.0, 0.0, 0.0, 0.0]",,0.479261062889,1.28106371213,1.05010424745,"[0.0, 0.0, 0.0, 0.0, 0.0, 0.0, 0.0, 0.0, 0.0]",,0.981645,7.460502,7.1660085,"[0.0, 0.0, 0.0, 0.0, 0.0, 0.0, 0.0, 0.0, 0.0]"
1569261689070013431,,27038,,1569261689,13683080,"""knife_link""",,-0.336578310272,0.0580454192349,-0.418442128346,-0.841577064555,"[0.0, 0.0, 0.0, 0.0, 0.0, 0.0, 0.0, 0.0, 0.0]",,1.12154222763,0.216412868405,0.418295058229,"[0.0, 0.0, 0.0, 0.0, 0.0, 0.0, 0.0, 0.0, 0.0]",,2.748606,2.0221887,9.06058335,"[0.0, 0.0, 0.0, 0.0, 0.0, 0.0, 0.0, 0.0, 0.0]"
1569261689107438508,,27039,,1569261689,69149017,"""knife_link""",,-0.309065760256,0.0770026471484,-0.545555932033,-0.775188798418,"[0.0, 0.0, 0.0, 0.0, 0.0, 0.0, 0.0, 0.0, 0.0]",,-0.000704481410812,1.31073430941,5.29474498832,"[0.0, 0.0, 0.0, 0.0, 0.0, 0.0, 0.0, 0.0, 0.0]",,4.2603393,5.21253495,11.2692846,"[0.0, 0.0, 0.0, 0.0, 0.0, 0.0, 0.0, 0.0, 0.0]"
1569261689163917563,,27040,,1569261689,106642961,"""knife_link""",,-0.296177990661,0.0145489082077,-0.613768405034,-0.731679760619,"[0.0, 0.0, 0.0, 0.0, 0.0, 0.0, 0.0, 0.0, 0.0]",,2.22284498564,3.97759740647,3.40978939616,"[0.0, 0.0, 0.0, 0.0, 0.0, 0.0, 0.0, 0.0, 0.0]",,0.79513245,8.1280206,3.40630815,"[0.0, 0.0, 0.0, 0.0, 0.0, 0.0, 0.0, 0.0, 0.0]"
1569261689219857819,,27041,,1569261689,163157939,"""knife_link""",,-0.353395178249,-0.0652314272196,-0.569144667951,-0.739547872579,"[0.0, 0.0, 0.0, 0.0, 0.0, 0.0, 0.0, 0.0, 0.0]",,3.16881344022,0.422361720141,-2.11068702792,"[0.0, 0.0, 0.0, 0.0, 0.0, 0.0, 0.0, 0.0, 0.0]",,-0.196329,5.104554,5.50702845,"[0.0, 0.0, 0.0, 0.0, 0.0, 0.0, 0.0, 0.0, 0.0]"
1569261689257413181,,27042,,1569261689,219264030,"""knife_link""",,-0.453590176908,-0.11414849342,-0.484588973217,-0.739188473868,"[0.0, 0.0, 0.0, 0.0, 0.0, 0.0, 0.0, 0.0, 0.0]",,3.89836106756,-1.76453583261,-2.5731992797,"[0.0, 0.0, 0.0, 0.0, 0.0, 0.0, 0.0, 0.0, 0.0]",,2.95475145,4.44685185,11.6815755,"[0.0, 0.0, 0.0, 0.0, 0.0, 0.0, 0.0, 0.0, 0.0]"
1569261689314093994,,27043,,1569261689,256601095,"""knife_link""",,-0.498505320484,-0.130126011048,-0.423100454491,-0.745349362452,"[0.0, 0.0, 0.0, 0.0, 0.0, 0.0, 0.0, 0.0, 0.0]",,2.44799245915,-2.00190061089,-2.67268304706,"[0.0, 0.0, 0.0, 0.0, 0.0, 0.0, 0.0, 0.0, 0.0]",,3.533922,8.51086215,9.19801365,"[0.0, 0.0, 0.0, 0.0, 0.0, 0.0, 0.0, 0.0, 0.0]"
1569261689369931477,,27044,,1569261689,313441038,"""knife_link""",,-0.554444672281,-0.136982132032,-0.348167269796,-0.7433751093,"[0.0, 0.0, 0.0, 0.0, 0.0, 0.0, 0.0, 0.0, 0.0]",,1.99944284138,-1.95303139183,-1.80350907957,"[0.0, 0.0, 0.0, 0.0, 0.0, 0.0, 0.0, 0.0, 0.0]",,2.24796705,8.66792535,6.25307865,"[0.0, 0.0, 0.0, 0.0, 0.0, 0.0, 0.0, 0.0, 0.0]"
1569261689407501075,,27045,,1569261689,369205951,"""knife_link""",,-0.60305962511,-0.147889816885,-0.280611825854,-0.731918502167,"[0.0, 0.0, 0.0, 0.0, 0.0, 0.0, 0.0, 0.0, 0.0]",,2.04133074343,-1.6231641632,-1.63770280063,"[0.0, 0.0, 0.0, 0.0, 0.0, 0.0, 0.0, 0.0, 0.0]",,0.8638476,8.8151721,4.5351999,"[0.0, 0.0, 0.0, 0.0, 0.0, 0.0, 0.0, 0.0, 0.0]"
1569261689464769989,,27046,,1569261689,406761884,"""knife_link""",,-0.628461900762,-0.149813997685,-0.252763426432,-0.720209730319,"[0.0, 0.0, 0.0, 0.0, 0.0, 0.0, 0.0, 0.0, 0.0]",,1.61023441819,-1.15541592367,-0.745839552855,"[0.0, 0.0, 0.0, 0.0, 0.0, 0.0, 0.0, 0.0, 0.0]",,-0.2944935,9.2078301,1.56081555,"[0.0, 0.0, 0.0, 0.0, 0.0, 0.0, 0.0, 0.0, 0.0]"
1569261689519908354,,27047,,1569261689,464023113,"""knife_link""",,-0.657283630141,-0.157387850562,-0.22192576276,-0.702820211625,"[0.0, 0.0, 0.0, 0.0, 0.0, 0.0, 0.0, 0.0, 0.0]",,1.37286963991,-0.703375647399,-0.604467883443,"[0.0, 0.0, 0.0, 0.0, 0.0, 0.0, 0.0, 0.0, 0.0]",,-1.4921004,9.15874785,3.0627324,"[0.0, 0.0, 0.0, 0.0, 0.0, 0.0, 0.0, 0.0, 0.0]"
1569261689557060861,,27048,,1569261689,519032001,"""knife_link""",,-0.675264519388,-0.155802041714,-0.2128584199,-0.688792309576,"[0.0, 0.0, 0.0, 0.0, 0.0, 0.0, 0.0, 0.0, 0.0]",,0.842289547305,-0.383980394283,0.0570119030649,"[0.0, 0.0, 0.0, 0.0, 0.0, 0.0, 0.0, 0.0, 0.0]",,-1.36448655,9.8557158,1.08962595,"[0.0, 0.0, 0.0, 0.0, 0.0, 0.0, 0.0, 0.0, 0.0]"
1569261689614132496,,27049,,1569261689,556535005,"""knife_link""",,-0.691733132352,-0.15688242182,-0.202956742524,-0.675056842047,"[0.0, 0.0, 0.0, 0.0, 0.0, 0.0, 0.0, 0.0, 0.0]",,1.24196994601,-0.506153441923,-0.0337452180391,"[0.0, 0.0, 0.0, 0.0, 0.0, 0.0, 0.0, 0.0, 0.0]",,-2.3363151,10.23855735,2.1399861,"[0.0, 0.0, 0.0, 0.0, 0.0, 0.0, 0.0, 0.0, 0.0]"
1569261689670050230,,27050,,1569261689,613354921,"""knife_link""",,-0.685726031518,-0.167607451141,-0.205019363867,-0.677978327427,"[0.0, 0.0, 0.0, 0.0, 0.0, 0.0, 0.0, 0.0, 0.0]",,-0.152548126335,0.263536758209,-0.243184728279,"[0.0, 0.0, 0.0, 0.0, 0.0, 0.0, 0.0, 0.0, 0.0]",,-0.7067844,9.4041591,0.0392658,"[0.0, 0.0, 0.0, 0.0, 0.0, 0.0, 0.0, 0.0, 0.0]"
1569261689707665824,,27051,,1569261689,669399023,"""knife_link""",,-0.701537670039,-0.171764329492,-0.198154021088,-0.662628777339,"[0.0, 0.0, 0.0, 0.0, 0.0, 0.0, 0.0, 0.0, 0.0]",,0.847525535061,-0.160578250027,-0.0285092302831,"[0.0, 0.0, 0.0, 0.0, 0.0, 0.0, 0.0, 0.0, 0.0]",,-1.18779045,9.68883615,0.73623375,"[0.0, 0.0, 0.0, 0.0, 0.0, 0.0, 0.0, 0.0, 0.0]"
1569261689764083173,,27052,,1569261689,706845045,"""knife_link""",,-0.696188482176,-0.176989137559,-0.194130225938,-0.668064291704,"[0.0, 0.0, 0.0, 0.0, 0.0, 0.0, 0.0, 0.0, 0.0]",,-0.227597284171,-0.0750571166788,-0.410736336471,"[0.0, 0.0, 0.0, 0.0, 0.0, 0.0, 0.0, 0.0, 0.0]",,-0.7460502,9.45324135,2.50319475,"[0.0, 0.0, 0.0, 0.0, 0.0, 0.0, 0.0, 0.0, 0.0]"
1569261689838594022,,27053,,1569261689,763420104,"""knife_link""",,-0.700461794286,-0.179193967062,-0.19468411009,-0.662827952181,"[0.0, 0.0, 0.0, 0.0, 0.0, 0.0, 0.0, 0.0, 0.0]",,0.248877601625,-7.95884277677e-06,0.0395586105449,"[0.0, 0.0, 0.0, 0.0, 0.0, 0.0, 0.0, 0.0, 0.0]",,-0.5300883,10.39562055,0.0981645,"[0.0, 0.0, 0.0, 0.0, 0.0, 0.0, 0.0, 0.0, 0.0]"
1569261689856947489,,27054,,1569261689,838022947,"""knife_link""",,-0.707119386357,-0.181303859066,-0.192271996416,-0.655852547087,"[0.0, 0.0, 0.0, 0.0, 0.0, 0.0, 0.0, 0.0, 0.0]",,0.289020174421,-0.0610944826628,0.0116333425129,"[0.0, 0.0, 0.0, 0.0, 0.0, 0.0, 0.0, 0.0, 0.0]",,-1.3350372,9.8753487,0.7460502,"[0.0, 0.0, 0.0, 0.0, 0.0, 0.0, 0.0, 0.0, 0.0]"
1569261689914279321,,27055,,1569261689,856497049,"""knife_link""",,-0.705439271851,-0.184179985096,-0.193073241524,-0.656624618963,"[0.0, 0.0, 0.0, 0.0, 0.0, 0.0, 0.0, 0.0, 0.0]",,-0.0862256147588,0.0820225160012,-0.122757009891,"[0.0, 0.0, 0.0, 0.0, 0.0, 0.0, 0.0, 0.0, 0.0]",,-1.06999305,9.7575513,0.36320865,"[0.0, 0.0, 0.0, 0.0, 0.0, 0.0, 0.0, 0.0, 0.0]"
1569261689969957876,,27056,,1569261689,913465023,"""knife_link""",,-0.709958142345,-0.186882277628,-0.188887962285,-0.652193060474,"[0.0, 0.0, 0.0, 0.0, 0.0, 0.0, 0.0, 0.0, 0.0]",,0.297746820681,-0.111709030971,-0.0669064738271,"[0.0, 0.0, 0.0, 0.0, 0.0, 0.0, 0.0, 0.0, 0.0]",,-1.50191685,9.3845262,1.44301815,"[0.0, 0.0, 0.0, 0.0, 0.0, 0.0, 0.0, 0.0, 0.0]"
1569261690007500885,,27057,,1569261689,969296932,"""knife_link""",,-0.70571790586,-0.192604256641,-0.19120142017,-0.654452331798,"[0.0, 0.0, 0.0, 0.0, 0.0, 0.0, 0.0, 0.0, 0.0]",,-0.114150882791,0.139618381317,-0.105303717371,"[0.0, 0.0, 0.0, 0.0, 0.0, 0.0, 0.0, 0.0, 0.0]",,-1.1976069,9.92443095,0.4319238,"[0.0, 0.0, 0.0, 0.0, 0.0, 0.0, 0.0, 0.0, 0.0]"
1569261690064116796,,27058,,1569261690,6836891,"""knife_link""",,-0.708341468802,-0.196170343829,-0.190409851074,-0.650779262416,"[0.0, 0.0, 0.0, 0.0, 0.0, 0.0, 0.0, 0.0, 0.0]",,0.316945442453,0.00871868741722,-0.0477078520551,"[0.0, 0.0, 0.0, 0.0, 0.0, 0.0, 0.0, 0.0, 0.0]",,-1.3546701,9.423792,0.81476535,"[0.0, 0.0, 0.0, 0.0, 0.0, 0.0, 0.0, 0.0, 0.0]"
1569261690120086127,,27059,,1569261690,63591003,"""knife_link""",,-0.709587632477,-0.200617305139,-0.186996179652,-0.649053555193,"[0.0, 0.0, 0.0, 0.0, 0.0, 0.0, 0.0, 0.0, 0.0]",,0.144157846505,-0.0453865193948,-0.143700960915,"[0.0, 0.0, 0.0, 0.0, 0.0, 0.0, 0.0, 0.0, 0.0]",,-1.0994424,10.3269054,0.24541125,"[0.0, 0.0, 0.0, 0.0, 0.0, 0.0, 0.0, 0.0, 0.0]"
1569261690157457984,,27060,,1569261690,119318962,"""knife_link""",,-0.704405900726,-0.204778001279,-0.180877137993,-0.655104387228,"[0.0, 0.0, 0.0, 0.0, 0.0, 0.0, 0.0, 0.0, 0.0]",,-0.176982735863,-0.134398311247,-0.297289935091,"[0.0, 0.0, 0.0, 0.0, 0.0, 0.0, 0.0, 0.0, 0.0]",,-1.38411945,9.61030455,0.63806925,"[0.0, 0.0, 0.0, 0.0, 0.0, 0.0, 0.0, 0.0, 0.0]"
1569261690213574411,,27061,,1569261690,156810998,"""knife_link""",,-0.702533730167,-0.20881175372,-0.180076076396,-0.656061442394,"[0.0, 0.0, 0.0, 0.0, 0.0, 0.0, 0.0, 0.0, 0.0]",,0.00104084784119,0.0244266506852,-0.166390241191,"[0.0, 0.0, 0.0, 0.0, 0.0, 0.0, 0.0, 0.0, 0.0]",,-1.44301815,9.31581105,1.16815755,"[0.0, 0.0, 0.0, 0.0, 0.0, 0.0, 0.0, 0.0, 0.0]"
1569261690270478211,,27062,,1569261690,212933063,"""knife_link""",,-0.697681351879,-0.214240927055,-0.177328185176,-0.660224409695,"[0.0, 0.0, 0.0, 0.0, 0.0, 0.0, 0.0, 0.0, 0.0]",,-0.152548126335,-0.00524394659878,-0.237948740523,"[0.0, 0.0, 0.0, 0.0, 0.0, 0.0, 0.0, 0.0, 0.0]",,-1.5117333,10.02259545,-0.20614545,"[0.0, 0.0, 0.0, 0.0, 0.0, 0.0, 0.0, 0.0, 0.0]"
1569261690307581816,,27063,,1569261690,269566059,"""knife_link""",,-0.697536255756,-0.217306391054,-0.171282210753,-0.660971639779,"[0.0, 0.0, 0.0, 0.0, 0.0, 0.0, 0.0, 0.0, 0.0]",,0.0987792859532,-0.153596933019,-0.189079521467,"[0.0, 0.0, 0.0, 0.0, 0.0, 0.0, 0.0, 0.0, 0.0]",,-1.83567615,8.6973747,2.07127095,"[0.0, 0.0, 0.0, 0.0, 0.0, 0.0, 0.0, 0.0, 0.0]"
1569261690363634213,,27064,,1569261690,306766033,"""knife_link""",,-0.695256768357,-0.219172292315,-0.173924124236,-0.662066410071,"[0.0, 0.0, 0.0, 0.0, 0.0, 0.0, 0.0, 0.0, 0.0]",,-0.110660224287,0.0732958697412,0.0273413057809,"[0.0, 0.0, 0.0, 0.0, 0.0, 0.0, 0.0, 0.0, 0.0]",,-1.58044845,9.1096656,0.10798095,"[0.0, 0.0, 0.0, 0.0, 0.0, 0.0, 0.0, 0.0, 0.0]"
1569261690420054317,,27065,,1569261690,362900972,"""knife_link""",,-0.695880381919,-0.218805776606,-0.172295554119,-0.661958282836,"[0.0, 0.0, 0.0, 0.0, 0.0, 0.0, 0.0, 0.0, 0.0]",,0.0673633594172,-0.122181006483,0.0011613670009,"[0.0, 0.0, 0.0, 0.0, 0.0, 0.0, 0.0, 0.0, 0.0]",,-1.6884294,10.27782315,1.4332017,"[0.0, 0.0, 0.0, 0.0, 0.0, 0.0, 0.0, 0.0, 0.0]"
1569261690458002554,,27066,,1569261690,419418096,"""knife_link""",,-0.69455576966,-0.221661735227,-0.17003787275,-0.662982262055,"[0.0, 0.0, 0.0, 0.0, 0.0, 0.0, 0.0, 0.0, 0.0]",,0.00104084784119,-0.0593491534108,-0.117521022135,"[0.0, 0.0, 0.0, 0.0, 0.0, 0.0, 0.0, 0.0, 0.0]",,-1.56081555,9.92443095,0.4122909,"[0.0, 0.0, 0.0, 0.0, 0.0, 0.0, 0.0, 0.0, 0.0]"
1569261690514094174,,27067,,1569261690,457263946,"""knife_link""",,-0.691913128873,-0.225507238478,-0.165881755923,-0.665496769744,"[0.0, 0.0, 0.0, 0.0, 0.0, 0.0, 0.0, 0.0, 0.0]",,-0.0949522610188,-0.127416994239,-0.333941849383,"[0.0, 0.0, 0.0, 0.0, 0.0, 0.0, 0.0, 0.0, 0.0]",,-0.89329695,7.4801349,0.2159619,"[0.0, 0.0, 0.0, 0.0, 0.0, 0.0, 0.0, 0.0, 0.0]"
1569261690570123016,,27068,,1569261690,513205051,"""knife_link""",,-0.686430717774,-0.228928934162,-0.163398855332,-0.670600646344,"[0.0, 0.0, 0.0, 0.0, 0.0, 0.0, 0.0, 0.0, 0.0]",,-0.173492077359,-0.0576038241588,-0.197806167727,"[0.0, 0.0, 0.0, 0.0, 0.0, 0.0, 0.0, 0.0, 0.0]",,-1.93384065,10.51341795,1.9043913,"[0.0, 0.0, 0.0, 0.0, 0.0, 0.0, 0.0, 0.0, 0.0]"
1569261690607700839,,27069,,1569261690,569459915,"""knife_link""",,-0.684486099134,-0.236875016038,-0.16150844359,-0.670286527926,"[0.0, 0.0, 0.0, 0.0, 0.0, 0.0, 0.0, 0.0, 0.0]",,0.0499100668972,0.0855131745052,-0.206532813987,"[0.0, 0.0, 0.0, 0.0, 0.0, 0.0, 0.0, 0.0, 0.0]",,-3.3768588,9.6593868,0.6675186,"[0.0, 0.0, 0.0, 0.0, 0.0, 0.0, 0.0, 0.0, 0.0]"
1569261690664151862,,27070,,1569261690,606890916,"""knife_link""",,-0.682218158753,-0.234990862348,-0.164367629067,-0.672562979204,"[0.0, 0.0, 0.0, 0.0, 0.0, 0.0, 0.0, 0.0, 0.0]",,-0.175237406611,-0.0802931044348,0.154750341177,"[0.0, 0.0, 0.0, 0.0, 0.0, 0.0, 0.0, 0.0, 0.0]",,-1.8847584,9.74773485,0.7460502,"[0.0, 0.0, 0.0, 0.0, 0.0, 0.0, 0.0, 0.0, 0.0]"
1569261690720174633,,27071,,1569261690,663151025,"""knife_link""",,-0.681376115128,-0.23776318418,-0.164993860916,-0.672288839594,"[0.0, 0.0, 0.0, 0.0, 0.0, 0.0, 0.0, 0.0, 0.0]",,0.0289661158732,0.0209359921812,-0.0407265350471,"[0.0, 0.0, 0.0, 0.0, 0.0, 0.0, 0.0, 0.0, 0.0]",,-1.79641035,10.2483738,1.0209108,"[0.0, 0.0, 0.0, 0.0, 0.0, 0.0, 0.0, 0.0, 0.0]"
1569261690757654552,,27072,,1569261690,719438076,"""knife_link""",,-0.679598385445,-0.240576015181,-0.165207950329,-0.673034582,"[0.0, 0.0, 0.0, 0.0, 0.0, 0.0, 0.0, 0.0, 0.0]",,-0.0199031031828,0.00697335816522,-0.0599251568191,"[0.0, 0.0, 0.0, 0.0, 0.0, 0.0, 0.0, 0.0, 0.0]",,-1.97310645,9.3256275,0.63806925,"[0.0, 0.0, 0.0, 0.0, 0.0, 0.0, 0.0, 0.0, 0.0]"
1569261690813550806,,27073,,1569261690,756973981,"""knife_link""",,-0.679833897267,-0.243219113741,-0.165140771165,-0.671862233302,"[0.0, 0.0, 0.0, 0.0, 0.0, 0.0, 0.0, 0.0, 0.0]",,0.137176529497,0.00173737040922,-0.0564344983151,"[0.0, 0.0, 0.0, 0.0, 0.0, 0.0, 0.0, 0.0, 0.0]",,-1.9240242,9.9146145,1.5117333,"[0.0, 0.0, 0.0, 0.0, 0.0, 0.0, 0.0, 0.0, 0.0]"
1569261690869997681,,27074,,1569261690,812784910,"""knife_link""",,-0.6787869935,-0.247709942007,-0.16455406329,-0.671423832122,"[0.0, 0.0, 0.0, 0.0, 0.0, 0.0, 0.0, 0.0, 0.0]",,0.0324567743772,0.0366439554492,-0.115775692883,"[0.0, 0.0, 0.0, 0.0, 0.0, 0.0, 0.0, 0.0, 0.0]",,-1.9436571,8.09857125,0.38284155,"[0.0, 0.0, 0.0, 0.0, 0.0, 0.0, 0.0, 0.0, 0.0]"
1569261690907652548,,27075,,1569261690,869395017,"""knife_link""",,-0.68102084159,-0.264805723953,-0.159190654113,-0.663887699483,"[0.0, 0.0, 0.0, 0.0, 0.0, 0.0, 0.0, 0.0, 0.0]",,0.388503941785,0.261791428957,-0.470077531039,"[0.0, 0.0, 0.0, 0.0, 0.0, 0.0, 0.0, 0.0, 0.0]",,0.785316,-1.99273935,1.16815755,"[0.0, 0.0, 0.0, 0.0, 0.0, 0.0, 0.0, 0.0, 0.0]"
1569261690964179493,,27076,,1569261690,906887054,"""knife_link""",,-0.678352346784,-0.276339960915,-0.147548057676,-0.664608072694,"[0.0, 0.0, 0.0, 0.0, 0.0, 0.0, 0.0, 0.0, 0.0]",,0.329162747217,-0.104727713963,-1.2170784509,"[0.0, 0.0, 0.0, 0.0, 0.0, 0.0, 0.0, 0.0, 0.0]",,8.23600155,1.30558785,4.03456095,"[0.0, 0.0, 0.0, 0.0, 0.0, 0.0, 0.0, 0.0, 0.0]"
1569261691020058745,,27077,,1569261690,963155984,"""knife_link""",,-0.674236381475,-0.277664631229,-0.150109549547,-0.667663671016,"[0.0, 0.0, 0.0, 0.0, 0.0, 0.0, 0.0, 0.0, 0.0]",,-0.173492077359,-0.00698927585078,-0.0215279132751,"[0.0, 0.0, 0.0, 0.0, 0.0, 0.0, 0.0, 0.0, 0.0]",,-2.159619,4.99657305,-1.374303,"[0.0, 0.0, 0.0, 0.0, 0.0, 0.0, 0.0, 0.0, 0.0]"
1569261691057630457,,27078,,1569261691,19377946,"""knife_link""",,-0.686658348492,-0.258003222283,-0.175208518767,-0.656686092962,"[0.0, 0.0, 0.0, 0.0, 0.0, 0.0, 0.0, 0.0, 0.0]",,0.217461675089,0.0890038330092,1.25605309919,"[0.0, 0.0, 0.0, 0.0, 0.0, 0.0, 0.0, 0.0, 0.0]",,-0.5300883,15.16641525,-0.6478857,"[0.0, 0.0, 0.0, 0.0, 0.0, 0.0, 0.0, 0.0, 0.0]"
1569261691113626778,,27079,,1569261691,56828022,"""knife_link""",,-0.683815353031,-0.255032702666,-0.179758347794,-0.659577000757,"[0.0, 0.0, 0.0, 0.0, 0.0, 0.0, 0.0, 0.0, 0.0]",,-0.286938478739,-0.0994917262068,0.210600877241,"[0.0, 0.0, 0.0, 0.0, 0.0, 0.0, 0.0, 0.0, 0.0]",,-0.75586665,11.3281833,-1.34485365,"[0.0, 0.0, 0.0, 0.0, 0.0, 0.0, 0.0, 0.0, 0.0]"
1569261691170166387,,27080,,1569261691,112998962,"""knife_link""",,-0.63358917455,-0.23680313688,-0.196076686264,-0.709959833625,"[0.0, 0.0, 0.0, 0.0, 0.0, 0.0, 0.0, 0.0, 0.0]",,-2.67629422473,-0.268788663651,0.0552665738129,"[0.0, 0.0, 0.0, 0.0, 0.0, 0.0, 0.0, 0.0, 0.0]",,-1.1976069,8.5795773,0.3533922,"[0.0, 0.0, 0.0, 0.0, 0.0, 0.0, 0.0, 0.0, 0.0]"
1569261691207498991,,27081,,1569261691,169457912,"""knife_link""",,-0.58050616954,-0.231370980922,-0.20533224422,-0.753205633141,"[0.0, 0.0, 0.0, 0.0, 0.0, 0.0, 0.0, 0.0, 0.0]",,-2.41798549543,-0.0104799343548,-0.405500348715,"[0.0, 0.0, 0.0, 0.0, 0.0, 0.0, 0.0, 0.0, 0.0]",,-4.46648475,11.3674491,9.1489314,"[0.0, 0.0, 0.0, 0.0, 0.0, 0.0, 0.0, 0.0, 0.0]"
1569261691263754437,,27082,,1569261691,206855058,"""knife_link""",,-0.58755318542,-0.225654034334,-0.252007013756,-0.735087733614,"[0.0, 0.0, 0.0, 0.0, 0.0, 0.0, 0.0, 0.0, 0.0]",,0.212225687333,1.28804502913,2.32943058917,"[0.0, 0.0, 0.0, 0.0, 0.0, 0.0, 0.0, 0.0, 0.0]",,-0.1766961,15.10751655,1.1387082,"[0.0, 0.0, 0.0, 0.0, 0.0, 0.0, 0.0, 0.0, 0.0]"
1569261691319914736,,27083,,1569261691,263021945,"""knife_link""",,-0.621998438378,-0.232870232862,-0.21647455783,-0.715561432103,"[0.0, 0.0, 0.0, 0.0, 0.0, 0.0, 0.0, 0.0, 0.0]",,1.74462477059,-0.783660792991,-0.660318419507,"[0.0, 0.0, 0.0, 0.0, 0.0, 0.0, 0.0, 0.0, 0.0]",,0.5104554,9.1881972,5.6346423,"[0.0, 0.0, 0.0, 0.0, 0.0, 0.0, 0.0, 0.0, 0.0]"
1569261691376733627,,27084,,1569261691,319294929,"""knife_link""",,-0.623504094419,-0.234099643652,-0.230534487958,-0.709432062249,"[0.0, 0.0, 0.0, 0.0, 0.0, 0.0, 0.0, 0.0, 0.0]",,0.0708540179212,0.308915318761,0.381643143937,"[0.0, 0.0, 0.0, 0.0, 0.0, 0.0, 0.0, 0.0, 0.0]",,1.4135688,7.41141975,0.83439825,"[0.0, 0.0, 0.0, 0.0, 0.0, 0.0, 0.0, 0.0, 0.0]"
1569261691414368387,,27085,,1569261691,375998973,"""knife_link""",,-0.646435226284,-0.220485587167,-0.223890004134,-0.69525597453,"[0.0, 0.0, 0.0, 0.0, 0.0, 0.0, 0.0, 0.0, 0.0]",,0.891158766361,-0.638798465075,0.446220326261,"[0.0, 0.0, 0.0, 0.0, 0.0, 0.0, 0.0, 0.0, 0.0]",,-0.9423792,8.90352015,3.75970035,"[0.0, 0.0, 0.0, 0.0, 0.0, 0.0, 0.0, 0.0, 0.0]"
1569261691469930425,,27086,,1569261691,413558006,"""knife_link""",,-0.648217861713,-0.22296891441,-0.219692779007,-0.694142312365,"[0.0, 0.0, 0.0, 0.0, 0.0, 0.0, 0.0, 0.0, 0.0]",,0.186045748553,-0.195484835067,-0.215259460247,"[0.0, 0.0, 0.0, 0.0, 0.0, 0.0, 0.0, 0.0, 0.0]",,-0.36320865,7.33288815,1.44301815,"[0.0, 0.0, 0.0, 0.0, 0.0, 0.0, 0.0, 0.0, 0.0]"
1569261691507350873,,27087,,1569261691,469427108,"""knife_link""",,-0.661256665506,-0.222383806801,-0.206285011514,-0.686098796691,"[0.0, 0.0, 0.0, 0.0, 0.0, 0.0, 0.0, 0.0, 0.0]",,0.636340695569,-0.462520210623,-0.140210302411,"[0.0, 0.0, 0.0, 0.0, 0.0, 0.0, 0.0, 0.0, 0.0]",,-1.18779045,9.6790197,1.374303,"[0.0, 0.0, 0.0, 0.0, 0.0, 0.0, 0.0, 0.0, 0.0]"
1569261691564085187,,27088,,1569261691,506854057,"""knife_link""",,-0.655574471807,-0.228975893642,-0.216420747617,-0.686261037832,"[0.0, 0.0, 0.0, 0.0, 0.0, 0.0, 0.0, 0.0, 0.0]",,-0.300901112755,0.523590816757,0.0605025615689,"[0.0, 0.0, 0.0, 0.0, 0.0, 0.0, 0.0, 0.0, 0.0]",,-0.0981645,10.78827855,-1.5902649,"[0.0, 0.0, 0.0, 0.0, 0.0, 0.0, 0.0, 0.0, 0.0]"
1569261691620506043,,27089,,1569261691,563322067,"""knife_link""",,-0.661022719703,-0.233027653387,-0.214171505488,-0.680351117461,"[0.0, 0.0, 0.0, 0.0, 0.0, 0.0, 0.0, 0.0, 0.0]",,0.355342685997,-0.0349145438828,-0.0564344983151,"[0.0, 0.0, 0.0, 0.0, 0.0, 0.0, 0.0, 0.0, 0.0]",,-0.588987,9.31581105,1.9436571,"[0.0, 0.0, 0.0, 0.0, 0.0, 0.0, 0.0, 0.0, 0.0]"
1569261691657480025,,27090,,1569261691,619710922,"""knife_link""",,-0.664136941877,-0.236115187331,-0.212563951366,-0.676748333818,"[0.0, 0.0, 0.0, 0.0, 0.0, 0.0, 0.0, 0.0, 0.0]",,0.224442992097,-0.0488771778988,-0.0546891690631,"[0.0, 0.0, 0.0, 0.0, 0.0, 0.0, 0.0, 0.0, 0.0]",,-0.59880345,9.6004881,1.40375235,"[0.0, 0.0, 0.0, 0.0, 0.0, 0.0, 0.0, 0.0, 0.0]"
1569261691713659860,,27091,,1569261691,656981945,"""knife_link""",,-0.665280120603,-0.238338863038,-0.21369195996,-0.674486985601,"[0.0, 0.0, 0.0, 0.0, 0.0, 0.0, 0.0, 0.0, 0.0]",,0.215716345837,-7.95884277677e-06,0.0186146595209,"[0.0, 0.0, 0.0, 0.0, 0.0, 0.0, 0.0, 0.0, 0.0]",,-1.0012779,9.7379184,2.89585275,"[0.0, 0.0, 0.0, 0.0, 0.0, 0.0, 0.0, 0.0, 0.0]"
1569261691770272486,,27092,,1569261691,712884902,"""knife_link""",,-0.666858505582,-0.243139288969,-0.214756359204,-0.670867144727,"[0.0, 0.0, 0.0, 0.0, 0.0, 0.0, 0.0, 0.0, 0.0]",,0.149393834261,0.0732958697412,-0.0546891690631,"[0.0, 0.0, 0.0, 0.0, 0.0, 0.0, 0.0, 0.0, 0.0]",,0.0196329,10.1305764,-0.40247445,"[0.0, 0.0, 0.0, 0.0, 0.0, 0.0, 0.0, 0.0, 0.0]"
1569261691807519229,,27093,,1569261691,769491910,"""knife_link""",,-0.66643572326,-0.247996840604,-0.213055277041,-0.670051074723,"[0.0, 0.0, 0.0, 0.0, 0.0, 0.0, 0.0, 0.0, 0.0]",,0.107505932213,-0.00349861734678,-0.143700960915,"[0.0, 0.0, 0.0, 0.0, 0.0, 0.0, 0.0, 0.0, 0.0]",,-0.9423792,10.209108,2.3952138,"[0.0, 0.0, 0.0, 0.0, 0.0, 0.0, 0.0, 0.0, 0.0]"
1569261691863783552,,27094,,1569261691,807027101,"""knife_link""",,-0.665799654177,-0.254697707054,-0.211414760345,-0.668688042085,"[0.0, 0.0, 0.0, 0.0, 0.0, 0.0, 0.0, 0.0, 0.0]",,0.135431200245,0.0855131745052,-0.293799276587,"[0.0, 0.0, 0.0, 0.0, 0.0, 0.0, 0.0, 0.0, 0.0]",,-0.3533922,9.59067165,0.0392658,"[0.0, 0.0, 0.0, 0.0, 0.0, 0.0, 0.0, 0.0, 0.0]"
1569261691920356142,,27095,,1569261691,863018989,"""knife_link""",,-0.666192140891,-0.260351667676,-0.208982276342,-0.66688188514,"[0.0, 0.0, 0.0, 0.0, 0.0, 0.0, 0.0, 0.0, 0.0]",,0.147648505009,0.0122093459212,-0.164644911939,"[0.0, 0.0, 0.0, 0.0, 0.0, 0.0, 0.0, 0.0, 0.0]",,-1.0601766,8.8151721,1.05036015,"[0.0, 0.0, 0.0, 0.0, 0.0, 0.0, 0.0, 0.0, 0.0]"
1569261691957531972,,27096,,1569261691,919682025,"""knife_link""",,-0.664398937269,-0.264411294588,-0.212835105197,-0.665854291453,"[0.0, 0.0, 0.0, 0.0, 0.0, 0.0, 0.0, 0.0, 0.0]",,-0.00768579841881,0.132637064309,-0.0197825840231,"[0.0, 0.0, 0.0, 0.0, 0.0, 0.0, 0.0, 0.0, 0.0]",,-0.24541125,9.66920325,0.3533922,"[0.0, 0.0, 0.0, 0.0, 0.0, 0.0, 0.0, 0.0, 0.0]"
1569261692013606190,,27097,,1569261691,956926107,"""knife_link""",,-0.663677869729,-0.268160794221,-0.212452834436,-0.66519566055,"[0.0, 0.0, 0.0, 0.0, 0.0, 0.0, 0.0, 0.0, 0.0]",,0.0534007254012,0.0209359921812,-0.145446290167,"[0.0, 0.0, 0.0, 0.0, 0.0, 0.0, 0.0, 0.0, 0.0]",,-0.785316,9.5612223,-0.2748606,"[0.0, 0.0, 0.0, 0.0, 0.0, 0.0, 0.0, 0.0, 0.0]"
1569261692051063066,,27098,,1569261692,12888908,"""knife_link""",,-0.657187445366,-0.272453252543,-0.208472128082,-0.671128347371,"[0.0, 0.0, 0.0, 0.0, 0.0, 0.0, 0.0, 0.0, 0.0]",,-0.211889320903,-0.0768024459308,-0.293799276587,"[0.0, 0.0, 0.0, 0.0, 0.0, 0.0, 0.0, 0.0, 0.0]",,-2.9056692,11.0533227,1.18779045,"[0.0, 0.0, 0.0, 0.0, 0.0, 0.0, 0.0, 0.0, 0.0]"
1569261692126270420,,27099,,1569261692,50390958,"""knife_link""",,-0.654478131505,-0.274058551759,-0.208892785089,-0.672988922588,"[0.0, 0.0, 0.0, 0.0, 0.0, 0.0, 0.0, 0.0, 0.0]",,-0.122877529051,-0.0296785561268,-0.0913410833551,"[0.0, 0.0, 0.0, 0.0, 0.0, 0.0, 0.0, 0.0, 0.0]",,-1.40375235,8.0691219,1.18779045,"[0.0, 0.0, 0.0, 0.0, 0.0, 0.0, 0.0, 0.0, 0.0]"
1569261692163572136,,27100,,1569261692,125627040,"""knife_link""",,-0.650357404717,-0.281483011686,-0.205402194381,-0.674990739792,"[0.0, 0.0, 0.0, 0.0, 0.0, 0.0, 0.0, 0.0, 0.0]",,-0.0338657371988,0.0191906629292,-0.234458082019,"[0.0, 0.0, 0.0, 0.0, 0.0, 0.0, 0.0, 0.0, 0.0]",,-0.81476535,11.37726555,0.32394285,"[0.0, 0.0, 0.0, 0.0, 0.0, 0.0, 0.0, 0.0, 0.0]"
1569261692201107310,,27101,,1569261692,162894964,"""knife_link""",,-0.641667206869,-0.283805206792,-0.203498409155,-0.682866163826,"[0.0, 0.0, 0.0, 0.0, 0.0, 0.0, 0.0, 0.0, 0.0]",,-0.510340622995,-0.111709030971,-0.379320409935,"[0.0, 0.0, 0.0, 0.0, 0.0, 0.0, 0.0, 0.0, 0.0]",,-0.785316,8.94278595,0.53990475,"[0.0, 0.0, 0.0, 0.0, 0.0, 0.0, 0.0, 0.0, 0.0]"
1569261692257506565,,27102,,1569261692,200572013,"""knife_link""",,-0.640042537744,-0.28469342572,-0.207116214563,-0.682933435185,"[0.0, 0.0, 0.0, 0.0, 0.0, 0.0, 0.0, 0.0, 0.0]",,-0.0460830419628,0.0837678452532,0.0849371710969,"[0.0, 0.0, 0.0, 0.0, 0.0, 0.0, 0.0, 0.0, 0.0]",,-1.54118265,7.90224225,2.5915428,"[0.0, 0.0, 0.0, 0.0, 0.0, 0.0, 0.0, 0.0, 0.0]"
1569261692313545266,,27103,,1569261692,256742000,"""knife_link""",,-0.641565646915,-0.287327599136,-0.211527049813,-0.679038053919,"[0.0, 0.0, 0.0, 0.0, 0.0, 0.0, 0.0, 0.0, 0.0]",,0.109251261465,0.123910418049,0.0901731588529,"[0.0, 0.0, 0.0, 0.0, 0.0, 0.0, 0.0, 0.0, 0.0]",,-1.1190753,11.6619426,0.6282528,"[0.0, 0.0, 0.0, 0.0, 0.0, 0.0, 0.0, 0.0, 0.0]"
1569261692351872542,,27104,,1569261692,312983989,"""knife_link""",,-0.641361784973,-0.287714374378,-0.211928873945,-0.678941567398,"[0.0, 0.0, 0.0, 0.0, 0.0, 0.0, 0.0, 0.0, 0.0]",,0.0376927621332,-0.0384052023868,0.0186146595209,"[0.0, 0.0, 0.0, 0.0, 0.0, 0.0, 0.0, 0.0, 0.0]",,-1.9829229,8.4225141,1.77677745,"[0.0, 0.0, 0.0, 0.0, 0.0, 0.0, 0.0, 0.0, 0.0]"
1569261692408013995,,27105,,1569261692,351027965,"""knife_link""",,-0.646565856529,-0.288872666893,-0.212843743776,-0.673203324582,"[0.0, 0.0, 0.0, 0.0, 0.0, 0.0, 0.0, 0.0, 0.0]",,0.385013283281,-0.00698927585078,0.125079743893,"[0.0, 0.0, 0.0, 0.0, 0.0, 0.0, 0.0, 0.0, 0.0]",,-0.71660085,9.70846905,-0.24541125,"[0.0, 0.0, 0.0, 0.0, 0.0, 0.0, 0.0, 0.0, 0.0]"
1569261692463554232,,27106,,1569261692,407314062,"""knife_link""",,-0.643146207862,-0.290267630114,-0.214145092731,-0.675462461932,"[0.0, 0.0, 0.0, 0.0, 0.0, 0.0, 0.0, 0.0, 0.0]",,-0.119386870547,-0.00524394659878,-0.0529438398111,"[0.0, 0.0, 0.0, 0.0, 0.0, 0.0, 0.0, 0.0, 0.0]",,-1.374303,11.1514872,2.73878955,"[0.0, 0.0, 0.0, 0.0, 0.0, 0.0, 0.0, 0.0, 0.0]"
1569261692501393425,,27107,,1569261692,462990999,"""knife_link""",,-0.651017707014,-0.259420954729,-0.234857173122,-0.673586536114,"[0.0, 0.0, 0.0, 0.0, 0.0, 0.0, 0.0, 0.0, 0.0]",,-0.213634650155,-0.378744406527,1.31190363525,"[0.0, 0.0, 0.0, 0.0, 0.0, 0.0, 0.0, 0.0, 0.0]",,-5.52666135,14.30256765,7.5979323,"[0.0, 0.0, 0.0, 0.0, 0.0, 0.0, 0.0, 0.0, 0.0]"
1569261692557493370,,27108,,1569261692,500619888,"""knife_link""",,-0.6506975099,-0.264825805177,-0.231564472692,-0.672932343189,"[0.0, 0.0, 0.0, 0.0, 0.0, 0.0, 0.0, 0.0, 0.0]",,0.128449883237,0.00348269966122,-0.302525922847,"[0.0, 0.0, 0.0, 0.0, 0.0, 0.0, 0.0, 0.0, 0.0]",,0.14724675,5.74262325,-2.5915428,"[0.0, 0.0, 0.0, 0.0, 0.0, 0.0, 0.0, 0.0, 0.0]"
1569261692613659359,,27109,,1569261692,556890010,"""knife_link""",,-0.655499047561,-0.254301778302,-0.242612840323,-0.668423977659,"[0.0, 0.0, 0.0, 0.0, 0.0, 0.0, 0.0, 0.0, 0.0]",,0.0307114451252,-0.0506225071508,0.589337324925,"[0.0, 0.0, 0.0, 0.0, 0.0, 0.0, 0.0, 0.0, 0.0]",,-1.0798095,17.3162178,5.2616172,"[0.0, 0.0, 0.0, 0.0, 0.0, 0.0, 0.0, 0.0, 0.0]"
1569261692651533347,,27110,,1569261692,613107919,"""knife_link""",,-0.653604636855,-0.260431647826,-0.239293040454,-0.669115218989,"[0.0, 0.0, 0.0, 0.0, 0.0, 0.0, 0.0, 0.0, 0.0]",,0.00453150634519,0.0244266506852,-0.230967423515,"[0.0, 0.0, 0.0, 0.0, 0.0, 0.0, 0.0, 0.0, 0.0]",,-1.14852465,8.53049505,-1.0012779,"[0.0, 0.0, 0.0, 0.0, 0.0, 0.0, 0.0, 0.0, 0.0]"
1569261692707857222,,27111,,1569261692,650782108,"""knife_link""",,-0.653531811464,-0.261562373859,-0.239449748855,-0.668689100972,"[0.0, 0.0, 0.0, 0.0, 0.0, 0.0, 0.0, 0.0, 0.0]",,0.0708540179212,-0.0331692146308,-0.0093106085111,"[0.0, 0.0, 0.0, 0.0, 0.0, 0.0, 0.0, 0.0, 0.0]",,-1.0601766,9.1685643,1.5902649,"[0.0, 0.0, 0.0, 0.0, 0.0, 0.0, 0.0, 0.0, 0.0]"
