rosbagTimestamp,header,seq,stamp,secs,nsecs,frame_id,orientation,x,y,z,w,orientation_covariance,angular_velocity,x_1,y_1,z_1,angular_velocity_covariance,linear_acceleration,x_2,y_2,z_2,linear_acceleration_covariance,Label
1.56925519541539e+18,NaN,54722,NaN,1569255195,349889039,NaN,NaN,0.144909335663,0.98581472321,-0.0846794133293,-0.000113569908578,NaN,NaN,1.66208782818,-0.308930723482,1.4506081061,NaN,NaN,-2.4933783,-2.52282765,-9.21764655,NaN,4
1.5692551954569e+18,NaN,54723,NaN,1569255195,413961887,NaN,NaN,0.142194620876,0.982818214304,-0.117228780486,0.0103179674136,NaN,NaN,0.943012176353,-0.387470539822,0.178263081393,NaN,NaN,-3.28851075,-3.99529515,-8.9133366,NaN,4
1.56925519549919e+18,NaN,54724,NaN,1569255195,456103086,NaN,NaN,0.132800530941,0.988133142942,-0.0769849977893,0.00549735537577,NaN,NaN,-1.86522259012,0.514864683462,-0.130660196211,NaN,NaN,-0.6675186,-1.26632205,-1.85530905,NaN,4
1.56925519557014e+18,NaN,54725,NaN,1569255195,498459100,NaN,NaN,0.130173266558,0.991192526662,0.0174218536791,0.0169933744988,NaN,NaN,-4.50066976064,0.0628244071937,0.204443020173,NaN,NaN,-0.85403115,0.55953765,1.7865939,NaN,4
1.5692551956083e+18,NaN,54726,NaN,1569255195,569152116,NaN,NaN,0.127369039393,0.991351697397,0.0128433408729,0.0288788584808,NaN,NaN,0.0878008428727,-0.352563954782,0.0194381194609,NaN,NaN,0.73623375,-4.05419385,-1.766961,NaN,4
1.56925519566938e+18,NaN,54727,NaN,1569255195,605640888,NaN,NaN,0.122350878058,0.991825005696,0.00997861259678,0.0348403215386,NaN,NaN,0.241389817049,-0.352563954782,-0.0503750506191,NaN,NaN,-0.32394285,4.2996051,-7.5979323,NaN,1
1.56925519571202e+18,NaN,54728,NaN,1569255195,668692111,NaN,NaN,0.122712087014,0.990160540072,0.0592707767873,0.0317934522161,NaN,NaN,-1.54408200775,0.289717209954,0.0194381194609,NaN,NaN,0,-3.1019982,-12.2116638,NaN,4
1.56925519575475e+18,NaN,54729,NaN,1569255195,711205959,NaN,NaN,0.118753908612,0.992438087153,0.0134206433554,0.0280006908779,NaN,NaN,2.10540145818,-0.0925098962343,-0.0538657091231,NaN,NaN,-0.392658,-3.11181465,-10.47415215,NaN,4
1.5692551958189e+18,NaN,54730,NaN,1569255195,753825902,NaN,NaN,0.113637297165,0.993173350855,0.000947721059137,0.0263127662769,NaN,NaN,0.632343569497,0.00348321262574,-0.0172137948311,NaN,NaN,-0.30430995,1.54118265,-9.64957035,NaN,4
1.56925519586073e+18,NaN,54731,NaN,1569255195,818053007,NaN,NaN,0.108270680902,0.993783299982,-0.00360156829593,0.0256756896495,NaN,NaN,0.162850000709,0.00173788337374,-0.00325116081513,NaN,NaN,-0.38284155,0.95219565,-9.78700065,NaN,4
1.569255195904e+18,NaN,54732,NaN,1569255195,859977960,NaN,NaN,0.102704314546,0.994370187888,-0.00621191417499,0.0253212427694,NaN,NaN,0.117471440157,0.00173788337374,-0.00674181931913,NaN,NaN,-0.4122909,-0.6871515,-9.98332965,NaN,4
1.56925519596669e+18,NaN,54733,NaN,1569255195,903114080,NaN,NaN,0.0971483453505,0.994930990829,-0.00616180169054,0.0252300353307,NaN,NaN,0.00227970952471,0.00348321262574,-0.00150583156313,NaN,NaN,-0.4319238,-0.1766961,-9.9538803,NaN,2
1.56925519601137e+18,NaN,54734,NaN,1569255195,965993881,NaN,NaN,0.0917380497121,0.995447809237,-0.00606480938918,0.0251198608281,NaN,NaN,0.000534380272707,0.00348321262574,0.000239497688873,NaN,NaN,-0.4515567,-0.14724675,-9.96369675,NaN,2
1.5692551960518e+18,NaN,54735,NaN,1569255196,9999990,NaN,NaN,0.0862854441538,0.995936180373,-0.00582830061887,0.0251391659371,NaN,NaN,-0.00470160748329,-7.44587825836e-06,-0.00150583156313,NaN,NaN,-0.4515567,-0.0785316,-9.64957035,NaN,2
1.56925519611622e+18,NaN,54736,NaN,1569255196,51101922,NaN,NaN,0.080905743973,0.996394332393,-0.00556122940405,0.0249332648278,NaN,NaN,-0.00638246736794,0.00863200837792,0.000237102711984,NaN,NaN,-0.36320865,-0.10798095,-9.8557158,NaN,2
1.56925519615934e+18,NaN,54737,NaN,1569255196,114828109,NaN,NaN,0.0756527384638,0.996807190851,-0.00574648191129,0.0248810244302,NaN,NaN,0.00758016664806,-9.46378820758e-05,0.000237102711984,NaN,NaN,-0.38284155,-0.2355948,-9.9146145,NaN,2
1.56925519620093e+18,NaN,54738,NaN,1569255196,157680988,NaN,NaN,0.0703762661697,0.997195465074,-0.00562044003614,0.0248353830009,NaN,NaN,-0.00114647961194,0.00165069136992,0.000237102711984,NaN,NaN,-0.42210735,-0.14724675,-9.9342474,NaN,2
1.56925519626463e+18,NaN,54739,NaN,1569255196,199894905,NaN,NaN,0.065244102609,0.997546125164,-0.00558113896366,0.0247747075403,NaN,NaN,0.00234417889206,0.00165069136992,0.000237102711984,NaN,NaN,-0.40247445,-0.16687965,-9.9146145,NaN,2
1.56925519632859e+18,NaN,54740,NaN,1569255196,263511896,NaN,NaN,0.0600828914543,0.99787279638,-0.00544075517021,0.0247047886686,NaN,NaN,-0.00113501481582,0.00163418445622,0.000234731684864,NaN,NaN,-0.40247445,-0.1374303,-9.8949816,NaN,2
1.56925519634903e+18,NaN,54741,NaN,1569255196,327765941,NaN,NaN,0.0549559430356,0.99816914074,-0.00530537536128,0.0246994694551,NaN,NaN,-0.00113501481582,-0.000111144795775,0.000234731684864,NaN,NaN,-0.42210735,-0.1374303,-9.90479805,NaN,2
1.56925519641484e+18,NaN,54742,NaN,1569255196,348337888,NaN,NaN,0.0498056026814,0.998442037237,-0.00525002113273,0.0246036074154,NaN,NaN,0.00235564368818,0.00512484296022,0.000234731684864,NaN,NaN,-0.36320865,-0.18651255,-9.94406385,NaN,2
1.56925519645577e+18,NaN,54743,NaN,1569255196,413764953,NaN,NaN,0.0447928206444,0.998678375747,-0.00524678025871,0.024649063487,NaN,NaN,0.0023320872513,-0.0018379093073,0.000232384368015,NaN,NaN,-0.42210735,-0.16687965,-9.8753487,NaN,2
1.56925519649856e+18,NaN,54744,NaN,1569255196,454905986,NaN,NaN,0.0398074940643,0.998883918528,-0.00465346798525,0.0249925180394,NaN,NaN,-0.0186118637727,-0.0105645555673,0.000232384368015,NaN,NaN,-0.6282528,0.1177974,-9.4434249,NaN,2
1.56925519656223e+18,NaN,54745,NaN,1569255196,497539997,NaN,NaN,0.0347697355483,0.999082400109,-0.00460605567085,0.0245806333003,NaN,NaN,0.0023320872513,0.0156153832127,-0.00151294488398,NaN,NaN,-0.2944935,-0.1570632,-9.86553225,NaN,2
1.56925519660464e+18,NaN,54746,NaN,1569255196,561284065,NaN,NaN,0.0298606395009,0.99923885207,-0.00388605857698,0.0247983320326,NaN,NaN,-0.0168665345207,-0.0053285678113,0.000232384368015,NaN,NaN,-0.50063895,0.06871515,-9.74773485,NaN,2
1.56925519668974e+18,NaN,54747,NaN,1569255196,603677034,NaN,NaN,0.025047866185,0.999369936519,-0.00389608645783,0.0248426023722,NaN,NaN,0.0023320872513,-0.0035832385593,0.000232384368015,NaN,NaN,-0.392658,-0.2159619,-9.66920325,NaN,2
1.56925519671788e+18,NaN,54748,NaN,1569255196,688524007,NaN,NaN,0.0202763137187,0.99946166982,-0.00312471760335,0.0256023007335,NaN,NaN,-0.0151212052687,-0.0158005433233,0.000232384368015,NaN,NaN,-0.61843635,0,-9.8360829,NaN,2
1.56925519675428e+18,NaN,54749,NaN,1569255196,716897964,NaN,NaN,0.0156475614568,0.999542075883,-0.00292132459062,0.0257343782269,NaN,NaN,-0.0081398882607,-0.0053285678113,0.000232384368015,NaN,NaN,-0.59880345,-0.10798095,-10.02259545,NaN,2
1.56925519681673e+18,NaN,54750,NaN,1569255196,753273963,NaN,NaN,0.0110477865204,0.999596133423,-0.00283854202044,0.0260280452204,NaN,NaN,-0.0011585712527,-0.0140552140713,0.000232384368015,NaN,NaN,-0.5693541,-0.1570632,-9.9538803,NaN,2
1.56925519685976e+18,NaN,54751,NaN,1569255196,815656900,NaN,NaN,0.00634795637494,0.999629611607,-0.0027942150536,0.0263160675295,NaN,NaN,0.000580890419304,-0.0104589100116,0.000230060524335,NaN,NaN,-0.42210735,-0.16687965,-9.8949816,NaN,2
1.56925519690354e+18,NaN,54752,NaN,1569255196,858438968,NaN,NaN,0.00177308185373,0.999645169357,-0.00263518627647,0.0264470670306,NaN,NaN,-0.0029097680847,-0.00522292225562,0.000230060524335,NaN,NaN,-0.53990475,-0.0981645,-9.94406385,NaN,2
1.56925519696848e+18,NaN,54753,NaN,1569255196,902698040,NaN,NaN,-0.00263073933584,0.999639857932,-0.00249358770957,0.0265897661755,NaN,NaN,-0.00288067040385,-0.00517069303307,0.000227759919092,NaN,NaN,-0.55953765,-0.12761385,-9.88516515,NaN,2
1.56925519701082e+18,NaN,54754,NaN,1569255196,966799974,NaN,NaN,-0.00713533042077,0.999615618576,-0.00236601740548,0.02668527911,NaN,NaN,-0.00112398774033,-0.00339111014326,0.000225482319901,NaN,NaN,-0.48100605,-0.10798095,-9.8949816,NaN,2
1.5692551970509e+18,NaN,54755,NaN,1569255197,7656097,NaN,NaN,-0.0115500823442,0.999572480929,-0.00215370371171,0.0267733547981,NaN,NaN,-0.00629637574137,-0.0050850750013,0.000223227496702,NaN,NaN,-0.48100605,-0.1177974,-9.8949816,NaN,2
1.56925519713558e+18,NaN,54756,NaN,1569255197,49820899,NaN,NaN,-0.0158547135769,0.999512664982,-0.00209657880642,0.0268079270962,NaN,NaN,0.000684941266633,-0.0033397457493,0.000223227496702,NaN,NaN,-0.44174025,-0.1374303,-9.92443095,NaN,2
1.56925519715706e+18,NaN,54757,NaN,1569255197,134877920,NaN,NaN,-0.0199041230948,0.999446704465,-0.00226520866825,0.0265514528302,NaN,NaN,0.00592092902263,0.0053869005107,0.0072045445047,NaN,NaN,-0.44174025,-0.12761385,-9.9146145,NaN,4
1.56925519719951e+18,NaN,54758,NaN,1569255197,156245946,NaN,NaN,-0.0229040685867,0.999384074763,-0.00238553554402,0.0264798786279,NaN,NaN,0.0146475752826,0.000150912754695,0.125886933641,NaN,NaN,-0.3533922,-0.28467705,-10.02259545,NaN,4
1.56925519726337e+18,NaN,54759,NaN,1569255197,198605060,NaN,NaN,-0.0276434974471,0.999249932936,0.000624198067111,0.0271112329678,NaN,NaN,-0.142432057397,-0.0347556722853,-0.0277020405353,NaN,NaN,-0.46137315,-0.22577835,-9.70846905,NaN,4
1.56925519730581e+18,NaN,54760,NaN,1569255197,262520074,NaN,NaN,-0.0319331324005,0.999119388208,0.000745688766789,0.0272060124005,NaN,NaN,-0.00280571723737,-0.0050850750013,-0.0050127602593,NaN,NaN,-0.4122909,-0.1570632,-9.8949816,NaN,4
1.56925519736926e+18,NaN,54761,NaN,1569255197,304838895,NaN,NaN,-0.0360809889504,0.998977231375,0.000270030461753,0.027250330541,NaN,NaN,0.0303555385506,-0.0033397457493,-0.0050127602593,NaN,NaN,-0.4515567,0.0981645,-9.86553225,NaN,4
1.56925519741569e+18,NaN,54762,NaN,1569255197,368541955,NaN,NaN,-0.0495911955804,0.99839145642,0.00270615685945,0.0273475736446,NaN,NaN,-0.0918175090894,-0.0085757335053,-0.305209391603,NaN,NaN,-0.392658,-0.61843635,-9.88516515,NaN,4
1.56925519745459e+18,NaN,54763,NaN,1569255197,414063930,NaN,NaN,-0.0496304538783,0.997918766999,0.032199803659,0.0256539502528,NaN,NaN,-1.30831199773,0.0036415712587,0.0927256778527,NaN,NaN,-0.3730251,0.00981645,-10.10112705,NaN,4
1.56925519752476e+18,NaN,54764,NaN,1569255197,453641891,NaN,NaN,-0.051352247274,0.997841252165,0.031908367876,0.0256444582208,NaN,NaN,0.00941158752663,-0.0015944164973,0.000223227496702,NaN,NaN,-0.5300883,0.30430995,-9.7968171,NaN,4
1.56925519756114e+18,NaN,54765,NaN,1569255197,523855924,NaN,NaN,-0.051898690058,0.997563781274,0.0392623185469,0.0251296359501,NaN,NaN,-0.212245227477,0.0018962420067,0.0072045445047,NaN,NaN,-0.46137315,0.55953765,-9.8557158,NaN,4
1.56925519760356e+18,NaN,54766,NaN,1569255197,559967994,NaN,NaN,-0.054082327245,0.99792998558,0.0231312938162,0.0259959420985,NaN,NaN,0.920473457071,-0.0068304042533,-0.0242113820313,NaN,NaN,-0.40247445,1.177974,-9.5023236,NaN,4
1.56925519766749e+18,NaN,54767,NaN,1569255197,602533102,NaN,NaN,-0.0553819932662,0.997649327529,0.0316278075715,0.0250666290164,NaN,NaN,-0.444374017993,0.0193495345267,0.0054592152527,NaN,NaN,-0.5104554,-1.32522075,-10.27782315,NaN,4
1.56925519770973e+18,NaN,54768,NaN,1569255197,666217088,NaN,NaN,-0.0548495782267,0.997329976179,0.0417652811013,0.0240853415468,NaN,NaN,-0.322200970353,0.0123682175187,0.0124405322607,NaN,NaN,-0.46137315,0.6478857,-9.7379184,NaN,4
1.56925519775219e+18,NaN,54769,NaN,1569255197,708625078,NaN,NaN,-0.0546130195022,0.997349454568,0.0416025266937,0.0240979946551,NaN,NaN,-0.0150230220014,0.000150912754695,-0.0032674310073,NaN,NaN,-0.50063895,-0.12761385,-9.84589935,NaN,4
1.56925519781569e+18,NaN,54770,NaN,1569255197,751285076,NaN,NaN,-0.0542965699539,0.997416239315,0.0404420116678,0.0240243987201,NaN,NaN,0.0286102092986,0.0036415712587,0.000223227496702,NaN,NaN,-0.38284155,-0.28467705,-10.0324119,NaN,2
1.56925519785857e+18,NaN,54771,NaN,1569255197,814784049,NaN,NaN,-0.053730908886,0.997382330236,0.0418868907862,0.0242273635267,NaN,NaN,-0.0656375703094,-0.0068304042533,0.000223227496702,NaN,NaN,-0.59880345,-0.44174025,-9.86553225,NaN,2
1.56925519791046e+18,NaN,54772,NaN,1569255197,857176065,NaN,NaN,-0.0529919987206,0.997288866197,0.0449935409084,0.0241318608364,NaN,NaN,-0.168611996177,-0.0033397457493,0.000223227496702,NaN,NaN,-0.4515567,0,-9.80663355,NaN,2
1.56925519796485e+18,NaN,54773,NaN,1569255197,906516075,NaN,NaN,-0.0533186857649,0.99679554164,0.0543250416464,0.0245877157319,NaN,NaN,-0.383287494173,-0.0103210627573,-0.0887885643553,NaN,NaN,-1.60008135,1.0405437,-10.3858041,NaN,4
1.56925519800802e+18,NaN,54774,NaN,1569255197,964145898,NaN,NaN,-0.0521594781612,0.988657377101,0.137921513595,0.0285242989288,NaN,NaN,-2.95415748237,-0.268629792053,-0.111477844631,NaN,NaN,-0.2944935,0.5497212,-10.9551582,NaN,4
1.56925519804923e+18,NaN,54775,NaN,1569255198,6345987,NaN,NaN,-0.0628265711318,0.964289605339,0.255688985493,0.0286621997294,NaN,NaN,-5.75890159033,-0.139475427405,-0.701399131807,NaN,NaN,-1.9043913,3.56337135,-11.12203785,NaN,4
1.5692551981135e+18,NaN,54776,NaN,1569255198,48603057,NaN,NaN,-0.0908926815006,0.926137259849,0.365722081936,0.0159892199095,NaN,NaN,-5.66290848147,0.743661174107,-1.37509622308,NaN,NaN,-0.87366405,5.4579462,-7.72554615,NaN,4
1.56925519815538e+18,NaN,54777,NaN,1569255198,112474918,NaN,NaN,-0.0919754210834,0.85331849895,0.511914849426,-0.0364862741902,NaN,NaN,-5.31733328958,1.29169455923,0.291693212581,NaN,NaN,-0.46137315,9.031134,-8.1083877,NaN,1
1.56925519821952e+18,NaN,54778,NaN,1569255198,154587984,NaN,NaN,-0.0621683651334,0.754482480427,0.648546332239,-0.0792397377875,NaN,NaN,-8.3489702003,0.953100684347,1.49771572571,NaN,NaN,-0.3730251,10.2287409,-4.2407064,NaN,4
1.56925519828414e+18,NaN,54779,NaN,1569255198,218781948,NaN,NaN,-0.00967259396972,0.600366121012,0.781321218257,-0.170305946954,NaN,NaN,-6.6874167524,1.48717143546,2.5309506429,NaN,NaN,0.4515567,6.1843635,0.93256275,NaN,4
1.5692551983043e+18,NaN,54780,NaN,1569255198,283129930,NaN,NaN,0.0823365935547,0.464120502126,0.838713548899,-0.272713086891,NaN,NaN,-4.90369025685,0.607525492451,4.00575386084,NaN,NaN,5.11437045,4.7315289,5.4383133,NaN,4
1.56925519836854e+18,NaN,54781,NaN,1569255198,303519010,NaN,NaN,0.123712825599,0.347815473545,0.886501890263,-0.278987332519,NaN,NaN,-12.862391646,0.869324880251,2.62694375176,NaN,NaN,2.66025795,7.84334355,3.2786943,NaN,4
1.56925519841229e+18,NaN,54782,NaN,1569255198,367528915,NaN,NaN,0.223674812445,-0.041298153068,0.941970770243,-0.246890884478,NaN,NaN,-13.4697662257,0.542948310127,1.37379734882,NaN,NaN,7.96114095,-2.9253021,19.4758368,NaN,4
1.5692551984536e+18,NaN,54783,NaN,1569255198,410850048,NaN,NaN,0.168096419952,0.0693867123557,0.945117550036,-0.271444090674,NaN,NaN,5.82310332594,1.13636025581,0.166029506437,NaN,NaN,2.30686575,3.7498839,12.73193565,NaN,4
1.56925519851713e+18,NaN,54784,NaN,1569255198,452675104,NaN,NaN,0.137495580737,0.0421793314458,0.961164705596,-0.235538272883,NaN,NaN,-0.905140940521,1.81703866409,-1.6072250136,NaN,NaN,4.319238,-8.3636154,4.908225,NaN,4
1.56925519855957e+18,NaN,54785,NaN,1569255198,516410112,NaN,NaN,0.136617515947,0.0630599523874,0.960057718214,-0.235898864855,NaN,NaN,0.677872691043,-0.139475427405,0.0595644220647,NaN,NaN,2.30686575,0.6871515,10.35635475,NaN,4
1.56925519860214e+18,NaN,54786,NaN,1569255198,558705091,NaN,NaN,0.135586029559,0.0850789681058,0.960047746494,-0.229535013074,NaN,NaN,1.01123057817,-0.172636683193,-0.207470953491,NaN,NaN,4.0051116,2.16943545,8.92315305,NaN,4
1.56925519866569e+18,NaN,54787,NaN,1569255198,601279020,NaN,NaN,0.124100645885,0.135969742531,0.957989027487,-0.219927901872,NaN,NaN,2.42494727229,-0.0190477090173,-0.526866206607,NaN,NaN,3.36704235,2.7093402,7.6371981,NaN,4
1.56925519870931e+18,NaN,54788,NaN,1569255198,665045976,NaN,NaN,0.140240112445,0.197144288263,0.945218158368,-0.219156276567,NaN,NaN,1.84375263138,-0.912656286041,0.0682910683247,NaN,NaN,2.4933783,2.05163805,5.7328068,NaN,4
1.56925519875146e+18,NaN,54789,NaN,1569255198,707936048,NaN,NaN,0.155179201016,0.242560479762,0.930058814565,-0.228198226723,NaN,NaN,2.17711051851,-1.08544388199,0.651231038493,NaN,NaN,2.159619,3.2786943,9.23727945,NaN,4
1.56925519881468e+18,NaN,54790,NaN,1569255198,750062942,NaN,NaN,0.118678699524,0.334950006518,0.913570983148,-0.197767333406,NaN,NaN,4.58566488627,0.291620897839,-2.02435870482,NaN,NaN,4.515567,9.23727945,9.00168465,NaN,4
1.56925519885663e+18,NaN,54791,NaN,1569255198,813724994,NaN,NaN,0.0754180542152,0.397124132985,0.907268520594,-0.116053313772,NaN,NaN,1.89087652118,0.115342643387,-2.85862608728,NaN,NaN,3.48483975,5.07510465,5.09473755,NaN,4
1.56925519890663e+18,NaN,54792,NaN,1569255198,855891942,NaN,NaN,0.071503103065,0.436992187362,0.889863809836,-0.109852329885,NaN,NaN,2.10380668993,0.0263308515347,-0.179545685459,NaN,NaN,2.58172635,7.5586665,5.15363625,NaN,1
1.56925519896563e+18,NaN,54793,NaN,1569255198,905761957,NaN,NaN,0.0675051717765,0.474929738448,0.87288489622,-0.089200634926,NaN,NaN,1.63954910889,-0.202307280477,-0.680455180783,NaN,NaN,2.159619,8.41269765,3.7106181,NaN,4
1.56925519900559e+18,NaN,54794,NaN,1569255198,962646961,NaN,NaN,0.0552300856514,0.506370128712,0.856526186797,-0.0830772033616,NaN,NaN,1.26779397822,0.356198080163,-0.286010769831,NaN,NaN,1.7865939,9.00168465,2.38539735,NaN,1
1.56925519904851e+18,NaN,54795,NaN,1569255199,4815101,NaN,NaN,0.0496222849242,0.527062187419,0.844952101702,-0.0761513313172,NaN,NaN,1.15958356459,0.246242337287,-0.259830831051,NaN,NaN,1.44301815,9.9538803,3.8480484,NaN,1
1.56925519911277e+18,NaN,54796,NaN,1569255199,47564029,NaN,NaN,0.0439949245287,0.532818759074,0.84223437727,-0.069353228749,NaN,NaN,0.318334865131,0.330018141383,-0.258085501799,NaN,NaN,1.2761385,9.53177295,2.99401725,NaN,1
1.56925519915691e+18,NaN,54797,NaN,1569255199,111907005,NaN,NaN,0.0376019052863,0.557756802036,0.82555789265,-0.0771207649405,NaN,NaN,0.974578663883,0.426011250243,0.193954774469,NaN,NaN,1.3154043,9.3648933,2.93511855,NaN,1
1.56925519921882e+18,NaN,54798,NaN,1569255199,156188964,NaN,NaN,0.0295733824361,0.572859259085,0.81590561644,-0.0724962715829,NaN,NaN,0.850660286991,0.417284603983,-0.231905563019,NaN,NaN,0.6086199,9.45324135,2.44429605,NaN,1
1.56925519926298e+18,NaN,54799,NaN,1569255199,217741966,NaN,NaN,0.0209565054052,0.577297756561,0.813801862573,-0.063361294361,NaN,NaN,0.176963195719,0.268931617563,-0.313936037863,NaN,NaN,0.59880345,9.02131755,2.0025558,NaN,1
1.56925519930333e+18,NaN,54800,NaN,1569255199,261787891,NaN,NaN,0.0215925504746,0.585713297839,0.808190886929,-0.0574559377542,NaN,NaN,0.457961205291,0.106615997127,-0.0800619180953,NaN,NaN,0.73623375,9.0703998,1.8258597,NaN,5
1.56925519938835e+18,NaN,54801,NaN,1569255199,302531003,NaN,NaN,0.0225245372712,0.593767532318,0.802551163889,-0.0533328428414,NaN,NaN,0.482395814819,0.155485216183,-0.0102487480153,NaN,NaN,0.5693541,9.39434265,1.7473281,NaN,5
1.56925519941357e+18,NaN,54802,NaN,1569255199,387572050,NaN,NaN,0.0123566637895,0.598903635215,0.799724680186,-0.0400272967937,NaN,NaN,0.143801939931,0.162466533191,-0.340115976643,NaN,NaN,0.4515567,9.53177295,1.7276952,NaN,1
1.56925519945275e+18,NaN,54803,NaN,1569255199,412565946,NaN,NaN,0.0159037445856,0.604774064222,0.795429491202,-0.0358793349993,NaN,NaN,0.541737009387,0.0978893508667,0.125886933641,NaN,NaN,-0.6675186,10.04222835,1.1387082,NaN,5
1.56925519951527e+18,NaN,54804,NaN,1569255199,451280117,NaN,NaN,0.0175067732824,0.608041435853,0.793147873803,-0.0299261667512,NaN,NaN,0.194416488239,0.101380009371,-0.0905338936073,NaN,NaN,0.5104554,9.78700065,1.5313662,NaN,5
1.56925519955895e+18,NaN,54805,NaN,1569255199,514657020,NaN,NaN,0.0172105113631,0.609383520377,0.792330746615,-0.0238224969173,NaN,NaN,0.0338461970546,0.108361326379,-0.0940245521113,NaN,NaN,0.2159619,9.4826907,0.91292985,NaN,5
1.56925519960116e+18,NaN,54806,NaN,1569255199,557773113,NaN,NaN,0.0219412979765,0.615196947301,0.787929457712,-0.0147805664079,NaN,NaN,0.323570852887,-0.122022134885,-0.0992605398673,NaN,NaN,-0.18651255,9.7379184,1.56081555,NaN,5
1.56925519966448e+18,NaN,54807,NaN,1569255199,599965095,NaN,NaN,0.026082346077,0.617190747918,0.786367341456,-0.00465791796548,NaN,NaN,0.0879514038666,-0.132494110397,-0.146384429671,NaN,NaN,-0.8442147,9.6397539,0.8834805,NaN,5
1.56925519970695e+18,NaN,54808,NaN,1569255199,663647890,NaN,NaN,0.0308952301258,0.621267072583,0.782962278603,0.00654060884455,NaN,NaN,0.150783256939,-0.125512793389,-0.130676466403,NaN,NaN,0.1177974,9.84589935,1.28595495,NaN,5
1.56925519974949e+18,NaN,54809,NaN,1569255199,706091880,NaN,NaN,0.0335997824776,0.629033116815,0.776495281972,0.0156035138185,NaN,NaN,0.445743900527,-0.0522089648053,-0.196998977979,NaN,NaN,0.2944935,9.90479805,0.8245818,NaN,1
1.56925519981357e+18,NaN,54810,NaN,1569255199,748583078,NaN,NaN,0.0384499315823,0.639880145232,0.767043145673,0.0268293714911,NaN,NaN,0.644711435255,-0.202307280477,-0.207470953491,NaN,NaN,-0.67733505,10.27782315,0.6871515,NaN,1
1.56925519985603e+18,NaN,54811,NaN,1569255199,812602043,NaN,NaN,0.0349925453656,0.672378486505,0.737860105291,0.0473830948074,NaN,NaN,1.33237116054,-0.125512793389,-0.598424705939,NaN,NaN,-0.02944935,9.43360845,0.57917055,NaN,1
1.56925519989894e+18,NaN,54812,NaN,1569255199,854758977,NaN,NaN,0.0356638723983,0.673415321446,0.7362070159,0.0569132918265,NaN,NaN,0.0460635018186,-0.0085757335053,-0.296482745343,NaN,NaN,0.30430995,8.3832483,-0.63806925,NaN,1
1.5692551999627e+18,NaN,54813,NaN,1569255199,898008108,NaN,NaN,0.0390800912185,0.668653179101,0.739896342336,0.0626823351984,NaN,NaN,-0.299511690077,0.0053869005107,-0.0364286867953,NaN,NaN,-0.5104554,9.7771842,0.4122909,NaN,5
1.56925520000475e+18,NaN,54814,NaN,1569255199,961580038,NaN,NaN,0.040304584293,0.667811257825,0.739782102012,0.0715968291846,NaN,NaN,-0.0429482900334,-0.0103210627573,-0.155111075931,NaN,NaN,-0.61843635,9.94406385,0.3730251,NaN,5
1.56925520004677e+18,NaN,54815,NaN,1569255200,3648042,NaN,NaN,0.0425343297614,0.666151263113,0.740266973396,0.080237980675,NaN,NaN,-0.111016130861,-0.0469729770493,-0.184781673215,NaN,NaN,-0.85403115,9.9146145,0.4319238,NaN,1
1.56925520011209e+18,NaN,54816,NaN,1569255200,45938014,NaN,NaN,0.0457522683807,0.663385822485,0.741395588945,0.0903247538495,NaN,NaN,-0.173847983933,-0.134239439649,-0.191762990223,NaN,NaN,-1.1583411,9.80663355,0.3730251,NaN,1
1.56925520015346e+18,NaN,54817,NaN,1569255200,110560894,NaN,NaN,0.0394705575061,0.663932251995,0.738154378769,0.112978550868,NaN,NaN,0.00766625827463,-0.130748781145,-0.603660693695,NaN,NaN,-3.2786943,10.29745605,0.67733505,NaN,1
1.56925520021821e+18,NaN,54818,NaN,1569255200,152610063,NaN,NaN,0.0357497205929,0.661781781562,0.737645405225,0.129019716405,NaN,NaN,-0.165121337673,-0.0906062083493,-0.645548595743,NaN,NaN,-0.95219565,8.6581089,0.0785316,NaN,4
1.56925520026e+18,NaN,54819,NaN,1569255200,217500925,NaN,NaN,0.0339328298692,0.65600620404,0.739664388336,0.146290860772,NaN,NaN,-0.219226544485,-0.137730098153,-0.402947829715,NaN,NaN,-0.5104554,8.6777418,1.4921004,NaN,1
1.56925520030353e+18,NaN,54820,NaN,1569255200,258801937,NaN,NaN,0.0400209778803,0.656748068822,0.737807964405,0.15073056455,NaN,NaN,0.0687527820946,-0.0574449525613,0.0421111295447,NaN,NaN,-0.55953765,9.09984915,0.8638476,NaN,1
1.56925520036603e+18,NaN,54821,NaN,1569255200,301517009,NaN,NaN,0.0399074694202,0.650677386569,0.740394300197,0.163837153077,NaN,NaN,-0.357107555393,-0.153438061421,-0.385494537195,NaN,NaN,1.6687965,5.2419843,0.0785316,NaN,1
1.56925520040932e+18,NaN,54822,NaN,1569255200,364871025,NaN,NaN,0.0396229931778,0.637141773716,0.750022575032,0.173050615543,NaN,NaN,-0.557820419373,-0.0522089648053,-0.121949820143,NaN,NaN,1.2957714,5.56592715,0.12761385,NaN,1
1.56925520045105e+18,NaN,54823,NaN,1569255200,407449007,NaN,NaN,0.0265749198151,0.631378049666,0.751966458922,0.187621898222,NaN,NaN,-0.446119347245,0.258459642051,-0.821826850195,NaN,NaN,-2.93511855,6.03711675,-0.4908225,NaN,4
1.56925520053584e+18,NaN,54824,NaN,1569255200,449712038,NaN,NaN,0.0828379731836,0.64488630241,0.745772979372,0.145197074355,NaN,NaN,1.18401817412,-0.341933620637,3.17846779539,NaN,NaN,-11.8190058,19.60345065,3.38667525,NaN,4
1.56925520055723e+18,NaN,54825,NaN,1569255200,535029888,NaN,NaN,0.095238602533,0.656015595466,0.73427155227,0.146350383058,NaN,NaN,0.400365339975,-0.0801342328373,0.125886933641,NaN,NaN,-1.24668915,7.45068555,0.2355948,NaN,1
1.5692552006002e+18,NaN,54826,NaN,1569255200,556251049,NaN,NaN,0.103273793083,0.659014323921,0.730076410055,0.148401752045,NaN,NaN,0.515557070607,-0.129003451893,0.337071773133,NaN,NaN,-0.69696795,11.387082,0.1570632,NaN,1
1.56925520066373e+18,NaN,54827,NaN,1569255200,599164962,NaN,NaN,0.10618445508,0.659134595356,0.728390597871,0.153992154469,NaN,NaN,0.00243027051863,-0.0103210627573,-0.0713352718353,NaN,NaN,-0.9423792,9.43360845,-0.34357575,NaN,5
1.56925520070726e+18,NaN,54828,NaN,1569255200,662457942,NaN,NaN,0.112150823882,0.656121404438,0.728315662922,0.162736567752,NaN,NaN,-0.102289484601,-0.155183390673,-0.0416646745513,NaN,NaN,-0.8442147,9.94406385,-0.44174025,NaN,5
1.56925520075128e+18,NaN,54829,NaN,1569255200,705291032,NaN,NaN,0.117241574418,0.659238296912,0.721053109431,0.17816198947,NaN,NaN,0.271210975327,-0.399529485953,-0.411674475975,NaN,NaN,-0.1374303,12.172398,-5.13400335,NaN,1
1.56925520083441e+18,NaN,54830,NaN,1569255200,750422954,NaN,NaN,0.130138442603,0.678298811915,0.695067370871,0.199639819329,NaN,NaN,1.34982445306,-0.786992579897,-0.570499437907,NaN,NaN,-7.8138942,8.0298561,2.99401725,NaN,1
1.56925520086241e+18,NaN,54831,NaN,1569255200,832809925,NaN,NaN,0.155977689695,0.688467594539,0.67696587356,0.208327956893,NaN,NaN,0.534755692379,-0.462361339025,0.159048189429,NaN,NaN,-0.42210735,8.5010457,-1.8062268,NaN,1
1.56925520089751e+18,NaN,54832,NaN,1569255200,861720085,NaN,NaN,0.163569277929,0.69043309132,0.672510570086,0.210420462054,NaN,NaN,0.412582644739,-0.115040817877,0.169520164941,NaN,NaN,-0.392658,10.88644305,2.1399861,NaN,1
1.56925520096124e+18,NaN,54833,NaN,1569255200,896538972,NaN,NaN,0.168092965843,0.695122224311,0.666528878302,0.210449762396,NaN,NaN,0.426545278755,0.117087972639,0.0839990315927,NaN,NaN,-1.4528346,8.56976085,-1.0405437,NaN,1
1.56925520102478e+18,NaN,54834,NaN,1569255200,960376977,NaN,NaN,0.181927386065,0.699828336526,0.658388966382,0.208965773611,NaN,NaN,0.349750791667,-0.111550159373,0.265513273801,NaN,NaN,-1.4921004,9.1096656,-1.3154043,NaN,1
1.56925520106726e+18,NaN,54835,NaN,1569255201,23714065,NaN,NaN,0.19127984233,0.699444014362,0.654825699068,0.213057261157,NaN,NaN,0.0949327208746,-0.151692732169,0.0962163363567,NaN,NaN,-0.9227463,11.04350625,-1.2565056,NaN,1
1.56925520111518e+18,NaN,54836,NaN,1569255201,66104888,NaN,NaN,0.195534991207,0.700277775216,0.650766604202,0.218814834069,NaN,NaN,0.115876671899,-0.120276805633,-0.0887885643553,NaN,NaN,-0.97182855,10.4250699,-1.6295307,NaN,1
1.56925520157868e+18,NaN,54837,NaN,1569255201,113714933,NaN,NaN,0.199543091787,0.702037477383,0.643890045048,0.229633500948,NaN,NaN,0.164745890955,-0.266884462801,-0.224924246011,NaN,NaN,-2.8075047,10.0716777,-1.73751165,NaN,1
1.56925520159924e+18,NaN,54838,NaN,1569255201,577132940,NaN,NaN,0.174551605465,0.746777296242,0.550365866219,0.330080020826,NaN,NaN,0.295645584855,-0.258157816541,-0.495450280071,NaN,NaN,-1.63934715,8.245818,-2.0418216,NaN,1
1.56925520161761e+18,NaN,54839,NaN,1569255201,598149061,NaN,NaN,0.178903235205,0.741513266958,0.552737482235,0.335608377563,NaN,NaN,-0.507205871065,-0.410001461465,0.120650945885,NaN,NaN,-1.0405437,7.1071098,-1.766961,NaN,1
1.56925520164693e+18,NaN,54840,NaN,1569255201,613794088,NaN,NaN,0.18190102918,0.738611392296,0.552748207662,0.34034489225,NaN,NaN,-0.283803726809,-0.329716315873,-0.101005869119,NaN,NaN,-2.22833415,10.96497465,-0.4122909,NaN,1
1.56925520168461e+18,NaN,54841,NaN,1569255201,645598888,NaN,NaN,0.192971558234,0.737191026933,0.548087730465,0.344835043515,NaN,NaN,0.306117560367,-0.462361339025,0.204426749981,NaN,NaN,-1.67861295,8.5992102,-0.83439825,NaN,1
1.56925520171432e+18,NaN,54842,NaN,1569255201,683623075,NaN,NaN,0.20089757546,0.731440244303,0.549692546033,0.349962052262,NaN,NaN,-0.166866666925,-0.340188291385,0.169520164941,NaN,NaN,-1.16815755,10.25819025,-0.65770215,NaN,1
1.56925520174787e+18,NaN,54843,NaN,1569255201,713177919,NaN,NaN,0.207512097133,0.726255891625,0.552061872483,0.353155487534,NaN,NaN,-0.248897141769,-0.280847096817,0.228861359509,NaN,NaN,-0.7067844,9.39434265,-0.97182855,NaN,1
1.56925520178037e+18,NaN,54844,NaN,1569255201,746233940,NaN,NaN,0.212767417896,0.71889495009,0.556603931351,0.357927562813,NaN,NaN,-0.400740786693,-0.287828413825,0.146830884665,NaN,NaN,0.0392658,9.620121,0.36320865,NaN,5
1.56925520310722e+18,NaN,54845,NaN,1569255201,779429912,NaN,NaN,0.213652871788,0.71191891112,0.562575252337,0.361984806069,NaN,NaN,-0.552584431617,-0.0888608790973,0.000223227496702,NaN,NaN,0.38284155,9.17838075,-0.10798095,NaN,5
1.56925520314985e+18,NaN,54846,NaN,1569255203,106086969,NaN,NaN,0.230681092318,0.618883424632,0.622759137978,0.419452734438,NaN,NaN,-0.151158703657,-0.102823513113,0.0316391540327,NaN,NaN,-0.3533922,7.3034388,5.6150094,NaN,1
1.56925520321687e+18,NaN,54847,NaN,1569255203,148817062,NaN,NaN,0.232562951444,0.614476246335,0.624806743241,0.421841142975,NaN,NaN,-0.0778548750734,-0.0155570505133,0.0473471173007,NaN,NaN,0.04908225,7.27398945,6.31197735,NaN,1
1.56925520325659e+18,NaN,54848,NaN,1569255203,213030099,NaN,NaN,0.23433133432,0.606419231715,0.631645366245,0.422337154964,NaN,NaN,-0.203518581217,0.0141135467707,0.157302860177,NaN,NaN,0.10798095,7.21509075,6.3217938,NaN,1
1.56925520329921e+18,NaN,54849,NaN,1569255203,254940032,NaN,NaN,0.233787549368,0.599852337978,0.637105473104,0.423812659702,NaN,NaN,-0.278567739053,0.0769453998427,0.106688311869,NaN,NaN,0.02944935,7.25435655,6.84206565,NaN,1
1.569255203468e+18,NaN,54850,NaN,1569255203,297569990,NaN,NaN,0.238393093922,0.599496410126,0.635481760094,0.424188306775,NaN,NaN,0.220596427019,-0.0068304042533,0.0857443608447,NaN,NaN,-0.42210735,7.52921715,6.68500245,NaN,1
1.56925520349488e+18,NaN,54851,NaN,1569255203,467278003,NaN,NaN,0.25877019585,0.597230826769,0.625677046427,0.429978556292,NaN,NaN,0.164745890955,-0.193580634217,0.0578190928127,NaN,NaN,-0.4711896,7.50958425,6.72426825,NaN,1
1.56925520350357e+18,NaN,54852,NaN,1569255203,490025997,NaN,NaN,0.26210854265,0.593959547353,0.625839071215,0.4322460236,NaN,NaN,0.0809700868586,-0.135984768901,0.120650945885,NaN,NaN,-0.3730251,7.58811585,6.60647085,NaN,1
1.56925520353676e+18,NaN,54853,NaN,1569255203,502382040,NaN,NaN,0.264215579958,0.590059556954,0.626815933845,0.434881169554,NaN,NaN,-0.0778548750734,-0.169146024689,0.0909803486007,NaN,NaN,0.38284155,7.15619205,6.50830635,NaN,1
1.56925520357031e+18,NaN,54854,NaN,1569255203,536134004,NaN,NaN,0.266067864208,0.583029044707,0.629666847294,0.439095304099,NaN,NaN,-0.236679837005,-0.163910036933,0.0630550805687,NaN,NaN,0.4711896,6.8911479,6.5966544,NaN,1
1.56925520361885e+18,NaN,54855,NaN,1569255203,569521903,NaN,NaN,0.267437211576,0.579163988104,0.629379098119,0.443766113621,NaN,NaN,-0.0359669730254,-0.135984768901,-0.0887885643553,NaN,NaN,0.04908225,7.47031845,6.9500466,NaN,1
1.56925520366071e+18,NaN,54856,NaN,1569255203,617053031,NaN,NaN,0.271096660065,0.573760655213,0.626522897693,0.452520021763,NaN,NaN,-0.0150230220014,-0.320989669613,-0.139403112663,NaN,NaN,-0.2748606,7.9120587,6.84206565,NaN,1
1.56925520378701e+18,NaN,54857,NaN,1569255203,659101963,NaN,NaN,0.273331341086,0.567191634439,0.62707814418,0.458646518459,NaN,NaN,-0.147668045153,-0.235468536265,-0.0242113820313,NaN,NaN,-0.48100605,7.56848295,6.35124315,NaN,1
1.5692552037885e+18,NaN,54858,NaN,1569255203,786025047,NaN,NaN,0.27650623569,0.558114831192,0.63121378348,0.462191839362,NaN,NaN,-0.0865815213334,-0.0679169280733,0.0630550805687,NaN,NaN,-0.3730251,7.0285782,6.23344575,NaN,1
1.56925520382571e+18,NaN,54859,NaN,1569255203,787940025,NaN,NaN,0.27721514965,0.555310626548,0.631888655245,0.464218263556,NaN,NaN,-0.0359669730254,0.0996346801187,0.0997069948607,NaN,NaN,0.00981645,6.5377557,6.54757215,NaN,1
1.56925520385569e+18,NaN,54860,NaN,1569255203,824273109,NaN,NaN,0.277305103159,0.553049676473,0.635103803684,0.462472803158,NaN,NaN,-0.0150230220014,0.195627788979,0.179992140453,NaN,NaN,-0.10798095,6.58683795,6.86169855,NaN,1
1.56925520393634e+18,NaN,54861,NaN,1569255203,854721069,NaN,NaN,0.278339086081,0.550630844912,0.637246543858,0.461789852782,NaN,NaN,0.0146475752826,0.125814618899,0.185228128209,NaN,NaN,-0.3730251,7.0089453,6.9107808,NaN,1
1.56925520395927e+18,NaN,54862,NaN,1569255203,935260057,NaN,NaN,0.275561287993,0.545156171425,0.647858317744,0.455137699435,NaN,NaN,-0.161630679169,0.214826410751,0.230606688761,NaN,NaN,-0.20614545,6.88133145,6.90096435,NaN,1
1.56925520400035e+18,NaN,54863,NaN,1569255203,957954883,NaN,NaN,0.274504058254,0.540993451398,0.65229696394,0.454403211236,NaN,NaN,-0.273331751297,0.289875568587,0.263767944549,NaN,NaN,0.38284155,6.675186,6.86169855,NaN,1
1.56925520406363e+18,NaN,54864,NaN,1569255203,999259948,NaN,NaN,0.272755403629,0.538369304928,0.658433257891,0.449698372474,NaN,NaN,-0.104034813853,0.349216763155,0.258531956793,NaN,NaN,0.9620121,6.5573886,7.11692625,NaN,1
1.569255204107e+18,NaN,54865,NaN,1569255204,62755107,NaN,NaN,0.271205701934,0.532640536396,0.669387634008,0.441204852266,NaN,NaN,-0.175593313185,0.286384910083,0.347543748645,NaN,NaN,1.0601766,6.4592241,7.4212362,NaN,1
1.5692552041696e+18,NaN,54866,NaN,1569255204,105209112,NaN,NaN,0.272693471367,0.527743858012,0.674369558033,0.438577690042,NaN,NaN,-0.104034813853,0.120578631143,0.289947883329,NaN,NaN,0.6675186,6.7537176,7.3427046,NaN,1
1.56925520421342e+18,NaN,54867,NaN,1569255204,168801069,NaN,NaN,0.279288166428,0.526230043711,0.672336954998,0.439366680727,NaN,NaN,0.161255232451,-0.102823513113,0.0857443608447,NaN,NaN,0.3730251,6.8322492,7.37215395,NaN,1
1.56925520425511e+18,NaN,54868,NaN,1569255204,211994886,NaN,NaN,0.282692101236,0.523417822743,0.671288204575,0.442143760706,NaN,NaN,0.0722434405986,-0.120276805633,0.0281484955287,NaN,NaN,0.1177974,7.11692625,6.9893124,NaN,1
1.56925520432531e+18,NaN,54869,NaN,1569255204,253882884,NaN,NaN,0.285689642582,0.520223835232,0.670659512234,0.444931913925,NaN,NaN,0.0390821848106,-0.116786147129,0.0264031662767,NaN,NaN,0.34357575,6.9696795,6.6162873,NaN,1
1.56925520438268e+18,NaN,54870,NaN,1569255204,323899984,NaN,NaN,0.288902259134,0.522908030119,0.667957587191,0.443773972219,NaN,NaN,0.204888463751,0.0437841440547,0.0194218492687,NaN,NaN,0.4122909,6.95986305,6.7733505,NaN,1
1.56925520440351e+18,NaN,54871,NaN,1569255204,381802082,NaN,NaN,0.29352804754,0.522523734162,0.665309300351,0.445167123013,NaN,NaN,0.178708524971,-0.0731529158293,0.0141858615127,NaN,NaN,0.785316,6.60647085,6.84206565,NaN,1
1.56925520451108e+18,NaN,54872,NaN,1569255204,402534008,NaN,NaN,0.29488460182,0.519790263658,0.664805126568,0.448213450384,NaN,NaN,0.0547901480786,-0.122022134885,-0.0730806010873,NaN,NaN,0.75586665,6.41014185,6.72426825,NaN,1
1.5692552045129e+18,NaN,54873,NaN,1569255204,509053945,NaN,NaN,0.303251054205,0.52150044499,0.649892629247,0.462293904837,NaN,NaN,0.204888463751,-0.265139133549,-0.230160233767,NaN,NaN,0.6478857,6.42977475,6.54757215,NaN,1
1.56925520455263e+18,NaN,54874,NaN,1569255204,511698007,NaN,NaN,0.304112246526,0.519073766895,0.649879183253,0.464473048959,NaN,NaN,0.218851097767,-0.322734998865,-0.272048135815,NaN,NaN,0.6675186,6.7929834,6.23344575,NaN,1
1.56925520461602e+18,NaN,54875,NaN,1569255204,551770925,NaN,NaN,0.308169859166,0.517547418535,0.645302946537,0.469851162242,NaN,NaN,0.187435171231,-0.263393804297,-0.156856405183,NaN,NaN,0.588987,7.2052743,6.54757215,NaN,1
1.56925520466385e+18,NaN,54876,NaN,1569255204,614871025,NaN,NaN,0.309293118219,0.511875651798,0.644459401722,0.476437995599,NaN,NaN,-0.0848361920814,-0.155183390673,-0.0748259303393,NaN,NaN,0.4711896,7.43105265,6.68500245,NaN,1
1.56925520474848e+18,NaN,54877,NaN,1569255204,662295103,NaN,NaN,0.312926172206,0.505893484726,0.642642300283,0.48286630318,NaN,NaN,-0.0499296070414,-0.294809730833,-0.0573726378193,NaN,NaN,0.5104554,7.460502,6.64573665,NaN,1
1.56925520476464e+18,NaN,54878,NaN,1569255204,742958068,NaN,NaN,0.316063468515,0.493910423428,0.642105656706,0.493818492086,NaN,NaN,-0.182574630193,-0.287828413825,-0.0521366500633,NaN,NaN,0.6675186,7.21509075,6.58683795,NaN,1
1.56925520482937e+18,NaN,54879,NaN,1569255204,763735055,NaN,NaN,0.317945574925,0.491080172019,0.640751645687,0.497180253615,NaN,NaN,0.0652621235906,-0.275611109061,-0.109732515379,NaN,NaN,0.6282528,7.21509075,6.56720505,NaN,1
1.56925520484995e+18,NaN,54880,NaN,1569255204,827920913,NaN,NaN,0.322708157825,0.48607850805,0.635324921789,0.5059143926,NaN,NaN,0.0338461970546,-0.307027035597,-0.141148441915,NaN,NaN,0.63806925,7.13655915,6.70463535,NaN,1
1.56925520502465e+18,NaN,54881,NaN,1569255204,849064111,NaN,NaN,0.322979472425,0.483668349635,0.634549815306,0.50901445937,NaN,NaN,-0.0150230220014,-0.141220756657,-0.156856405183,NaN,NaN,0.6282528,7.09729335,6.27271155,NaN,1
1.56925520502773e+18,NaN,54882,NaN,1569255205,23633003,NaN,NaN,0.334865273628,0.481261902796,0.619741859515,0.521701310139,NaN,NaN,0.108895354891,-0.209288597485,-0.106241856875,NaN,NaN,0.52027185,7.2052743,6.29234445,NaN,1
1.56925520508483e+18,NaN,54883,NaN,1569255205,26120901,NaN,NaN,0.3350188237,0.479337382546,0.62005857052,0.522996587546,NaN,NaN,0.250267024303,-0.162164707681,-0.158601734435,NaN,NaN,0.588987,7.3034388,6.7144518,NaN,1
1.56925520509677e+18,NaN,54884,NaN,1569255205,83976030,NaN,NaN,0.332363504539,0.472770820664,0.620910542675,0.529615284876,NaN,NaN,-0.215735885981,-0.113295488625,-0.107987186127,NaN,NaN,0.7656831,7.0874769,6.29234445,NaN,1
1.56925520514924e+18,NaN,54885,NaN,1569255205,93079090,NaN,NaN,0.332888389622,0.471186927439,0.620720455735,0.530918369711,NaN,NaN,0.142056610679,-0.0975875253573,-0.121949820143,NaN,NaN,0.83439825,7.31325525,6.1450977,NaN,1
1.5692552051687e+18,NaN,54886,NaN,1569255205,147953033,NaN,NaN,0.338114198776,0.47410609813,0.615466575277,0.531133778834,NaN,NaN,0.320080194383,-0.0801342328373,-0.0713352718353,NaN,NaN,0.981645,7.2838059,6.17454705,NaN,1
1.56925520525427e+18,NaN,54887,NaN,1569255205,167615890,NaN,NaN,0.33946812674,0.472305901064,0.615535918782,0.53179324877,NaN,NaN,0.110640684143,-0.0783889035853,0.0386204710407,NaN,NaN,0.91292985,7.264173,6.0273003,NaN,1
1.56925520525595e+18,NaN,54888,NaN,1569255205,252899885,NaN,NaN,0.343007235691,0.473558777879,0.613626600706,0.530613338566,NaN,NaN,0.136820622923,-0.0085757335053,0.0141858615127,NaN,NaN,0.6478857,7.3427046,6.35124315,NaN,1
1.56925520538512e+18,NaN,54889,NaN,1569255205,255084991,NaN,NaN,0.343067751389,0.471652065167,0.614157981812,0.531656675644,NaN,NaN,0.100168708631,-0.165655366185,0.0298938247807,NaN,NaN,0.5104554,7.3230717,6.31197735,NaN,1
1.56925520548897e+18,NaN,54890,NaN,1569255205,383780002,NaN,NaN,0.341420915136,0.462491923472,0.611722723719,0.543441154787,NaN,NaN,-0.119742777121,-0.142966085909,-0.101005869119,NaN,NaN,0.52027185,7.52921715,6.282528,NaN,1
1.56925520549103e+18,NaN,54891,NaN,1569255205,487392902,NaN,NaN,0.338844663984,0.465547278789,0.605540214686,0.549336939682,NaN,NaN,0.0565354773306,-0.0085757335053,-0.190017660971,NaN,NaN,0.9423792,7.25435655,5.8702371,NaN,1
1.56925520552403e+18,NaN,54892,NaN,1569255205,489859104,NaN,NaN,0.338937432377,0.463788125266,0.606186265131,0.55005472797,NaN,NaN,0.0757340991026,0.0018962420067,-0.0573726378193,NaN,NaN,0.95219565,7.45068555,6.1843635,NaN,1
1.56925520555751e+18,NaN,54893,NaN,1569255205,522973060,NaN,NaN,0.337794431745,0.463349399179,0.607666161648,0.549494396832,NaN,NaN,0.0129022460306,0.139777252915,0.0159311907647,NaN,NaN,0.71660085,7.56848295,6.19417995,NaN,1
1.5692552055939e+18,NaN,54894,NaN,1569255205,556229114,NaN,NaN,0.337915485654,0.460704270307,0.60884372466,0.55033991207,NaN,NaN,-0.0534202655454,-0.0295196845293,0.0438564587967,NaN,NaN,0.4319238,7.76481195,6.09601545,NaN,1
1.56925520570694e+18,NaN,54895,NaN,1569255205,592782020,NaN,NaN,0.338802448489,0.457507699015,0.606727295701,0.554780672781,NaN,NaN,-0.0237496682614,-0.223251231501,-0.149875088175,NaN,NaN,0.42210735,7.6175652,6.1843635,NaN,1
1.56925520570736e+18,NaN,54896,NaN,1569255205,698498964,NaN,NaN,0.337860640035,0.453686986638,0.602039224457,0.56353090269,NaN,NaN,-0.0412029607814,-0.116786147129,-0.142893771167,NaN,NaN,0.6086199,7.4997678,6.01748385,NaN,1
1.56925520574238e+18,NaN,54897,NaN,1569255205,699995040,NaN,NaN,0.337915797797,0.452124044587,0.602629226954,0.564123015597,NaN,NaN,0.0146475752826,-0.0277743552773,-0.0538819793153,NaN,NaN,0.71660085,7.62738165,5.93895225,NaN,1
1.56925520576329e+18,NaN,54898,NaN,1569255205,741539955,NaN,NaN,0.337653835894,0.451168968376,0.603269457876,0.56436017779,NaN,NaN,0.0181382337866,0.0333121685427,-0.0032674310073,NaN,NaN,0.59880345,7.6175652,6.1647306,NaN,1
1.5692552058289e+18,NaN,54899,NaN,1569255205,762252092,NaN,NaN,0.337155937949,0.450000474161,0.604597304208,0.564169785176,NaN,NaN,-0.00804170499337,0.108361326379,0.0473471173007,NaN,NaN,0.6871515,7.4997678,6.01748385,NaN,1
1.56925520584846e+18,NaN,54900,NaN,1569255205,826531887,NaN,NaN,0.335484416903,0.45186685984,0.606275105604,0.561869240409,NaN,NaN,0.0547901480786,0.146758569923,0.0106952030087,NaN,NaN,0.8442147,7.1463756,6.0273003,NaN,1
1.56925520593629e+18,NaN,54901,NaN,1569255205,847601890,NaN,NaN,0.33427346022,0.452521016386,0.607782928035,0.560433667717,NaN,NaN,0.107150025639,0.321291495123,0.0386204710407,NaN,NaN,0.79513245,7.15619205,6.2039964,NaN,1
1.56925520595512e+18,NaN,54902,NaN,1569255205,935362100,NaN,NaN,0.335318353743,0.470349425987,0.60501022178,0.547992381934,NaN,NaN,0.421309290999,0.349216763155,-0.0015221017553,NaN,NaN,0.83439825,7.4801349,6.17454705,NaN,1
1.56925520599691e+18,NaN,54903,NaN,1569255205,954036951,NaN,NaN,0.339400854179,0.474945224853,0.60232424812,0.54446266511,NaN,NaN,0.955380042111,0.218317069255,0.0490924465527,NaN,NaN,0.77549955,7.48995135,5.5168449,NaN,1
1.56925520606183e+18,NaN,54904,NaN,1569255205,996062994,NaN,NaN,0.353903549857,0.489654325198,0.596705473923,0.528141549779,NaN,NaN,1.26430331971,0.305583531855,0.377214345929,NaN,NaN,1.1387082,7.60774875,5.34996525,NaN,1
1.56925520610342e+18,NaN,54905,NaN,1569255206,60733079,NaN,NaN,0.377114203987,0.507990972132,0.5921696199,0.499064315145,NaN,NaN,1.15434757684,0.298602214847,0.604107148689,NaN,NaN,0.48100605,7.8924258,4.6529973,NaN,4
1.5692552061463e+18,NaN,54906,NaN,1569255206,102646112,NaN,NaN,0.406782540736,0.519942366927,0.572470018032,0.486277675903,NaN,NaN,1.82280868035,-0.544391813869,0.314382492857,NaN,NaN,3.4553904,8.9722353,4.1621748,NaN,1
1.56925520621085e+18,NaN,54907,NaN,1569255206,145232915,NaN,NaN,0.436300318902,0.519229765937,0.565014349142,0.469894953319,NaN,NaN,1.26081266121,-0.519957204341,0.974116950113,NaN,NaN,1.63934715,9.031134,5.7131739,NaN,4
1.56925520625194e+18,NaN,54908,NaN,1569255206,208738088,NaN,NaN,0.425110201419,0.49403497449,0.596631534233,0.468232392075,NaN,NaN,-1.06745656096,0.309074190359,0.654721696997,NaN,NaN,0.9620121,9.21764655,4.0247445,NaN,4
1.56925520632314e+18,NaN,54909,NaN,1569255206,251043081,NaN,NaN,0.438762180271,0.490537435902,0.585732072967,0.473052546594,NaN,NaN,0.430035937259,-0.767793958125,-0.0503913208113,NaN,NaN,3.2001627,8.6581089,3.9462129,NaN,1
1.56925520636178e+18,NaN,54910,NaN,1569255206,322146892,NaN,NaN,0.462920882032,0.48211576439,0.56859332065,0.479552168609,NaN,NaN,0.379421388951,-0.806191201669,0.0717817268287,NaN,NaN,2.7093402,8.55012795,3.5535549,NaN,1
1.56925520640087e+18,NaN,54911,NaN,1569255206,360555887,NaN,NaN,0.475661793524,0.488733458129,0.553022699413,0.478593103817,NaN,NaN,0.995522614907,-0.563590435641,-0.231905563019,NaN,NaN,1.766961,9.2667288,3.1608969,NaN,1
1.56925520646485e+18,NaN,54912,NaN,1569255206,399866104,NaN,NaN,0.466156924749,0.512865941425,0.535451100181,0.482657608404,NaN,NaN,0.845424299235,0.333508799887,-1.37335089383,NaN,NaN,0.40247445,9.0900327,2.50319475,NaN,4
1.56925520650732e+18,NaN,54913,NaN,1569255206,463917016,NaN,NaN,0.472927246699,0.537073338119,0.506665175509,0.480814359954,NaN,NaN,1.02519321219,-0.134239439649,-0.664747217515,NaN,NaN,0.67733505,9.06058335,1.5117333,NaN,4
1.56925520655227e+18,NaN,54914,NaN,1569255206,506208896,NaN,NaN,0.483623498098,0.54539668963,0.499595391015,0.468033341018,NaN,NaN,0.951889383607,0.106615997127,0.228861359509,NaN,NaN,-0.20614545,10.5625002,1.28595495,NaN,1
1.56925520661723e+18,NaN,54915,NaN,1569255206,549974918,NaN,NaN,0.478625415553,0.550039363217,0.495723055187,0.471840082078,NaN,NaN,0.0460635018186,0.0385481562987,-0.427382439243,NaN,NaN,0.785316,9.1096656,0.8049489,NaN,1
1.56925520665609e+18,NaN,54916,NaN,1569255206,612876892,NaN,NaN,0.480186092243,0.560239715849,0.485306395511,0.469074066729,NaN,NaN,0.452725217535,0.0245855222827,-0.261576160303,NaN,NaN,0.6478857,9.31581105,1.7865939,NaN,1
1.5692552066982e+18,NaN,54917,NaN,1569255206,655368089,NaN,NaN,0.478219636553,0.562198343259,0.482896555814,0.471221729587,NaN,NaN,0.0635167943386,-0.0138117212613,-0.228414904515,NaN,NaN,0.5300883,9.5415894,1.06999305,NaN,1
1.56925520676283e+18,NaN,54918,NaN,1569255206,697444915,NaN,NaN,0.478152131944,0.564882865609,0.480451072124,0.470579062596,NaN,NaN,0.185689841979,0.0333121685427,-0.134167124907,NaN,NaN,0.52027185,9.5023236,0.93256275,NaN,5
1.56925520681134e+18,NaN,54919,NaN,1569255206,761802911,NaN,NaN,0.475395096683,0.567941814962,0.47551571614,0.474685580749,NaN,NaN,0.0565354773306,-0.0539542940573,-0.249358855539,NaN,NaN,0.48100605,9.59067165,0.65770215,NaN,1
1.56925520684708e+18,NaN,54920,NaN,1569255206,810612916,NaN,NaN,0.472904364491,0.574158973227,0.47068629432,0.474507479232,NaN,NaN,0.222341756271,0.0874173753547,-0.301718733099,NaN,NaN,0.50063895,9.70846905,0.588987,NaN,1
1.56925520691171e+18,NaN,54921,NaN,1569255206,846152067,NaN,NaN,0.477731860803,0.576930404947,0.467684012653,0.469249657784,NaN,NaN,0.503339765843,0.0490201318107,0.104942982617,NaN,NaN,0.30430995,10.47415215,1.12889175,NaN,1
1.5692552069555e+18,NaN,54922,NaN,1569255206,910509109,NaN,NaN,0.474666689333,0.578442632709,0.466986210057,0.471189488761,NaN,NaN,-0.0115323634974,0.0280761807867,-0.137657783411,NaN,NaN,0.30430995,9.41397555,0.55953765,NaN,5
1.56925520703909e+18,NaN,54923,NaN,1569255206,953031063,NaN,NaN,0.472846275703,0.580452489576,0.465511784471,0.472006446373,NaN,NaN,0.0687527820946,0.0402934855507,-0.179545685459,NaN,NaN,0.2944935,9.19801365,0.59880345,NaN,1
1.56925520706044e+18,NaN,54924,NaN,1569255207,38297891,NaN,NaN,0.467887303053,0.5855018633,0.460119861409,0.475981882903,NaN,NaN,0.0547901480786,0.0018962420067,-0.244122867783,NaN,NaN,0.14724675,9.51214005,0.9031134,NaN,1
1.56925520710218e+18,NaN,54925,NaN,1569255207,58974981,NaN,NaN,0.468018694242,0.585941551184,0.459707663487,0.475709853342,NaN,NaN,0.149037927687,0.0368028270467,-0.0835525765993,NaN,NaN,-0.0196329,10.00296255,0.6086199,NaN,5
1.56925520714611e+18,NaN,54926,NaN,1569255207,101155042,NaN,NaN,0.466415503717,0.586306389197,0.458875583849,0.477634373163,NaN,NaN,-0.00280571723737,-0.0155570505133,-0.142893771167,NaN,NaN,-0.14724675,9.88516515,0.7067844,NaN,5
1.56925520727241e+18,NaN,54927,NaN,1569255207,144706964,NaN,NaN,0.468228226587,0.59002069668,0.455130821958,0.474861917005,NaN,NaN,0.321825523635,0.0507654610627,-0.0852979058513,NaN,NaN,-0.0785316,9.53177295,0.5693541,NaN,5
1.56925520727457e+18,NaN,54928,NaN,1569255207,271248102,NaN,NaN,0.458622855301,0.597019985531,0.444504237987,0.485436088362,NaN,NaN,0.0146475752826,-0.0522089648053,-0.308700050107,NaN,NaN,-0.3141264,9.3845262,0.61843635,NaN,1
1.56925520739961e+18,NaN,54929,NaN,1569255207,273582935,NaN,NaN,0.458895775037,0.596786096128,0.44446036547,0.48550592854,NaN,NaN,0.714524605335,0.0036415712587,-0.0311926990393,NaN,NaN,-1.2565056,9.7379184,0.34357575,NaN,5
1.56925520740231e+18,NaN,54930,NaN,1569255207,398824930,NaN,NaN,0.459706339487,0.605005549335,0.441278850424,0.47740061047,NaN,NaN,0.164745890955,0.115342643387,-0.0329380282913,NaN,NaN,-0.1570632,10.06186125,-0.18651255,NaN,5
1.56925520740461e+18,NaN,54931,NaN,1569255207,401555061,NaN,NaN,0.45987773869,0.60430391849,0.441923781164,0.477527602549,NaN,NaN,0.0146475752826,0.0455294733067,-0.0591179670713,NaN,NaN,-0.28467705,9.6986526,-0.0785316,NaN,5
1.56925520746979e+18,NaN,54932,NaN,1569255207,403337955,NaN,NaN,0.459949516054,0.603479903751,0.4426882617,0.477792372694,NaN,NaN,0.101914037883,0.0943986923627,-0.0818072473473,NaN,NaN,-0.3141264,9.96369675,0.55953765,NaN,5
1.56925520752715e+18,NaN,54933,NaN,1569255207,469116926,NaN,NaN,0.460037791594,0.607242470384,0.439682758536,0.475710925156,NaN,NaN,0.159509903199,0.0577467780707,-0.0905338936073,NaN,NaN,-0.26504415,9.7182855,-0.00981645,NaN,5
1.5692552075514e+18,NaN,54934,NaN,1569255207,526360988,NaN,NaN,0.456332117743,0.608771270995,0.440343643557,0.476713764753,NaN,NaN,-0.0481842777894,0.0821813875987,-0.132421795655,NaN,NaN,-0.48100605,9.70846905,-0.3337593,NaN,5
1.56925520763369e+18,NaN,54935,NaN,1569255207,549267053,NaN,NaN,0.455163183293,0.608570764876,0.440905324384,0.477567372883,NaN,NaN,-0.0446936192854,0.0455294733067,-0.127185807899,NaN,NaN,-0.46137315,9.70846905,0.26504415,NaN,5
1.56925520765504e+18,NaN,54936,NaN,1569255207,632586956,NaN,NaN,0.451925681815,0.612192270661,0.439454311127,0.477350720426,NaN,NaN,0.0460635018186,0.0734547413387,-0.114968503135,NaN,NaN,-0.83439825,9.5023236,0.2944935,NaN,5
1.56925520769766e+18,NaN,54937,NaN,1569255207,653886079,NaN,NaN,0.45143832447,0.612243361666,0.44008132568,0.477168662092,NaN,NaN,-0.00106038798537,0.0891627046067,-0.0695899425833,NaN,NaN,-0.392658,9.57103875,-0.4515567,NaN,5
1.56925520776167e+18,NaN,54938,NaN,1569255207,696580886,NaN,NaN,0.449971444214,0.610152679378,0.441128907628,0.480254822042,NaN,NaN,-0.149413374405,-0.0679169280733,-0.0678446133313,NaN,NaN,-0.7656831,10.2287409,-0.48100605,NaN,5
1.56925520780396e+18,NaN,54939,NaN,1569255207,760552883,NaN,NaN,0.440167432978,0.608401044623,0.442322378171,0.490358760111,NaN,NaN,-0.309983665589,-0.0522089648053,-0.291246757587,NaN,NaN,-1.766961,10.1502093,0.55953765,NaN,1
1.56925520791087e+18,NaN,54940,NaN,1569255207,802686929,NaN,NaN,0.437753623929,0.608334135258,0.441711776867,0.4931450606,NaN,NaN,-0.0778548750734,-0.0295196845293,-0.195253648727,NaN,NaN,0.08834805,8.7955392,-0.196329,NaN,1
1.56925520791252e+18,NaN,54941,NaN,1569255207,909347057,NaN,NaN,0.436424255886,0.59908202325,0.447230901486,0.500618736214,NaN,NaN,-0.196537264209,-0.106314171617,0.0351298125367,NaN,NaN,-0.61843635,10.06186125,0.93256275,NaN,5
1.56925520797323e+18,NaN,54942,NaN,1569255207,911731004,NaN,NaN,0.436662131256,0.598291919635,0.447745961398,0.500895713775,NaN,NaN,0.215360439263,0.0141135467707,-0.0556273085673,NaN,NaN,-0.79513245,9.88516515,1.0012779,NaN,5
1.56925520799489e+18,NaN,54943,NaN,1569255207,972543954,NaN,NaN,0.439482140588,0.604694168753,0.441856045292,0.495947220597,NaN,NaN,0.341024145407,0.0891627046067,-0.0818072473473,NaN,NaN,-0.9227463,9.80663355,-0.22577835,NaN,5
1.56925520805835e+18,NaN,54944,NaN,1569255207,994061946,NaN,NaN,0.439359627187,0.604866877172,0.441707762923,0.495977248543,NaN,NaN,0.0425728433146,0.0385481562987,-0.0765712595913,NaN,NaN,-1.0209108,9.6004881,-0.30430995,NaN,5
1.56925520810073e+18,NaN,54945,NaN,1569255208,57439088,NaN,NaN,0.432496457096,0.603862963993,0.442032652888,0.502895087567,NaN,NaN,-0.212245227477,-0.0347556722853,-0.209216282743,NaN,NaN,-2.48356185,10.5821331,-0.0981645,NaN,1
1.56925520816461e+18,NaN,54946,NaN,1569255208,99834918,NaN,NaN,0.424903094685,0.604465238159,0.440386566036,0.510038046071,NaN,NaN,-0.252387800273,-0.0469729770493,-0.437854414755,NaN,NaN,-1.58044845,9.620121,-0.16687965,NaN,1
1.56925520820851e+18,NaN,54947,NaN,1569255208,163805961,NaN,NaN,0.4172305767,0.60255690364,0.439071495532,0.51967301792,NaN,NaN,-0.233189178501,-0.109804830121,-0.292992086839,NaN,NaN,-1.2957714,8.9329695,0.5693541,NaN,1
1.56925520825004e+18,NaN,54948,NaN,1569255208,206345081,NaN,NaN,0.415911944459,0.600092955536,0.438448505284,0.524088358376,NaN,NaN,-0.137196069641,-0.153438061421,-0.127185807899,NaN,NaN,-1.36448655,9.82626645,0.12761385,NaN,5
1.56925520831345e+18,NaN,54949,NaN,1569255208,249289035,NaN,NaN,0.412703210067,0.594464262631,0.439215003461,0.532333055135,NaN,NaN,-0.351871567637,-0.270375121305,-0.163837722191,NaN,NaN,-1.28595495,9.5612223,0.61843635,NaN,5
1.56925520835638e+18,NaN,54950,NaN,1569255208,312453031,NaN,NaN,0.414613664359,0.595285799957,0.437362025779,0.531455345352,NaN,NaN,0.140311281427,0.000150912754695,-0.0364286867953,NaN,NaN,-0.00981645,9.1685643,2.6897073,NaN,5
1.5692552084223e+18,NaN,54951,NaN,1569255208,355453968,NaN,NaN,0.421897767731,0.600097684892,0.431585036409,0.524994665229,NaN,NaN,0.566171618915,0.0490201318107,0.0490924465527,NaN,NaN,-0.6086199,9.17838075,-0.44174025,NaN,5
1.56925520846257e+18,NaN,54952,NaN,1569255208,418958902,NaN,NaN,0.409217045815,0.597590770725,0.431959083433,0.537436536159,NaN,NaN,-0.418194079213,-0.0923515376013,-0.369786573927,NaN,NaN,-0.10798095,4.6922631,0.1766961,NaN,4
1.56925520850464e+18,NaN,54953,NaN,1569255208,461801052,NaN,NaN,0.397819598837,0.603179486247,0.432226772096,0.539531362977,NaN,NaN,-0.205263910469,0.333508799887,-0.521630218851,NaN,NaN,-0.4908225,8.96241885,0.38284155,NaN,1
1.56925520854776e+18,NaN,54954,NaN,1569255208,503777980,NaN,NaN,0.407820361948,0.597204669859,0.438526322572,0.533595164043,NaN,NaN,0.119367330403,-0.0452276477973,0.550001941877,NaN,NaN,5.7917055,5.3401488,2.9056692,NaN,4
1.56925520861133e+18,NaN,54955,NaN,1569255208,546480894,NaN,NaN,0.408330871153,0.597006833047,0.44063175952,0.531688248375,NaN,NaN,0.0181382337866,0.101380009371,0.159048189429,NaN,NaN,-4.21125705,7.88260935,0.99146145,NaN,1
1.56925520865364e+18,NaN,54956,NaN,1569255208,610208988,NaN,NaN,0.412138985089,0.599254301375,0.442006765848,0.525038815897,NaN,NaN,0.161255232451,0.136286594411,0.125886933641,NaN,NaN,-0.75586665,10.4839686,0.02944935,NaN,1
1.56925520869681e+18,NaN,54957,NaN,1569255208,652921915,NaN,NaN,0.41170868634,0.601987729234,0.442949876685,0.521442363247,NaN,NaN,0.107150025639,0.213081081499,-0.0032674310073,NaN,NaN,-1.1387082,9.6004881,0.30430995,NaN,5
1.56925520876053e+18,NaN,54958,NaN,1569255208,695755004,NaN,NaN,0.41195730808,0.602289997547,0.443331133937,0.520572224439,NaN,NaN,0.00941158752663,0.0455294733067,-0.0085034187633,NaN,NaN,-1.0994424,9.7771842,-0.8638476,NaN,5
1.56925520880244e+18,NaN,54959,NaN,1569255208,758869886,NaN,NaN,0.40885000505,0.6053005825,0.438321352809,0.523762608314,NaN,NaN,0.0425728433146,-0.0242836967733,-0.226669575263,NaN,NaN,-0.77549955,11.73065775,1.2565056,NaN,1
1.56925520886593e+18,NaN,54960,NaN,1569255208,801254987,NaN,NaN,0.403361846777,0.610517516879,0.430992023127,0.528027895238,NaN,NaN,0.107150025639,-0.0050850750013,-0.546064828379,NaN,NaN,-1.5509991,8.3439825,0.0588987,NaN,1
1.56925520890965e+18,NaN,54961,NaN,1569255208,865004062,NaN,NaN,0.401779775992,0.609917495426,0.429038172795,0.531507202831,NaN,NaN,-0.0499296070414,-0.0731529158293,-0.113223173883,NaN,NaN,-1.97310645,8.39306475,-1.0012779,NaN,1
1.56925520895376e+18,NaN,54962,NaN,1569255208,907469987,NaN,NaN,0.410529326622,0.615525130594,0.416496542063,0.528322927801,NaN,NaN,0.777356458407,-0.163910036933,-0.102751198371,NaN,NaN,-3.7106181,10.39562055,2.99401725,NaN,1
1.56925520905816e+18,NaN,54963,NaN,1569255208,952117919,NaN,NaN,0.409074730261,0.618976001998,0.414552929342,0.526946337673,NaN,NaN,0.119367330403,0.127559948151,-0.111477844631,NaN,NaN,-3.30814365,8.27526735,-0.30430995,NaN,1
1.56925520905974e+18,NaN,54964,NaN,1569255209,56715011,NaN,NaN,0.411559172156,0.615863886582,0.414544402799,0.528662140811,NaN,NaN,-0.00804170499337,-0.0661715988213,0.0386204710407,NaN,NaN,-3.20997915,10.1894751,-0.34357575,NaN,5
1.56925520910632e+18,NaN,54965,NaN,1569255209,58877944,NaN,NaN,0.411678952717,0.61544808206,0.414737714075,0.528901433826,NaN,NaN,-0.145922715901,-0.102823513113,-0.109732515379,NaN,NaN,-2.26759995,8.9918682,-0.4711896,NaN,1
1.56925520916381e+18,NaN,54966,NaN,1569255209,105411052,NaN,NaN,0.409230930805,0.612334567964,0.41598485197,0.533416371215,NaN,NaN,-0.212245227477,-0.113295488625,-0.0870432351033,NaN,NaN,-2.1203532,10.6606647,-0.1177974,NaN,1
1.56925520920652e+18,NaN,54967,NaN,1569255209,162694931,NaN,NaN,0.436166468714,0.624010513665,0.38011079756,0.525248009975,NaN,NaN,1.58020791433,-0.509485228829,-0.153365746679,NaN,NaN,-1.42338525,8.15746995,0.89329695,NaN,1
1.56925520924852e+18,NaN,54968,NaN,1569255209,205363988,NaN,NaN,0.444315695891,0.61654163017,0.396923350091,0.514695866318,NaN,NaN,-0.135450740389,0.340490116895,0.954918328341,NaN,NaN,-0.6871515,10.59194955,3.0823653,NaN,4
1.56925520931327e+18,NaN,54969,NaN,1569255209,247500896,NaN,NaN,0.437971307757,0.620972847519,0.407379349574,0.506572721103,NaN,NaN,-0.243661154013,0.672102674775,0.0613097513167,NaN,NaN,0.2159619,10.27782315,-3.28851075,NaN,1
1.56925520935715e+18,NaN,54970,NaN,1569255209,312216043,NaN,NaN,0.44545819916,0.622591639583,0.418604597273,0.48858656783,NaN,NaN,0.197907146743,0.443464542763,0.506368710577,NaN,NaN,-1.28595495,9.1685643,0.50063895,NaN,1
1.56925520941948e+18,NaN,54971,NaN,1569255209,353907108,NaN,NaN,0.442265716763,0.614820517215,0.438373998334,0.483967979283,NaN,NaN,-0.685229454769,0.469644481543,0.605852477941,NaN,NaN,-1.4135688,10.06186125,0.30430995,NaN,4
1.56925520946181e+18,NaN,54972,NaN,1569255209,417759895,NaN,NaN,0.432006904963,0.595328480657,0.475583996157,0.482466472185,NaN,NaN,-1.08840051198,0.415539274731,0.640759062981,NaN,NaN,-0.71660085,9.39434265,1.38411945,NaN,4
1.5692552095109e+18,NaN,54973,NaN,1569255209,460306882,NaN,NaN,0.42828049473,0.586065335899,0.490223373239,0.482477236998,NaN,NaN,-0.643341552721,0.209590422995,0.373723687425,NaN,NaN,0.20614545,9.3059946,2.0418216,NaN,1
1.56925520954668e+18,NaN,54974,NaN,1569255209,509562969,NaN,NaN,0.428760317646,0.576648530231,0.50183573693,0.481458155746,NaN,NaN,-0.395504798937,0.0647280950787,0.378959675181,NaN,NaN,0.87366405,10.16002575,1.9436571,NaN,1
1.5692552096112e+18,NaN,54975,NaN,1569255209,545038938,NaN,NaN,0.434173716469,0.568747964572,0.506528447592,0.481090291423,NaN,NaN,-0.159885349917,-0.200561951225,0.454008833017,NaN,NaN,0.71660085,10.1305764,2.09090385,NaN,1
1.56925520965201e+18,NaN,54976,NaN,1569255209,609493017,NaN,NaN,0.443326050171,0.556174135406,0.511336479758,0.482356039471,NaN,NaN,-0.142432057397,-0.270375121305,0.368487699669,NaN,NaN,0.0785316,9.6004881,1.24668915,NaN,1
1.56925520969487e+18,NaN,54977,NaN,1569255209,651124954,NaN,NaN,0.447774818968,0.549294068025,0.511266325206,0.48618976032,NaN,NaN,-0.124978764877,-0.348914937645,0.153812201673,NaN,NaN,-0.10798095,9.6790197,0.85403115,NaN,5
1.56925520975902e+18,NaN,54978,NaN,1569255209,694021940,NaN,NaN,0.4547696406,0.544465561024,0.507836553374,0.488716545561,NaN,NaN,0.0844607453626,-0.394293498197,0.132868250649,NaN,NaN,-0.3141264,9.86553225,0.2355948,NaN,5
1.56925520980096e+18,NaN,54979,NaN,1569255209,757623910,NaN,NaN,0.464717195581,0.546097362671,0.497692534145,0.487973093594,NaN,NaN,0.365458754935,-0.258157816541,-0.0085034187633,NaN,NaN,0.00981645,10.0520448,-0.1177974,NaN,5
1.56925520986484e+18,NaN,54980,NaN,1569255209,800046920,NaN,NaN,0.469202045276,0.545969841927,0.494428728229,0.487141257868,NaN,NaN,0.222341756271,-0.146456744413,0.0490924465527,NaN,NaN,-0.1177974,9.76736775,0.4908225,NaN,5
1.56925520995119e+18,NaN,54981,NaN,1569255209,863617897,NaN,NaN,0.474119327338,0.549999623756,0.484433412583,0.487888866532,NaN,NaN,0.323570852887,-0.169146024689,-0.146384429671,NaN,NaN,-0.34357575,9.39434265,0.981645,NaN,5
1.56925520995426e+18,NaN,54982,NaN,1569255209,949182033,NaN,NaN,0.472124494019,0.561797148018,0.465193252551,0.495053193513,NaN,NaN,0.300881572611,-0.146456744413,-0.471015670543,NaN,NaN,0.0196329,8.9329695,0.981645,NaN,1
1.5692552100141e+18,NaN,54983,NaN,1569255209,952179908,NaN,NaN,0.47206840218,0.56145087522,0.465200977944,0.495492067039,NaN,NaN,0.304372231115,-0.144711415161,-0.310445379359,NaN,NaN,-0.392658,9.72810195,0.9423792,NaN,1
1.56925521005666e+18,NaN,54984,NaN,1569255210,12345075,NaN,NaN,0.467846933702,0.566004338474,0.457462408044,0.5014842776,NaN,NaN,0.0704981113466,-0.0906062083493,-0.390730524951,NaN,NaN,-0.18651255,9.59067165,0.3533922,NaN,1
