rosbagTimestamp,secs,nsecs,lwrist.x,lwrist.y,lwrist.z,rwrist.x,rwrist.y,rwrist.z,neck.x,neck.y,neck.z,wDist,wNDist,x,y,z,x.1,y.1,z.1,Label
1569268972.03035,1569268972,30349837,1.205000043,0.013300317,-0.176037923,1.284999967,0.241274208,-0.118977584,1.120000005,0.095892787,0.101480313,0.248249803835734,0.311387908213603,0.171866350897,0.0304731290359,0.0855623292942,-2.48356185,9.29617815,0.5104554,6
1569268972.1935,1569268972,193495665,1.192999959,0.017036347,-0.174284846,1.284999967,0.241274208,-0.123144098,1.123999953,0.098057628,0.101842746,0.24771353593184,0.31153021244813,-0.0585171103672,0.0845783358479,0.0698543660262,-2.32649865,9.5415894,0.4908225,6
1569268972.35388,1569268972,353875942,1.200000048,0.017136309,-0.175307482,1.279999971,0.236184806,-0.124740094,1.136000037,0.099104509,0.102930032,0.238619555877358,0.302259284539728,-0.158000877731,-0.0515573458081,0.153630170122,-2.2577835,9.0115011,0.7460502,6
1569268976.06488,1569268976,64881731,1.205000043,-0.00037556,-0.176037923,1.281999946,0.217847005,-0.118699811,1.136000037,0.075160779,0.106613427,0.238406652643992,0.304041753277697,0.00780540120884,0.0234918120279,0.0314571224822,-2.26759995,9.27654525,2.01237225,6
1569268976.39668,1569268976,396683321,1.192999959,-0.03131967,-0.172350749,1.292999983,0.217619836,-0.123910755,1.217000008,0.080519952,0.114215262,0.272612023700798,0.285090116217834,0.527913518305,0.145664859668,-0.132603827206,-2.3755809,8.68755825,0.3533922,6
1569268976.56159,1569268976,561585945,1.174999952,-0.021321835,-0.177370012,1.299000025,0.216523573,-0.124485746,1.241000056,0.082107857,0.112443812,0.273392029512659,0.278508880587081,-0.236540694071,0.0741063603359,0.0401837687422,-2.355948,9.29617815,0.8834805,6
1569268976.73576,1569268976,735761398,1.177000046,-0.019449828,-0.17194742,1.299000025,0.218629673,-0.120273836,1.253999949,0.087034255,0.105489708,0.272462846927456,0.265163230252689,-0.154510219227,-0.0515573458081,0.13443154835,-2.2185177,9.80663355,1.4724675,6
1569268976.90446,1569268976,904462635,1.172999978,-0.019383729,-0.171363056,1.296000004,0.218124747,-0.12419825,1.258999944,0.091463782,0.103869215,0.271594921699322,0.263489607169355,-0.594333190731,0.0793423480919,-0.0139214380698,-2.2381506,9.33544395,1.6098978,6
1569268977.06887,1569268977,68865774,1.166000009,-0.019268055,-0.170340434,1.292999983,0.217619836,-0.123910755,1.261000037,0.095698059,0.104034215,0.272764699678077,0.260476151689827,-0.266211291355,-0.0969359063601,-0.0121761088178,-2.24796705,9.45324135,2.22833415,6
1569268977.23041,1569268977,230412733,1.146999955,-0.018954081,-0.169424266,1.292999983,0.219716206,-0.123910755,1.253999949,0.099233106,0.103456706,0.283462508554853,0.260255917049349,0.0758732420368,-0.0393400410441,-0.0802439496458,-2.30686575,9.09984915,2.2381506,6
1569268977.40323,1569268977,403229195,1.182000041,-0.027198078,-0.178426683,1.292999983,0.219716206,-0.123910755,1.256000042,0.087173067,0.111766681,0.27615147505117,0.272911218475003,0.0147867182168,-0.0236320777761,-0.0174120965738,-2.28723285,9.1489314,2.46392895,6
1569268977.55912,1569268977,559119175,1.205000043,-0.016005132,-0.195573524,1.284999967,0.218356788,-0.123144098,1.256000042,0.087173067,0.10565795,0.258014571559014,0.265331003605696,0.00256941345284,0.0234918120279,0.0157491592142,-2.22833415,9.2078301,2.01237225,6
1569268977.71892,1569268977,718924528,1.200000048,-0.019829901,-0.190871119,1.289999962,0.219206423,-0.123623259,1.253999949,0.087034255,0.105489708,0.264122364418502,0.266942380631783,-0.00615723280716,-0.00966944376005,4.11959462066e-05,-2.1792519,9.35507685,2.67989085,6
1569268977.87527,1569268977,875272846,1.192999959,-0.03131967,-0.154943779,1.296000004,0.22022599,-0.12419825,1.251000047,0.086826041,0.111321747,0.273549841689458,0.274390618480451,-0.000921245051165,-0.00792411450805,-0.00170413330579,-2.1988848,9.21764655,2.32649865,6
1569268978.03929,1569268978,39294321,1.172999978,-0.046009127,-0.152346238,1.299000025,0.220735773,-0.124485746,1.248999953,0.08668723,0.111143775,0.29631918691589,0.275663363991513,-0.0515357933592,0.00778384875995,0.0366931102382,-2.18906835,9.2863617,2.3363151,6
1569268978.19348,1569268978,193479404,1.172999978,-0.040303685,-0.150444552,1.299000025,0.220735773,-0.124485746,1.256000042,0.083100297,0.113802925,0.291017989282246,0.278521118622436,0.0444573155008,-0.0114147730121,-0.0139214380698,-2.1792519,9.2470959,2.60135925,6
1569268978.34606,1569268978,346057021,1.179999948,-0.02332573,-0.15708144,1.289999962,0.21711491,-0.123623259,1.261000037,0.08343111,0.112211615,0.266516705516631,0.272636097806291,-0.0475646835066,-0.0164842531604,0.00522441186518,-2.16943545,9.3452604,2.40503025,6
1569268978.49619,1569268978,496191079,1.159999967,-0.019168904,-0.167583287,1.296000004,0.22022599,-0.12419825,1.258999944,0.083298787,0.114074744,0.278726006631538,0.277294217449861,0.00130453554939,-0.0129935946564,-0.00175690514282,-2.18906835,9.13911495,2.73878955,6
1569268978.6579,1569268978,657899790,1.159999967,-0.021049641,-0.167583287,1.300999999,0.221075624,-0.124677412,1.258999944,0.083298787,0.112033643,0.283454700234159,0.277089489141939,0.0606457301174,-0.00950293615237,-0.0157195391588,-2.159619,9.3256275,2.3755809,6
1569268978.81156,1569268978,811559149,1.157999992,-0.021013349,-0.167294353,1.299000025,0.220735773,-0.124485746,1.261000037,0.08343111,0.114255957,0.283118745629908,0.278018291342285,-0.00393145220661,-0.0321922164284,0.0174417166292,-2.1792519,8.9722353,2.32649865,6
1569268978.97943,1569268978,979425595,1.164000034,-0.021122226,-0.170048252,1.296000004,0.22022599,-0.12419825,1.253999949,0.082967974,0.113621712,0.278882011126181,0.277780672297301,-0.00567678145861,-0.0461548504444,0.0244230336372,-2.159619,9.0507669,2.50319475,6
1569268979.13864,1569268979,138639571,1.157999992,-0.022890843,-0.167294353,1.299000025,0.220735773,-0.124485746,1.258999944,0.083298787,0.112033643,0.28472357500371,0.276460400371742,-0.0475646835066,-0.0129935946564,0.00871507036918,-2.11053675,9.04095045,2.46392895,6
1569268979.31167,1569268979,311670574,1.172999978,-0.021285543,-0.171363056,1.299000025,0.220735773,-0.124485746,1.258999944,0.083298787,0.112033643,0.276853411456695,0.276460400371742,-0.141812463115,0.0376209536516,0.0436216554092,-2.07127095,9.2863617,2.6308086,6
1569268979.4785,1569268979,478497526,1.157999992,-0.022890843,-0.163539618,1.300999999,0.221075624,-0.124677412,1.261000037,0.081386618,0.112211615,0.285445108694559,0.277901828835789,-0.0370927079946,-0.00775760690037,-0.0261915146708,-2.0221887,9.13911495,2.73878955,6
1569268979.65138,1569268979,651381193,1.161999941,-0.022969915,-0.16787222,1.292999983,0.219716206,-0.126006976,1.261000037,0.08343111,0.112211615,0.278944910305257,0.276307294572108,0.0658817178734,0.10568879448,0.0401309969052,-2.11053675,8.8937037,3.05291595,6
1569268979.81881,1569268979,818812996,1.174999952,-0.019416779,-0.169750318,1.299000025,0.220735773,-0.124485746,1.264000058,0.081580244,0.110429361,0.274040412739547,0.275271441377583,0.561555225441,0.142340708772,-0.0837873799868,-2.09090385,9.5415894,2.81732115,6
1569268979.98568,1569268979,985680154,1.174999952,-0.021321835,-0.171655238,1.30400002,0.221585408,-0.124964908,1.256000042,0.081063911,0.111766681,0.278971204896445,0.279449698939874,0.472543433589,0.11441544074,-0.462523827671,-2.34613155,11.31836685,1.32522075,3
1569268980.14897,1569268980,148971975,1.18900001,-0.033142414,-0.171772867,1.299000025,0.218629673,-0.120273836,1.246000052,0.080418497,0.110876821,0.279537720685912,0.27448488581493,0.394003617249,-0.12120400828,0.546276479985,-3.2197956,11.7993729,2.0025558,1
1569268980.31482,1569268980,314820457,1.18900001,-0.038925681,-0.167917624,1.299000025,0.212311357,-0.101320244,1.228999972,0.069358259,0.115341462,0.282232640893781,0.26884547698377,0.439382177801,0.313382975468,0.00173375336118,-3.4553904,9.76736775,-0.5104554,6
1569268980.47767,1569268980,477671254,1.200000048,-0.039285801,-0.169471115,1.287999988,0.197983906,-0.0754048,1.19599998,0.059739493,0.114183389,0.269980323204393,0.252030158127979,-0.0475646835066,-0.12993065454,-0.226904378651,-2.56209345,8.43233055,-0.10798095,6
1569268980.6372,1569268980,637195631,1.19599998,-0.03915485,-0.168906212,1.296000004,0.192909896,-0.056963336,1.177000046,0.049248956,0.11236944,0.276378831720515,0.251938573294269,0.00479519405339,-0.0269562286724,-0.197233781367,-3.07254885,9.2863617,0.18651255,6
1569268980.79083,1569268980,790829643,1.172999978,-0.03269643,-0.165658012,1.284999967,0.178772137,-0.056479853,1.157999992,0.040943965,0.108678125,0.263026277713203,0.249805436978283,-0.0370927079946,-0.161346581076,-0.143128574555,-3.6320865,9.2078301,1.54118265,6
1569268980.96057,1569268980,960569091,1.184000015,-0.033003043,-0.16529198,1.284999967,0.174605325,-0.056479853,1.146999955,0.034976054,0.109505303,0.255229903714063,0.25708249385039,0.0711177056294,-0.0147389239084,-0.0925140262468,-3.8676813,8.76608985,0.08834805,6
1569268981.11888,1569268981,118875731,1.184000015,-0.031083396,-0.163372472,1.271999955,0.172838897,-0.05590846,1.149000049,0.02758543,0.109696247,0.246732253460138,0.252294402498519,-0.166247072643,-0.0129935946564,-0.0418994779388,-3.64190295,9.19801365,0.38284155,6
1569268981.27657,1569268981,276570135,1.164000034,-0.028671116,-0.16249989,1.274000049,0.173110649,-0.055996366,1.123999953,0.030629965,0.107309468,0.253296041443474,0.263570805537246,0.0239938158254,-0.0129935946564,-0.115203306523,-3.64190295,8.4225141,0.2355948,6
1569268981.42356,1569268981,423563049,1.174999952,-0.027037006,-0.164035544,1.271999955,0.170776576,-0.05590846,1.121999979,0.025118083,0.107118532,0.245419396340252,0.265130514093719,0.0833350103934,0.0498382584156,-0.116948635775,-4.19162415,8.4028812,0.7460502,6
1569268981.59483,1569268981,594828631,1.171000004,-0.026944965,-0.163477123,1.253999949,0.15616107,-0.071381301,1.093999982,0.022717521,0.104445338,0.221129942235962,0.272620940486517,-0.115632524335,0.0236583196356,0.223390568365,-3.8087826,8.8544379,0.14724675,6
1569268981.76559,1569268981,765589680,1.154999971,-0.022831541,-0.163115948,1.243999958,0.148864985,-0.088963166,1.077000022,0.018872172,0.101076283,0.207121533899323,0.284432948569396,0.510940677133,-0.0688441307204,2.80996851983,-2.4541125,7.4801349,-2.355948,7
1569268981.93187,1569268981,931871202,1.167999983,-0.028769642,-0.164951876,1.258999944,0.150659978,-0.104323618,1.075000048,0.018837126,0.100888588,0.210123218858508,0.305524590710488,2.51108799993,-1.05320982885,-1.14320223595,-0.79513245,16.26585765,-2.11053675,1
1569268982.09425,1569268982,94253643,1.161999941,-0.028621852,-0.16787222,1.279999971,0.159398854,-0.143416449,1.10800004,0.024804667,0.100393027,0.223324601645103,0.327326491481503,0.924583709857,-0.297482262732,2.49580925447,0.8638476,10.57231665,-3.6713523,1
1569268982.24641,1569268982,246406635,1.207000017,-0.057127424,-0.17828691,1.284999967,0.174605325,-0.133560389,1.133999944,0.034579638,0.106425725,0.248564922786509,0.316230192863748,-1.9168123124,1.36756184368,1.02624202429,2.1007203,8.53049505,-1.7865939,1
1569268982.3934,1569268982,393397155,1.222000003,-0.065762408,-0.178521439,1.26699996,0.215298086,-0.115256898,1.200000048,0.0385378,0.114565276,0.291586007149634,0.297575903891588,-1.76845932598,1.43039369675,0.357780920769,3.5142891,9.19801365,0.30430995,3
1569268982.55126,1569268982,551257380,1.19599998,-0.015885592,-0.151455477,1.307000041,0.264476627,-0.10194423,1.228999972,0.061387822,0.125303805,0.305573806083085,0.314596158418526,-0.227333596463,-0.00601227764837,-0.104731331011,2.71915665,7.2445401,3.28851075,3
1569268982.70492,1569268982,704922391,1.172999978,0.058590654,-0.180871472,1.287999988,0.300308973,-0.098374136,1.233999968,0.099651158,0.13581647,0.280104549208475,0.313089125999645,-0.455971728475,-0.309699567496,-0.101240672507,3.46520685,9.57103875,3.5142891,6
1569268982.87965,1569268982,879652530,1.166000009,0.060131475,-0.172230765,1.279999971,0.325422555,-0.116439484,1.19599998,0.125669047,0.129695147,0.294088448428681,0.32793249156467,0.139185546457,0.662448825868,0.493916602425,2.81732115,9.72810195,3.70080165,3
1569268983.03849,1569268983,38486005,1.164000034,0.056253888,-0.175709531,1.30400002,0.325181603,-0.124964908,1.19599998,0.119851738,0.121939264,0.307403852836189,0.338800874042446,0.599952468985,0.850944385084,0.399668822817,1.69824585,8.11820415,4.05419385,3
1569268983.21272,1569268983,212715188,1.111999989,-0.038207754,-0.133606985,1.324000001,0.285089731,-0.114002638,1.171000004,0.077476472,0.121288806,0.387104119477721,0.349105038654853,-0.0685086345306,0.526313144212,-0.654510045391,2.71915665,9.62993745,3.7695168,3
1569268983.36306,1569268983,363057997,0.925000012,-0.292734802,-0.088644587,1.347000003,0.220156595,-0.105064183,1.166000009,0.018541245,0.118880592,0.664387823980403,0.351512459855157,0.397494275753,-0.0723347892244,-1.02975583457,2.4344796,8.8740708,2.66025795,8
1569268983.51032,1569268983,510316136,0.896000028,-0.424469769,-0.1439697,1.350000024,0.1637384,-0.107486814,1.192999959,-0.029385431,0.106160551,0.743932690111963,0.328010717937027,1.30506548679,1.36756184368,-1.68949029183,0.75586665,11.9564361,1.28595495,8
1569268983.67183,1569268983,671825084,0.890999973,-0.208300173,-0.154722303,1.343999982,0.134682894,-0.10700909,1.182000041,-0.040612921,0.107097976,0.570195530583597,0.320646907597198,0.428910202289,-0.655274759392,-0.448561193655,-2.2381506,9.9342474,1.4135688,8
1569268983.8309,1569268983,830896204,1.09800005,-0.103594676,-0.167526707,1.335000038,0.129452065,-0.110621154,1.177000046,-0.036624525,0.110461272,0.337221025093272,0.318469575162328,0.783212040445,-0.65352943014,0.153577398285,-0.9620121,9.86553225,1.65898005,3
1569268983.98903,1569268983,989025131,1.128000021,-0.053388346,-0.194048658,1.328999996,0.139643952,-0.114433162,1.19599998,-0.019763801,0.104488537,0.289829407107849,0.301706059378256,0.777976052689,-2.0620101365,-0.980886615515,-4.9671237,5.78188905,4.52538345,3
1569268984.14808,1569268984,148080451,1.190999985,-0.05830114,-0.193301305,1.300999999,0.155685961,-0.120459013,1.18900001,0.01119596,0.107732229,0.25138910473248,0.292391177791812,0.289283862129,0.0149316733756,-0.169308513335,-3.13144755,10.1502093,2.1399861,6
1569268984.30508,1569268984,305080477,1.222000003,-0.059818633,-0.198332652,1.296000004,0.171897531,-0.119996071,1.166000009,0.037445895,0.103757925,0.255548431279952,0.291621487289679,0.320699788665,0.453009315628,-0.00873822215082,-2.36576445,10.61158245,0.0981645,6
1569268984.45488,1569268984,454875561,1.213999987,-0.055490445,-0.19703424,1.289999962,0.156461149,-0.119440533,1.151000023,0.040696461,0.102423131,0.238160151505543,0.286261997885234,-0.119123182839,-0.250358372928,0.153577398285,-2.60135925,9.17838075,-2.0810874,6
1569268984.61777,1569268984,617774848,1.212000012,-0.049503889,-0.196709648,1.299000025,0.153340533,-0.120273836,1.157999992,0.035311483,0.095536575,0.233575031102671,0.283524248426643,0.517921994141,0.309892316964,0.195465300333,-2.0810874,10.72937985,0.32394285,6
1569268984.78867,1569268984,788665188,1.213999987,-0.057458732,-0.185225338,1.299000025,0.153340533,-0.120273836,1.166000009,0.02421264,0.094306253,0.236389581404506,0.283562394548127,-0.682864531235,0.0777635264476,-0.392710657591,-2.24796705,10.08149415,1.01109435,6
1569268984.96202,1569268984,962018644,1.212000012,-0.057364073,-0.177060544,1.300999999,0.147248596,-0.124677412,1.164000034,0.018509442,0.097918674,0.229197152075311,0.291361935889293,-0.269221498511,-0.0182295824124,0.130888118009,-2.58172635,9.2667288,1.3350372,6
1569268985.1192,1569268985,119203156,1.212000012,-0.063259214,-0.188850001,1.30400002,0.147588134,-0.120736785,1.171000004,0.016722182,0.094710656,0.239916685173199,0.285013160191446,-0.0475646835066,-0.140402630052,-0.218177732391,-2.6111757,8.39306475,1.4528346,6
1569268985.29581,1569268985,295812049,1.184000015,-0.063717425,-0.180648103,1.307000041,0.145808607,-0.125252396,1.18599999,0.018859277,0.097846612,0.249196406145224,0.283778632211863,0.247395960081,0.0114410148716,-0.0715700752228,-2.42466315,9.96369675,1.69824585,6
1569268985.45117,1569268985,451168422,1.213999987,-0.059427023,-0.189161643,1.315000057,0.150965169,-0.121755272,1.18900001,0.018906981,0.096166499,0.242918726009255,0.284262686854293,-0.304128083551,-0.0793161062324,0.272259787421,-2.36576445,9.09984915,1.3939359,6
1569268985.60479,1569268985,604792746,1.197999954,-0.062528491,-0.190552995,1.309999943,0.150391161,-0.121292323,1.179999948,0.018763868,0.095438577,0.250351385915263,0.284952673223674,-2.07912793283,1.0830731756,0.249570507145,-1.4332017,9.06058335,1.2957714,6
1569268985.76427,1569268985,764274463,1.164000034,-0.060753897,-0.187032074,1.300999999,0.153576627,-0.124677412,1.172999978,0.018652556,0.09867578,0.261905837661649,0.290646105578248,-0.279693474023,-0.421400639624,-0.380493352827,-1.9240242,10.72937985,1.3154043,6
1569268985.93492,1569268985,934915096,1.167999983,-0.05528155,-0.170632616,1.300999999,0.155685961,-0.124677412,1.161999941,0.020361619,0.103401974,0.253590567112062,0.299422611003033,0.371314336973,-0.581970930808,-0.462523827671,-2.99401725,9.3256275,1.60008135,6
1569268986.09728,1569268986,97284222,1.205000043,-0.039449491,-0.176037923,1.307000041,0.162761182,-0.125252396,1.164000034,0.020396665,0.096031584,0.232104126675466,0.299471630555022,0.182818777757,-0.157855922572,-0.174544501091,-3.11181465,8.70719115,1.1190753,6
1569268986.25642,1569268986,256417678,1.197999954,-0.037277978,-0.175015301,1.284999967,0.166271716,-0.106478035,1.128000021,0.025252404,0.10037645,0.231730095197513,0.295506695974172,-0.319836046819,0.135359391764,-0.209451086131,-3.4357575,9.2078301,1.32522075,6
1569268986.40888,1569268986,408884658,1.19599998,-0.029459326,-0.174723119,1.292999983,0.171499625,-0.098756023,1.111999989,0.026697127,0.098952666,0.235721234180745,0.304659624763668,0.0868256688974,0.0899808312116,-0.129165940539,-3.48483975,9.74773485,0.4711896,6
1569268986.56912,1569268986,569116017,1.190999985,-0.029336167,-0.173992664,1.279999971,0.155248269,-0.091537662,1.101999998,0.024670344,0.099849381,0.220887389581792,0.292170472692896,-0.379177241387,0.0533289169196,-0.193743122863,-4.09345965,8.8544379,-0.6282528,6
1569268986.73203,1569268986,732030072,1.18599999,-0.029213009,-0.173262224,1.279999971,0.15317297,-0.089462511,1.078999996,0.018907217,0.096016124,0.221637166699701,0.304681155341319,-0.119123182839,-0.0217202409164,-0.0122288806548,-3.97566225,9.06058335,0.52027185,6
1569268986.90325,1569268986,903246121,1.182000041,-0.03103089,-0.17267786,1.27699995,0.150743544,-0.087182544,1.075000048,0.0170942,0.09566018,0.222207958057241,0.303475813335067,-0.105160548823,0.0288943073916,0.00173375336118,-3.60263715,8.3636154,0.3730251,6
1569268987.07059,1569268987,70588627,1.184000015,-0.029163746,-0.172970042,1.27699995,0.150743544,-0.087182544,1.069000006,0.016998792,0.095126256,0.219943437543038,0.307226518954638,-0.0562913297666,-0.0112482654044,-0.0645887582148,-4.122909,8.9329695,0.93256275,6
1569268987.23207,1569268987,232068120,1.18900001,-0.03121466,-0.173700497,1.27699995,0.150743544,-0.091323122,1.062000036,0.01688748,0.094503358,0.218263165364199,0.314124003474376,-0.108651207327,0.00620502711563,-0.00175690514282,-4.17199125,8.9526024,0.7067844,6
1569268987.38582,1569268987,385815965,1.190999985,-0.033198163,-0.173992664,1.279999971,0.15109767,-0.091537662,1.062000036,0.01688748,0.094503358,0.220646275572429,0.316461068509984,-0.382667899891,-0.0234655701684,-0.247848329675,-4.7707947,7.7942613,0.2552277,6
1569268987.54051,1569268987,540513887,1.190999985,-0.033198163,-0.173992664,1.274000049,0.150389403,-0.086977735,1.062000036,0.011721939,0.096225083,0.21946526577726,0.312627483768354,0.0135218403134,0.14932202578,0.452028700377,-4.2210735,5.76225615,1.1976069,3
1569268987.71197,1569268987,711974373,1.18599999,-0.033058792,-0.173262224,1.269000053,0.141569331,-0.098980285,1.067999959,0.004861864,0.096768729,0.207127492772222,0.312101979813549,-1.90110434913,0.243569805388,-0.410163950111,-1.22705625,11.8779045,-0.9227463,3
1569268987.8803,1569268987,880298615,1.18599999,-0.036904577,-0.17518498,1.284999967,0.135020673,-0.141893417,1.047999978,0.011567413,0.084762394,0.201165641202831,0.350403423000826,0.720380187373,-0.0705894599724,-0.952961347483,-2.48356185,7.656831,1.30558785,1
1569268988.03996,1569268988,39961551,1.18599999,-0.040750358,-0.179030493,1.296000004,0.148783922,-0.119996071,1.04400003,0.008137936,0.086131424,0.22695442131845,0.354646055199953,-0.187191023667,0.0725275386916,-0.0925140262468,-2.8860363,10.4250699,-0.46137315,6
1569268988.20854,1569268988,208539326,1.18900001,-0.040853437,-0.179483354,1.299000025,0.153340533,-0.097108334,1.04400003,0.009830599,0.092901602,0.237901124848878,0.348889487352956,0.0903163274014,0.0114410148716,-0.284500243967,-3.5928207,9.25691235,-0.5693541,6
1569268988.38265,1569268988,382647643,1.192999959,-0.040990874,-0.176218957,1.300999999,0.153576627,-0.084602669,1.050999999,0.004784475,0.095228404,0.240653413257085,0.342020934027615,0.149657521969,-0.163091910328,-0.345586767787,-4.3388709,8.7562734,0.4122909,6
1569268988.55023,1569268988,550225008,1.192999959,-0.039056633,-0.174284846,1.300999999,0.155685961,-0.080384269,1.049000025,0.003074601,0.095047183,0.241673343417894,0.342885415915986,-0.192427011423,0.0131863441236,-0.0733154044748,-4.03456095,8.049489,0.59880345,6
1569268988.72345,1569268988,723448291,1.192999959,-0.039056633,-0.176218957,1.287999988,0.152042031,-0.0754048,1.049000025,0.00477537,0.093346536,0.236023725807823,0.327544600257545,0.0885709981494,-0.0828067647364,-0.101240672507,-4.3781367,8.7366405,1.12889175,6
1569268988.88636,1569268988,886364461,1.18599999,-0.038827468,-0.17518498,1.289999962,0.154369637,-0.07970462,1.046000004,0.003065808,0.087992214,0.23928563413233,0.332492189844644,-0.00393145220661,-0.122949337532,-0.0157195391588,-4.3585038,9.15874785,1.34485365,6
1569268989.05057,1569268989,50574609,1.18599999,-0.038827468,-0.17518498,1.284999967,0.153771296,-0.075229168,1.04400003,0.003059946,0.087823965,0.238508791646991,0.327690715208628,-0.105160548823,0.126632745504,0.0715469234412,-4.23088995,6.9500466,1.6884294,3
1569268989.21605,1569268989,216046898,1.18900001,-0.038925681,-0.175628111,1.27699995,0.150743544,-0.089252837,1.041000009,0.003051153,0.090946965,0.226227965359456,0.331633808819516,-0.270966827763,0.17550196456,-0.0942593554988,-1.46265105,10.3858041,-0.0588987,6
1569268989.3683,1569268989,368299247,1.18599999,-0.040750358,-0.179030493,1.279999971,0.132420003,-0.133040696,1.034999967,0.001355495,0.083710954,0.202333961027238,0.352397765309323,0.793684015957,-0.0688441307204,-0.912818774687,-3.4161246,8.53049505,1.10925885,1
1569268989.52346,1569268989,523460164,1.192999959,-0.052596319,-0.185889482,1.30400002,0.139131308,-0.129193023,1.024999976,0.001342399,0.079578668,0.228680967638747,0.374716462086218,-0.197662999179,-0.0304468871764,-0.357804072551,-2.9253021,8.55012795,0.392658,6
1569268989.69626,1569268989,696263241,1.192999959,-0.052596319,-0.185889482,1.312000036,0.150620759,-0.091699079,1.024999976,-0.000319459,0.086225636,0.253633655365699,0.369877260801097,0.0205031573214,0.0533289169196,-0.294972219479,-3.52410555,7.8924258,-0.52027185,6
1569268989.85748,1569268989,857482917,1.190999985,-0.054439142,-0.185577855,1.312000036,0.154875115,-0.081063926,1.034000039,-0.000322264,0.086982742,0.263394441627916,0.360013760023658,0.00304986480139,-0.0391735334364,-0.120439294279,-4.01492805,8.27526735,0.12761385,6
1569268990.02232,1569268990,22318165,1.18599999,-0.046519034,-0.184798762,1.299000025,0.153340533,-0.080260701,1.027999997,-0.000320394,0.08647801,0.252271799115693,0.353347553279263,0.106024290669,0.000969039359627,0.118670813245,-3.83823195,8.3243496,-0.77549955,6
1569268990.18769,1569268990,187694585,1.182000041,-0.046362139,-0.182259232,1.312000036,0.154875115,-0.081063926,1.031999946,-0.000321641,0.090160675,0.260070992334582,0.363048133806718,0.266594581853,0.215644537356,0.998316756253,-2.1399861,7.15619205,3.3964917,1
1569268990.35407,1569268990,354070383,1.18900001,-0.04856446,-0.185266212,1.27699995,0.134180084,-0.099604271,1.024999976,-0.000319459,0.086225636,0.220176124812976,0.340773925497298,-0.642721958439,-0.0199749116644,0.0767829111972,-0.785316,9.0703998,1.374303,6
1569268990.51185,1569268990,511850178,1.18900001,-0.056275479,-0.191049084,1.284999967,0.128770471,-0.137726903,1.023000002,-0.001977452,0.07942339,0.215177253309919,0.364545265747343,0.830335930249,-0.0670988014684,0.345563616005,-3.8087826,14.0571564,2.28723285,1
1569268990.66965,1569268990,669650200,1.190999985,-0.060232136,-0.193301305,1.287999988,0.129071102,-0.142224684,1.02699995,-0.006980486,0.079733945,0.218754514723839,0.368641678898199,0.259613264845,-0.1822905321,-0.534082327003,-1.9829229,9.11948205,0.16687965,1
1569268990.8326,1569268990,832599782,1.190999985,-0.060232136,-0.191370443,1.289999962,0.135546058,-0.098526895,1.031999946,-0.010360885,0.090160675,0.238222629271718,0.351362837169941,0.0658817178734,0.0271489781396,-0.0907686969948,-3.83823195,8.6188431,-0.12761385,6
1569268991.00282,1569268991,2820710,1.18900001,-0.058203235,-0.191049084,1.30400002,0.141245514,-0.08268369,1.041000009,-0.012139041,0.087571599,0.254456016620634,0.348830461587032,0.0292298035814,-0.0234655701684,-0.157091208571,-4.0640103,9.74773485,-0.2355948,6
1569268991.16284,1569268991,162839531,1.192999959,-0.05839904,-0.189757705,1.296000004,0.138277739,-0.082176432,1.039000034,-0.01211572,0.090772234,0.246707306272266,0.344352171709669,-0.0999245610666,-0.00950293615237,0.0698015941892,-3.730251,7.62738165,0.3141264,6
1569268991.32993,1569268991,329926930,1.192999959,-0.056464802,-0.185889482,1.300999999,0.138811216,-0.080384269,1.041000009,-0.010451242,0.090946965,0.246836143658325,0.345302284834845,-0.281438803275,0.0638008924316,0.174521349309,-2.3166822,5.70335745,1.16815755,3
1569268991.5025,1569268991,502503664,1.192999959,-0.05839904,-0.189757705,1.281999946,0.130548373,-0.091680691,1.027999997,-0.006987283,0.091477826,0.230740597296074,0.342022036004981,0.200272070277,0.14059537952,1.36658122843,-2.5130112,19.46602035,0,1
1569268991.67802,1569268991,678024492,1.190999985,-0.062163137,-0.193301305,1.299000025,0.119642913,-0.145545289,1.029999971,-0.013680736,0.084976405,0.216790418424792,0.378518791923608,0.839062576509,0.273240402672,-0.118693965027,-4.1621748,11.00424045,2.13016965,1
1569268991.85297,1569268991,852972440,1.192999959,-0.066136003,-0.191691801,1.281999946,0.11184153,-0.143640548,1.046000004,-0.018980971,0.084600635,0.20470936191009,0.353418359751071,0.154893509725,-0.12993065454,-1.67029167005,-1.0012779,6.46904055,-0.59880345,1
1569268992.00828,1569268992,8281124,1.192999959,-0.066136003,-0.191691801,1.292999983,0.127475783,-0.098756023,1.034000039,-0.017086765,0.090335406,0.236902062698018,0.351759676196004,0.413202239021,-0.0356828749324,-0.242612341919,-2.8664034,8.8151721,-1.3546701,6
1569268992.17197,1569268992,171965389,1.18900001,-0.062058747,-0.191049084,1.307000041,0.130975097,-0.084992841,1.042000055,-0.018908385,0.084277116,0.249867962981836,0.348342315975574,0.00130453554939,-0.0444095211924,-0.0855327092388,-3.85786485,9.7379184,-0.57917055,6
1569268992.33959,1569268992,339587748,1.192999959,-0.062267523,-0.191691801,1.309999943,0.131275728,-0.083064139,1.034999967,-0.01710329,0.083710954,0.25089431084669,0.354196628199371,-0.117377853587,-0.0479001796964,-0.104731331011,-3.81859905,8.8544379,-0.75586665,6
1569268992.51164,1569268992,511643438,1.190999985,-0.062163137,-0.18943958,1.307000041,0.133094177,-0.080754988,1.042000055,-0.017218964,0.087655723,0.251781199061217,0.348110902611239,-0.586871422375,-0.142147959304,0.0698015941892,-1.766961,6.68500245,-0.67733505,3
1569268992.68175,1569268992,681747548,1.18900001,-0.062058747,-0.189121455,1.299000025,0.130173415,-0.084472604,1.04400003,-0.017252015,0.091209061,0.244958342219273,0.342962537717835,0.280557215869,0.203427232592,2.50279057148,3.7695168,19.60345065,0.4122909,1
1569268992.85055,1569268992,850550334,1.192999959,-0.064201765,-0.191691801,1.284999967,0.110019848,-0.125227362,1.039000034,-0.013800276,0.080665596,0.2079295398925,0.343859419381482,-0.466443703987,-0.0566268259564,-0.455542510663,-5.60519295,10.8962595,1.0405437,1
1569268993.01407,1569268993,14068479,1.197999954,-0.074182577,-0.194437414,1.289999962,0.108356431,-0.150810987,1.041000009,-0.018890239,0.07913319,0.209016162165538,0.362031788875367,0.378295653981,-0.0705894599724,-2.13978523884,-1.75714455,7.3034388,-1.22705625,1
1569268993.17672,1569268993,176717609,1.19599998,-0.070180528,-0.194112822,1.27699995,0.109334901,-0.11823687,1.047999978,-0.025813857,0.081364334,0.211054363804592,0.33248581113063,-0.0807259392946,-0.377767408324,-0.286245573219,-2.8075047,7.7353626,0.81476535,3
1569268993.33021,1569268993,330214114,1.197999954,-0.070297882,-0.194437414,1.292999983,0.116993919,-0.088274889,1.046000004,-0.027460501,0.087992214,0.235316182924592,0.336074635584939,-0.211625633195,0.0603102339276,-0.0802967214828,-3.87749775,7.43105265,-1.4921004,6
1569268993.4904,1569268993,490400919,1.192999959,-0.066136003,-0.193625912,1.300999999,0.128264502,-0.080384269,1.057999969,-0.026060173,0.0855712,0.249558078798495,0.332274491324366,-0.206389645439,-0.0967693987524,-0.0593527704588,-4.1425419,9.620121,-1.14852465,6
1569268993.66175,1569268993,661746841,1.190999985,-0.069887124,-0.193301305,1.299000025,0.125961214,-0.080260701,1.041000009,-0.020578038,0.080820873,0.250596804229521,0.337616697032355,-0.154029767879,0.0446022706596,-0.0174648684108,-4.54501635,9.6790197,0.4515567,6
1569268993.82676,1569268993,826756876,1.18900001,-0.065914258,-0.192976698,1.289999962,0.120905489,-0.075521894,1.046000004,-0.020676875,0.081209064,0.242689594247106,0.322716808510849,-0.150539109375,0.0166770026276,0.0942362037172,-2.4148467,8.35379895,0.196329,6
1569268993.98969,1569268993,989685759,1.190999985,-0.069887124,-0.193301305,1.289999962,0.120905489,-0.075521894,1.042000055,-0.020597806,0.080898508,0.245101624386448,0.325567932280972,-0.536256874067,0.400649438068,2.39807081636,-4.70207955,6.19417995,-0.8245818,1
1569268994.14802,1569268994,148021262,1.192999959,-0.070004486,-0.193625912,1.287999988,0.116541505,-0.098374136,1.034000039,-0.020439666,0.083630078,0.229994158837408,0.341182281506956,-0.716025787023,0.00271436861163,0.277495775177,-0.2552277,10.23855735,-0.0785316,6
1569268994.29543,1569268994,295434472,1.197999954,-0.080009617,-0.200264052,1.309999943,0.105788507,-0.146777779,1.039000034,-0.028961286,0.078981154,0.223440644953755,0.377578539142321,0.786702698949,0.313382975468,-0.0802967214828,-4.44685185,11.65212615,2.75842245,1
1569268994.46294,1569268994,462943690,1.200000048,-0.082088783,-0.200598389,1.284999967,0.107936442,-0.141893417,1.04400003,-0.032485984,0.079361238,0.21628880253917,0.356023945426285,0.285793203625,0.0847448434556,-0.902346799175,-0.9423792,7.656831,-1.36448655,1
1569268994.63487,1569268994,634869717,1.200000048,-0.080143191,-0.198652938,1.284999967,0.110019848,-0.098145008,1.049000025,-0.032641567,0.081441976,0.231276483077305,0.329089253510384,0.182818777757,0.123142087,0.331600981989,-2.8075047,10.3269054,-2.4344796,1
1569268994.79969,1569268994,799690898,1.200000048,-0.078197598,-0.194762021,1.299000025,0.111218505,-0.084472604,1.049000025,-0.029240029,0.081441976,0.240506155896075,0.331294804713273,0.174092131497,0.0114410148716,-0.0768060629788,-4.07382675,9.3845262,-0.0588987,6
1569268994.97217,1569268994,972165931,1.197999954,-0.080009617,-0.194437414,1.299000025,0.111218505,-0.082366653,1.047999978,-0.027513005,0.081364334,0.243575582636624,0.330235206428504,0.149657521969,0.00620502711563,-0.0523714534508,-3.87749775,8.5795773,0.20614545,6
1569268995.12948,1569268995,129477560,1.200000048,-0.078197598,-0.194762021,1.299000025,0.111218505,-0.084472604,1.046000004,-0.027460501,0.081209064,0.240506155896075,0.33270300936783,0.0711177056294,0.0411116121556,0.174521349309,-1.177974,6.35124315,0.04908225,3
1569268995.29337,1569268995,293365597,1.19599998,-0.07793694,-0.194112822,1.296000004,0.108860411,-0.088479705,1.057000041,-0.027749281,0.082063079,0.23675221339568,0.323833338982889,0.369569007721,-0.0129935946564,2.60576499735,-9.49250715,19.60345065,-0.75586665,1
1569268995.4509,1569268995,450896245,1.197999954,-0.081951968,-0.198321849,1.299000025,0.102794103,-0.120273836,1.054999948,-0.034538768,0.081907801,0.224552037232331,0.345360347134856,-1.00575044285,0.657212838112,-0.479977120191,-0.22577835,10.37598765,0.1374303,1
1569268995.60972,1569268995,609715994,1.19599998,-0.085693359,-0.205746636,1.299000025,0.092263594,-0.145545289,1.050999999,-0.034407813,0.079893358,0.214247260359755,0.358290722470665,0.376550324729,-0.27828364096,-0.862204226379,-3.34740945,7.15619205,1.2957714,1
1569268995.77433,1569268995,774329727,1.19599998,-0.081815153,-0.205746636,1.296000004,0.104657941,-0.103187338,1.057000041,-0.036317986,0.082063079,0.23513959511785,0.333635896309412,0.0414471083454,0.0777635264476,-0.0541167827028,-2.4737454,7.9513245,0.1374303,6
1569268995.93168,1569268995,931675380,1.19599998,-0.081815153,-0.207685605,1.32099998,0.110960342,-0.090186484,1.054999948,-0.036249265,0.080197424,0.258057038090938,0.3485073335275,-0.0685086345306,0.0812541849516,-0.0139742099068,-3.7498839,9.423792,-0.981645,6
1569268996.08343,1569268996,83433285,1.19599998,-0.081815153,-0.207685605,1.32099998,0.110960342,-0.083761625,1.057000041,-0.036317986,0.080349453,0.261045100110183,0.343975754396733,0.0658817178734,0.0306396366436,-0.0576074412068,-3.68116875,9.0900327,-0.0981645,6
1569268996.23631,1569268996,236305682,1.200000048,-0.082088783,-0.206434757,1.317999959,0.110708356,-0.083571397,1.059999943,-0.036421064,0.082295991,0.257274408041458,0.340180929635215,-0.496114301271,0.0323849658956,0.0226777043852,-2.73878955,8.7170076,-0.981645,6
1569268996.41317,1569268996,413166577,1.200000048,-0.082088783,-0.206434757,1.309999943,0.110036373,-0.083064139,1.065999985,-0.036627218,0.082761817,0.25344104216511,0.32946082636989,0.0885709981494,0.191209927828,2.87803636066,-4.8689592,0.87366405,-0.10798095,1
1569268996.58097,1569268996,580971398,1.197999954,-0.081951968,-0.206090689,1.287999988,0.08939404,-0.10255038,1.077000022,-0.040497508,0.083615832,0.219499558462774,0.309920406530881,-1.03367571089,0.494897217676,-0.589932863067,-3.8087826,11.92698675,1.2172398,3
1569268996.74737,1569268996,747369989,1.200000048,-0.085979961,-0.206434757,1.307000041,0.090712741,-0.146441653,1.057999969,-0.036352344,0.080425471,0.215101097090684,0.360021198867641,0.325935776421,-0.185781190604,-1.34566042918,-2.36576445,6.64573665,1.89457485,1
1569268996.90813,1569268996,908132891,1.190999985,-0.08147312,-0.208748221,1.287999988,0.08939404,-0.123431593,1.057000041,-0.036317986,0.080349453,0.214204374282497,0.33270287600783,0.257867935593,0.151067355032,-0.366530718811,-2.7093402,9.6593868,-0.2552277,3
1569268997.07366,1569268997,73664431,1.192999959,-0.081609927,-0.209098756,1.300999999,0.092405647,-0.099367045,1.077000022,-0.042243674,0.081869781,0.23234990215952,0.318045934481666,0.0100311818094,0.0323849658956,-0.120439294279,-3.58300425,8.8151721,-0.3337593,6
1569268997.22712,1569268997,227123005,1.192999959,-0.08547841,-0.209098756,1.312000036,0.099568479,-0.089572042,1.088000059,-0.042675134,0.082705967,0.250379721251986,0.316368373135335,0.0554097423614,-0.0164842531604,-0.0558621119548,-3.4750233,7.8924258,0.0392658,6
1569268997.38215,1569268997,382148359,1.19599998,-0.085693359,-0.207685605,1.30400002,0.09473294,-0.091139935,1.092000008,-0.042832028,0.083010033,0.24041745195927,0.306914217434191,-0.452481069971,-0.00601227764837,0.246079848641,0.2355948,6.3021609,-0.0981645,3
1569268997.55615,1569268997,556152602,1.18900001,-0.081336305,-0.208397672,1.300999999,0.092405647,-0.093039453,1.085999966,-0.044357445,0.082553931,0.236723007144685,0.309454672008637,0.390512958745,-0.0758254477284,2.22179256191,-8.2850838,19.60345065,4.17199125,1
1569268997.72059,1569268997,720591649,1.192999959,-0.08547841,-0.209098756,1.299000025,0.081733093,-0.143439338,1.126000047,-0.053293686,0.083769105,0.208582980848443,0.315887479976019,0.711653541113,0.0376209536516,0.312402360217,-3.15108045,12.4865244,1.75714455,1
1569268997.88784,1569268997,887836662,1.192999959,-0.08547841,-0.211032867,1.299000025,0.083839193,-0.145545289,1.128000021,-0.053388346,0.085746624,0.210221520187577,0.318697894325011,0.350370385949,-0.248613043676,-1.51495736663,-1.48228395,7.82371065,0.55953765,1
1569268998.04798,1569268998,47984926,1.200000048,-0.085979961,-0.212271109,1.299000025,0.085945293,-0.107638106,1.133999944,-0.053672325,0.086202726,0.224293008642185,0.290331490087542,0.252631947837,0.110924782236,-0.0366634901828,-2.8467705,8.19673575,-0.08834805,6
1569268998.2029,1569268998,202901416,1.192999959,-0.08547841,-0.211032867,1.309999943,0.086673081,-0.100054443,1.129999995,-0.055315103,0.084066689,0.235884172218161,0.29404288279872,0.133949558701,-0.0374282041844,-0.0698247459708,-3.4161246,9.15874785,0.3337593,6
1569268998.36015,1569268998,360154866,1.190999985,-0.085335113,-0.210679084,1.309999943,0.086673081,-0.093683079,1.129999995,-0.053483006,0.084066689,0.239657826897232,0.28920354428535,0.158384168229,-0.0601174844604,-0.0122288806548,-3.20997915,8.90352015,0.81476535,6
1569268998.53083,1569268998,530829112,1.19599998,-0.085693359,-0.211563542,1.309999943,0.086673081,-0.093683079,1.131999969,-0.055413004,0.084215477,0.237911716313782,0.288998862491729,0.00828585255739,-0.00775760690037,0.0628202771812,-2.18906835,5.58556005,2.2577835,3
1569268998.69508,1569268998,695075990,1.192999959,-0.08547841,-0.211032867,1.300999999,0.086077616,-0.097257845,1.128000021,-0.055217199,0.083917901,0.232465555143154,0.287607141901138,-0.136576475359,0.17550196456,0.0680562649372,-1.83567615,9.2667288,0.28467705,6
1569268998.86032,1569268998,860316556,1.200000048,-0.087925553,-0.212271109,1.300999999,0.073421553,-0.137332588,1.146999955,-0.059866596,0.08533141,0.204571896032288,0.301763152523949,-2.48229899005,-0.307954238244,-0.230395037155,-2.4344796,10.2680067,0.81476535,3
1569268999.01895,1569268999,18949385,1.202999949,-0.088145368,-0.208901152,1.315000057,0.074211642,-0.145206109,1.171000004,-0.057322111,0.087116897,0.207270068728998,0.303333352203716,0.165365485237,0.910285579652,0.722554734437,-1.85530905,9.39434265,-1.177974,1
1569268999.17432,1569268999,174318211,1.19599998,-0.062424105,-0.194112822,1.30400002,0.09050452,-0.143991455,1.207000017,-0.053213544,0.093708731,0.193812601278505,0.294219749381891,1.93687467602,0.261023097908,0.0977268622212,1.3350372,7.3034388,-2.20870125,3
1569268999.33404,1569268999,334038314,1.200000048,-0.062632881,-0.19281657,1.332000017,0.13132076,-0.110372566,1.256000042,-0.04111914,0.109730437,0.248674527181032,0.289753079779368,3.8864074505,-0.829807684592,0.0628202771812,-0.06871515,12.4472586,-8.00040675,1
1569268999.49605,1569268999,496045233,1.19599998,-0.058545895,-0.192173839,1.335000038,0.168412492,-0.104128197,1.284999967,-0.023317922,0.120597057,0.280326881744932,0.299603068305351,-0.295401437291,-0.0391735334364,0.855199757589,1.2368727,7.8138942,-5.42849685,1
1569268999.67206,1569268999,672063011,1.197999954,-0.081951968,-0.186668575,1.355999947,0.208436474,-0.10576617,1.292999983,0.020560747,0.129732758,0.340344890030644,0.307775940172277,1.62969672767,-0.236395738912,0.345563616005,2.52282765,6.70463535,-7.7549955,3
1569268999.83673,1569268999,836726447,1.210000038,-0.123970725,-0.161075041,1.355999947,0.248009771,-0.121154718,1.292999983,0.058295466,0.131828994,0.40159568600875,0.322430258386109,0.716889528869,-0.24337705592,-0.129165940539,0.5693541,5.97821805,-8.7562734,3
1569268999.99939,1569268999,999386748,1.146999955,-0.044989318,-0.165705204,1.347000003,0.274754703,-0.129085675,1.27699995,0.084489711,0.123986833,0.378915885216538,0.324262962587732,0.0414471083454,-0.161346581076,-0.230395037155,1.0798095,6.4199583,-7.4016033,3
1569269000.16576,1569269000,165760041,1.143000007,-0.030007029,-0.178098649,1.343999982,0.293754339,-0.128798187,1.271999955,0.092408203,0.11937701,0.38425635832429,0.327589985768979,0.983924904425,0.386686804052,0.101217520725,2.38539735,3.68116875,-8.96241885,3
1569269000.33956,1569269000,339561926,1.166000009,-0.083543859,-0.185463101,1.347000003,0.274754703,-0.140004545,1.284999967,0.089185819,0.112264022,0.403986803835067,0.31924793667186,2.51981464619,-0.501685785216,-0.628330106611,2.0810874,1.4528346,-11.6619426,3
1569269000.50826,1569269000,508264725,1.18900001,-0.112180389,-0.173700497,1.350000024,0.229402065,-0.14250499,1.300999999,0.058656149,0.109443471,0.378909932629971,0.308274548545527,0.153148180473,0.23658848838,0.0488576431652,-0.9227463,-0.4908225,-10.25819025,3
1569269000.67331,1569269000,673314464,1.200000048,-0.04706816,-0.134452924,1.328999996,0.176274553,-0.123051524,1.307000041,0.02290244,0.122661754,0.258172318338282,0.29048583106856,-1.62359699806,-0.49644979746,-0.684180642675,-2.11053675,-3.77933325,-8.07893835,1
1569269000.84331,1569269000,843310983,1.18900001,-0.023503639,-0.152496651,1.315000057,0.133908823,-0.10043633,1.324000001,-0.015439088,0.124257199,0.20824257984266,0.269949957374586,0.402730263509,0.0236583196356,0.368252896281,-1.42338525,-1.99273935,-9.43360845,7
1569269001.00143,1569269001,1429801,1.184000015,-0.038761992,-0.157613918,1.343999982,0.117250405,-0.091756731,1.335000038,-0.045869924,0.120960914,0.232974304457036,0.268212671623504,-0.923719968011,0.199936574088,-0.272282939203,-1.28595495,-1.08962595,-10.2680067,7
1569269001.17562,1569269001,175624460,1.167999983,-0.096943118,-0.163058311,1.368000031,0.128216058,-0.093395241,1.343999982,-0.054895401,0.126134202,0.309111010898716,0.286877996913324,-0.585126093123,0.54202110748,-0.307189524243,-1.3154043,-0.77549955,-9.8949816,3
1569269001.34148,1569269001,341475717,1.192999959,-0.182190448,-0.201362342,1.350000024,0.113396265,-0.103109539,1.340999961,-0.065643854,0.121504553,0.348818202807,0.287381028724101,-0.246532218235,0.426829376848,-0.0925140262468,0.85403115,-0.87366405,-9.57103875,3
1569269001.51771,1569269001,517714489,1.192999959,-0.213138297,-0.20716466,1.376999974,0.106733933,-0.107404143,1.324000001,-0.069104947,0.117817745,0.382264842481336,0.29060834071296,-0.269221498511,-0.0810614354844,0.169285361553,-0.04908225,-0.0196329,-10.17965865,3
1569269001.675,1569269001,674998356,1.18599999,-0.196504563,-0.209794611,1.376999974,0.095571108,-0.107404143,1.309999943,-0.068374231,0.116571933,0.363693551517427,0.285538720586515,0.489996726109,-0.267811665448,0.369998225533,0.24541125,-1.2761385,-10.2876396,3
1569269001.84146,1569269001,841460927,1.182000041,-0.195841819,-0.197589412,1.383000016,0.091502957,-0.105629995,1.315000057,-0.079295412,0.114884973,0.362525233079672,0.287093936524446,0.285793203625,0.0690368801876,-0.211196415383,-0.196329,-0.9227463,-10.23855735,3
1569269002.00339,1569269002,3387675,1.149000049,-0.173608035,-0.184621871,1.386000037,0.091701441,-0.105859131,1.309999943,-0.072622098,0.116571933,0.364364764459603,0.286799264276716,0.0397017790934,-0.0479001796964,-0.181525818099,0.08834805,0.1570632,-9.7575513,3
1569269002.17166,1569269002,171656464,1.144999981,-0.147013813,-0.169128835,1.376999974,0.106733933,-0.105171733,1.309999943,-0.070498168,0.110200569,0.349717637885651,0.286854406010531,-0.181955035911,-0.0583721552084,-0.207705756879,-0.08834805,0.0981645,-10.49378505,3
1569269002.34509,1569269002,345094648,1.131999969,-0.093955144,-0.169043809,1.389000058,0.118924178,-0.103836395,1.300999999,-0.063685797,0.115771063,0.340027437601372,0.298860919095699,-0.173228389651,0.185973940072,-0.186761805855,-0.0588987,0.38284155,-9.76736775,3
1569269002.51748,1569269002,517480805,1.123999953,-0.080534562,-0.169671401,1.389000058,0.121176198,-0.103836395,1.309999943,-0.05775455,0.108076781,0.339479799641759,0.288382428230743,-0.358233290363,0.243569805388,-0.181525818099,0.67733505,0.4711896,-9.5415894,3
1569269002.67727,1569269002,677270929,1.143000007,-0.094868138,-0.166980371,1.398000002,0.121961355,-0.106775656,1.30400002,-0.049033195,0.118152082,0.34009503700123,0.297771086688247,-0.00742211071061,-0.0705894599724,0.0977268622212,0.14724675,0.32394285,-10.4250699,3
1569269002.84114,1569269002,841135802,1.202999949,-0.095947184,-0.177696064,1.404999971,0.122572035,-0.107310295,1.300999999,-0.036264326,0.117880255,0.305792109836228,0.294543320346983,0.407966251265,-0.0444095211924,0.137869435017,0.36320865,0.52027185,-9.15874785,3
1569269002.99895,1569269002,998954138,1.212000012,-0.098630041,-0.180990368,1.394999981,0.128484875,-0.106546521,1.30400002,-0.032119531,0.118152082,0.301018371664999,0.290799295595374,0.500468701621,-0.117713349776,0.699865454161,0.20614545,0.46137315,-10.41525345,3
1569269003.15445,1569269003,154448469,1.217000008,-0.101010077,-0.175817981,1.40199995,0.131402701,-0.109354109,1.30400002,-0.025776908,0.118152082,0.304397970096571,0.293374304786098,3.70489320829,0.3413082435,1.30374937535,-1.2565056,-5.91931935,-10.69011405,1
1569269003.30975,1569269003,309753566,1.192999959,-0.079675689,-0.135602728,1.394999981,0.128484875,-0.108808115,1.30400002,-0.030005325,0.118152082,0.29129500609969,0.291395036711884,-1.58869041302,0.931229530676,0.457264688133,-5.07510465,-1.87494195,-9.02131755,3
1569269003.48272,1569269003,482720951,1.154999971,-0.079010449,-0.131283447,1.376999974,0.120129317,-0.100706913,1.309999943,-0.042886999,0.118695721,0.299792548549806,0.281426436644376,-5.54011583955,-0.0164842531604,-3.50812337241,-0.28467705,-8.51086215,-8.1083877,1
1569269003.6522,1569269003,652201494,1.123999953,-0.084179305,-0.124115333,1.39199996,0.148520529,-0.086006843,1.315000057,-0.049446817,0.117016867,0.356967048207125,0.29383444652807,0.0850803396454,0.514095839448,-0.319406829007,3.81859905,2.9645679,-9.6593868,3
1569269003.81326,1569269003,813263877,1.123999953,-0.042264808,-0.147804484,1.404999971,0.213690504,-0.105032496,1.307000041,-0.025836211,0.116304979,0.382496503009491,0.34053973529982,0.757032101665,0.173756635308,1.81687617544,-3.5731878,-2.54246055,-9.0507669,8
1569269003.96953,1569269003,969527456,1.121999979,-0.018540958,-0.158455491,1.32099998,0.248033643,-0.150151879,1.30400002,-0.000406415,0.105467714,0.332764133086118,0.356865293051217,0.758777430917,0.339562914248,0.197210629585,-0.196329,-1.5509991,-7.6371981,3
1569269004.13617,1569269004,136170745,1.164000034,-0.021122226,-0.149290249,1.289999962,0.273585677,-0.177998722,1.274000049,0.038848728,0.105106734,0.3217963740763,0.368111575013343,-0.215116291699,-0.0269562286724,-0.0192101976628,-0.2159619,-4.87877565,-8.4814128,3
1569269004.3077,1569269004,307701502,1.18900001,-0.036997925,-0.171772867,1.281999946,0.280203164,-0.185208425,1.264000058,0.056987986,0.098134086,0.330826288522483,0.36115369331819,-11.3660248827,-0.23465040966,0.568965760261,-0.4711896,15.48054165,1.3154043,3
1569269004.4839,1569269004,483900739,1.19599998,-0.085693359,-0.19023487,1.296000004,0.283263117,-0.189332068,1.205000043,0.062142733,0.091599897,0.382269147373667,0.368914605404923,1.65936732495,0.0882355019596,-0.0925140262468,-0.52027185,0.91292985,-10.5036015,3
1569269004.65895,1569269004,658950708,1.18900001,-0.081336305,-0.183338597,1.296000004,0.274858147,-0.187230989,1.200000048,0.05021134,0.089274362,0.371939023318422,0.368968004817397,0.0711177056294,-0.000776289892373,-0.00350223439482,-0.6086199,1.50191685,-9.5808552,3
1569269004.81505,1569269004,815053797,1.18900001,-0.081336305,-0.167917624,1.26699996,0.21940653,-0.144013956,1.171000004,0.041403614,0.089015335,0.311611345024044,0.308550936022673,-0.265730840007,-0.00775760690037,0.0156963873772,-0.392658,0.22577835,-10.1109435,3
1569269004.97442,1569269004,974423935,1.210000038,-0.072963841,-0.178730041,1.338000059,0.153605625,-0.173776016,1.200000048,0.021027489,0.09705618,0.260273453627577,0.331618822703744,-0.00389213768455,-0.00076852699345,-1.14601319073e-05,-0.50063895,0.38284155,-9.7379184,2
1569269005.14141,1569269005,141409334,1.207000017,-0.066912122,-0.180243716,1.300999999,0.134592533,-0.183734924,1.217000008,0.005540158,0.100404158,0.222378756035662,0.323180339595315,0.00637441310902,0.000949580943445,-1.13455305883e-05,-0.50063895,0.34357575,-9.82626645,2
1569269005.31567,1569269005,315669575,1.212000012,-0.078979582,-0.179025456,1.315000057,0.133908823,-0.175052628,1.200000048,-0.000374001,0.100947089,0.236529629466931,0.327769313199841,-0.00933355015898,-0.000795748308555,-1.13455305883e-05,-0.4908225,0.4122909,-9.84589935,2
1569269005.47845,1569269005,478453637,1.207000017,-0.066912122,-0.17828691,1.309999943,0.137647539,-0.168015659,1.200000048,-0.002319591,0.099001631,0.229257798692968,0.320919004640411,-0.00405658677895,-0.00078779082547,-1.12320752824e-05,-0.5104554,0.392658,-9.86553225,2
1569269005.64557,1569269005,645572174,1.205000043,-0.064847551,-0.17799148,1.309999943,0.154639021,-0.146777779,1.184000015,-0.004208312,0.103440158,0.245303137807975,0.32205197259721,-0.016273891543,0.00270286767853,-1.12320752824e-05,-0.4711896,0.44174025,-9.9538803,2
1569269005.81454,1569269005,814535481,1.210000038,-0.057269413,-0.174806699,1.299000025,0.130173415,-0.160286978,1.174999952,-0.002271266,0.098844022,0.2080063310396,0.316332873394779,0.00292473022905,0.00095753842653,-1.12320752824e-05,-0.52027185,0.4122909,-9.9146145,2
1569269005.97112,1569269005,971122355,1.218999982,-0.039907828,-0.178083181,1.30400002,0.130674466,-0.163018003,1.184000015,-0.000369015,0.099601127,0.191181288505114,0.317082327723502,0.00816071798505,0.00095753842653,-1.12320752824e-05,-0.55953765,0.4122909,-9.9538803,2
1569269006.14044,1569269006,140435175,1.217000008,-0.037869196,-0.179764017,1.324000001,0.136971951,-0.150492877,1.192999959,-0.00037182,0.100358233,0.207063335294241,0.314564145802942,-0.00929257453495,0.00095753842653,-1.12320752824e-05,-0.48100605,0.4319238,-9.8949816,2
1569269006.30629,1569269006,306289458,1.202999949,-0.033532653,-0.185497329,1.309999943,0.158886895,-0.144653991,1.197999954,-0.000373378,0.10077884,0.223925120135072,0.313281194176588,-0.016273891543,0.00095753842653,-1.12320752824e-05,-0.48100605,0.4319238,-9.8949816,2
1569269006.48112,1569269006,481122761,1.200000048,-0.027612261,-0.181143835,1.332000017,0.176672459,-0.149242744,1.212000012,0.001587305,0.101956561,0.24530372652789,0.328870648102999,-0.00769866563288,-0.000779912917215,-1.11197545296e-05,-0.46137315,0.4515567,-9.92443095,2
1569269006.6464,1569269006,646399915,1.19599998,-0.019763801,-0.182478994,1.328999996,0.167655587,-0.151061207,1.217000008,0.001593853,0.100404158,0.231952815448039,0.321489232487917,-0.00769866563288,0.000965416334785,-1.11197545296e-05,-0.4711896,0.42210735,-9.8949816,2
1569269006.81005,1569269006,810049155,1.200000048,-0.037340213,-0.186980203,1.300999999,0.155685961,-0.156315371,1.217000008,0.001593853,0.09843114,0.2200009678903,0.309347961206401,-0.000717348624882,-0.000779912917215,-1.11197545296e-05,-0.5104554,0.30430995,-9.72810195,2
1569269006.97189,1569269006,971893971,1.200000048,-0.033449031,-0.177252933,1.315000057,0.159493342,-0.170788839,1.218999982,0.001596472,0.102545418,0.224707689855314,0.329937951750848,-0.0164253118929,0.000965416334785,-1.11197545296e-05,-0.50063895,0.4122909,-9.92443095,2
1569269007.14374,1569269007,143743024,1.212000012,-0.041643705,-0.175095648,1.284999967,0.151687905,-0.16897577,1.197999954,0.009338359,0.098836631,0.206745151725328,0.31552476549043,-0.00753441251395,0.00271854471596,-1.10085569843e-05,-0.50063895,0.3730251,-9.8557158,2
1569269007.3132,1569269007,313203520,1.207000017,-0.029730272,-0.186114118,1.235999942,0.147907645,-0.156520873,1.202999949,0.003525972,0.101199456,0.182406100105601,0.297245412102773,0.0115824737505,0.00270881256132,-1.08984714144e-05,-0.53990475,0.3533922,-9.88516515,2
1569269007.48692,1569269007,486922299,1.217000008,-0.029976588,-0.189629093,1.248999953,0.167688623,-0.139943093,1.179999948,0.001545396,0.099264637,0.206311004834152,0.299307384906765,-0.00766215958892,0.000953848476225,-1.07894867003e-05,-0.5300883,0.4122909,-9.9538803,2
1569269007.64485,1569269007,644847035,1.212000012,-0.031818476,-0.192779824,1.274000049,0.177241787,-0.136547923,1.143000007,-0.000356236,0.099858195,0.225193749566244,0.323403650884371,-0.0146434765969,-0.000791480775775,-1.07894867003e-05,-0.5300883,0.4908225,-9.92443095,2
1569269007.80552,1569269007,805524818,1.213999987,-0.03187098,-0.193097949,1.279999971,0.159398854,-0.16416797,1.154999971,-0.002232607,0.100906573,0.204394449463111,0.334685288788816,0.0150271206871,0.00269917772822,-1.07894867003e-05,-0.5300883,0.4319238,-9.90479805,2
1569269007.96994,1569269007,969940511,1.217000008,-0.037869196,-0.193575114,1.30400002,0.15604496,-0.165132061,1.151000023,-0.000358729,0.100557111,0.214431129384596,0.344182871643628,-0.0128981473449,0.00269917772822,-1.07894867003e-05,-0.5300883,0.52027185,-10.012779,2
1569269008.12148,1569269008,121480609,1.217000008,-0.033922892,-0.193575114,1.307000041,0.156403959,-0.167630896,1.146999955,-0.002217143,0.100207657,0.21212594984869,0.349997388551451,-0.00242617183292,-0.000791480775775,-1.07894867003e-05,-0.5300883,0.46137315,-9.92443095,2
1569269008.27948,1569269008,279482418,1.207000017,-0.029730272,-0.191984534,1.300999999,0.153576627,-0.17107974,1.154999971,-0.004105237,0.100906573,0.207061406952573,0.34663544664366,0.00278171776385,-0.000783565968018,-1.06815918333e-05,-0.53990475,0.40247445,-9.86553225,2
1569269008.4501,1569269008,450096171,1.171000004,-0.078206398,-0.146391168,1.30400002,0.153930753,-0.165132061,1.139999986,-0.005900233,0.103292465,0.268193740047814,0.352836621393044,-0.00419959924415,0.000961763283982,-1.06815918333e-05,-0.5300883,0.4122909,-9.90479805,2
1569269008.61555,1569269008,615554874,1.139999986,-0.155613378,-0.166542098,1.284999967,0.132937282,-0.150226444,1.154999971,-0.030322062,0.10465157,0.323346066068359,0.329418296978013,-0.0286342087721,-0.000783565968018,0.00173464766017,-0.5300883,0.4711896,-9.86553225,2
1569269008.78253,1569269008,782525775,1.111999989,-0.151791304,-0.187690631,1.307000041,0.092831813,-0.146441653,1.152999997,-0.045224659,0.104470357,0.315542339214317,0.325165249950435,-0.00070894074015,0.00270709253598,-1.06815918333e-05,-0.53990475,0.4319238,-9.8949816,2
1569269008.93913,1569269008,939125042,1.113999963,-0.157482773,-0.19705835,1.292999983,0.089741066,-0.142776802,1.157999992,-0.06044073,0.104923397,0.310011483953699,0.319585603562528,0.00443695878023,0.000959902954226,-1.04690281558e-05,-0.53990475,0.392658,-9.88516515,2
1569269009.08897,1569269009,88967816,1.123999953,-0.135205641,-0.162382424,1.228999972,0.069358259,-0.139694676,1.182000041,-0.073191829,0.107097976,0.231054381223386,0.288853136012067,-0.00254435822777,-0.000785426297774,-1.04690281558e-05,-0.5300883,0.40247445,-9.8949816,2
1569269009.24518,1569269009,245175610,1.133999944,-0.160310119,-0.163827106,1.184000015,0.107131317,-0.153774887,1.19599998,-0.07793694,0.108366475,0.272260860015851,0.321111121856958,-0.000808491978528,-0.00432059041636,-1.03643378742e-05,-0.53990475,0.3730251,-9.78700065,2
1569269009.41678,1569269009,416777902,1.246000052,-0.168062523,-0.184047624,1.182000041,0.122281604,-0.165012777,1.177000046,-0.072882213,0.106644936,0.297922874065933,0.334532253225903,-0.00432597214778,0.00266902591077,-1.02606944955e-05,-0.53990475,0.4319238,-9.9342474,2
1569269009.59017,1569269009,590173857,1.202999949,-0.164213076,-0.18354702,1.223999977,0.094874606,-0.155001253,1.159999967,-0.068068065,0.10510461,0.261500074481351,0.313530501354476,0.00614600336422,0.00266902591077,-1.02606944955e-05,-0.52027185,0.392658,-9.9342474,2
1569269009.75084,1569269009,750839618,1.213999987,-0.181460917,-0.183257177,1.217000008,0.080519952,-0.16200687,1.159999967,-0.071829543,0.103224002,0.262858424623579,0.311137893485569,-0.00432597214778,0.000923696658767,-1.02606944955e-05,-0.53990475,0.392658,-9.8949816,2
1569269009.91174,1569269009,911744787,1.19599998,-0.180709496,-0.192173839,1.197999954,0.05983939,-0.175015301,1.151000023,-0.07687068,0.102423131,0.241168368320016,0.312842964287242,0.00782987258258,0.00265978894418,-1.01580875505e-05,-0.5104554,0.392658,-9.94406385,2
1569269010.06402,1569269010,64021291,1.184000015,-0.20001249,-0.190245673,1.190999985,0.038248766,-0.173992664,1.151000023,-0.078736827,0.104289144,0.238917529688076,0.304510082909108,0.00256794597831,-0.000822560864222,-1.0056506675e-05,-0.53990475,0.38284155,-9.86553225,2
1569269010.21988,1569269010,219876216,1.192999959,-0.201532856,-0.193625912,1.200000048,0.03270103,-0.175307482,1.161999941,-0.088909201,0.105285823,0.235053354526869,0.308164987022711,-0.000913485400433,-0.00081433525558,-9.95594160828e-06,-0.53990475,0.3730251,-9.8753487,2
1569269010.38904,1569269010,389043714,1.19599998,-0.202039644,-0.192173839,1.197999954,0.026819486,-0.175015301,1.174999952,-0.089903884,0.106463723,0.229510166891698,0.305587607975437,-0.00263222650591,0.000921684056456,-9.85638219219e-06,-0.5300883,0.40247445,-9.88516515,2
1569269010.55226,1569269010,552262950,1.190999985,-0.181885019,-0.181716129,1.218999982,0.086581469,-0.152391821,1.171000004,-0.083902113,0.106101289,0.271510902268644,0.313348587896967,0.0200574242658,0.00615678359225,-9.66024018657e-06,-0.4515567,0.392658,-10.08149415,2
1569269010.7197,1569269010,719697919,1.205000043,-0.16448608,-0.191666409,1.218999982,0.112274602,-0.156344339,1.18599999,-0.081131078,0.105537646,0.279356621582868,0.327226115393932,-0.0112274639549,-0.00083374137411,0.00173576561422,-0.55953765,0.4319238,-9.81645,2
1569269010.8821,1569269010,882104886,1.202999949,-0.191519424,-0.187447652,1.202999949,0.062039591,-0.175745741,1.182000041,-0.078941047,0.107097976,0.253828896717498,0.316728755677901,0.00098984080907,0.00265691712989,-9.5636377847e-06,-0.52027185,0.4122909,-9.9538803,2
1569269011.04772,1569269011,47721435,1.197999954,-0.186838731,-0.192495212,1.190999985,0.032455772,-0.172061801,1.190999985,-0.08147312,0.107913442,0.220355628240154,0.302267975685908,-0.00424614694693,0.00091158787789,-9.5636377847e-06,-0.5300883,0.4122909,-9.90479805,2
1569269011.22078,1569269011,220777244,1.212000012,-0.200812429,-0.196709648,1.19599998,0.042287551,-0.174723119,1.190999985,-0.08147312,0.107913442,0.244616043540626,0.308585691907899,-0.00075548844293,0.00091158787789,-9.5636377847e-06,-0.5300883,0.40247445,-9.90479805,2
1569269011.39233,1569269011,392325735,1.197999954,-0.20431985,-0.192495212,1.197999954,0.042358264,-0.175015301,1.184000015,-0.084833562,0.107279189,0.247296662361555,0.309941829990045,0.0027427249455,0.000902471999111,-9.46800140685e-06,-0.5300883,0.392658,-9.92443095,2
1569269011.55304,1569269011,553043563,1.192999959,-0.213138297,-0.189757705,1.202999949,0.042535052,-0.175745741,1.184000015,-0.084833562,0.107279189,0.256252212329988,0.310945127515757,0.0062333834495,0.000902471999111,-9.46800140685e-06,-0.5300883,0.3730251,-9.90479805,2
1569269011.71876,1569269011,718758385,1.184000015,-0.205771431,-0.190245673,1.200000048,0.0385378,-0.175307482,1.192999959,-0.081609927,0.108094655,0.245287894031004,0.307898114325894,-0.0007479335585,0.000902471999111,-9.46800140685e-06,-0.52027185,0.42210735,-9.92443095,2
1569269011.87809,1569269011,878086655,1.212000012,-0.196882337,-0.177060544,1.241000056,0.08613199,-0.147094429,1.213999987,-0.083046481,0.109997414,0.286070061151911,0.308944290306585,0.00620595620004,0.00263877653112,-9.37332139278e-06,-0.5104554,0.4122909,-9.92443095,2
